{"version": 0.6, "generator": "Overpass API 0.7.61.5 4133829e", "osm3s": {"timestamp_osm_base": "2023-12-10T00:40:30Z", "copyright": "The data included in this document is from www.openstreetmap.org. The data is made available under ODbL."}, "elements": [{"type": "node", "id": 597413601, "lat": 48.8813537, "lon": 2.3003856, "tags": {"STIF:zone": "1", "bench": "yes", "bus": "yes", "bus_stop:type": "Abri autobus 4x1,60", "highway": "bus_stop", "name": "Wagram \u2013 Courcelles", "public_transport": "platform", "ref:FR:STIF": "39721", "ref:FR:STIF:stop_id": "StopPoint:59:5018177", "route_ref": "31", "shelter": "yes", "source": "survey 06/2017", "source:position": "opendata.paris.fr - 04/2011", "tactile_paving": "no"}}, {"type": "node", "id": 597413631, "lat": 48.8775401, "lon": 2.2986435, "tags": {"STIF:zone": "1", "bench": "yes", "bus": "yes", "highway": "bus_stop", "name": "Ternes", "public_transport": "platform", "ref:FR:STIF": "28254", "route_ref": "31;93;43;341", "shelter": "yes", "source:wheelchair": "STIF 2019-01", "tactile_paving": "no", "wheelchair": "yes"}}, {"type": "node", "id": 597413784, "lat": 48.8748496, "lon": 2.297394, "tags": {"STIF:zone": "1", "bench": "yes", "bus": "yes", "bus_stop:type": "Abri autobus 3,35x1,40", "highway": "bus_stop", "name": "Charles de Gaulle - \u00c9toile", "public_transport": "platform", "ref:FR:STIF": "40839;40840", "ref:FR:STIF:stop_id": "StopPoint:59:5018181;StopPoint:59:5018182", "route_ref": "31", "shelter": "yes", "survey:date": "2020-12-03"}}, {"type": "node", "id": 597414618, "lat": 48.8704345, "lon": 2.3060391, "tags": {"STIF:zone": "1", "bench": "yes", "bin": "yes", "bus": "yes", "highway": "bus_stop", "lit": "yes", "mapillary": "749484432406168", "name": "La Bo\u00e9tie - Champs-\u00c9lys\u00e9es", "passenger_information_display": "yes", "public_transport": "platform", "ref:FR:STIF": "34162", "ref:FR:STIF:stop_id": "StopPoint:59:4022894", "route_ref": "73;N24", "shelter": "yes", "source:wheelchair": "STIF 2019-01", "survey:date": "2020-12-23", "tactile_paving": "yes", "wheelchair": "yes"}}, {"type": "node", "id": 605193224, "lat": 48.8806176, "lon": 2.2839844, "tags": {"STIF:zone": "1", "bench": "yes", "bus": "yes", "bus_stop:type": "Abri autobus 4x1,30", "highway": "bus_stop", "name": "Porte Maillot - Pershing", "public_transport": "platform", "ref:FR:STIF": "37396", "route_ref": "PC", "shelter": "yes", "source:wheelchair": "STIF 2019-01", "survey:date": "2020-12-03", "wheelchair": "yes"}}, {"type": "node", "id": 646559102, "lat": 48.8650774, "lon": 2.3027492, "tags": {"STIF:zone": "1", "bench": "yes", "bus": "yes", "highway": "bus_stop", "name": "Alma - Marceau", "public_transport": "platform", "ref:FR:STIF": "22770", "ref:FR:STIF:stop_id": "StopPoint:59:3749904", "route_ref": "42 80 Bb;80;42", "shelter": "no", "source:wheelchair": "STIF 2019-01", "wheelchair": "no"}}, {"type": "node", "id": 826706607, "lat": 48.8748802, "lon": 2.3080662, "tags": {"STIF:zone": "1", "bus": "yes", "highway": "bus_stop", "name": "Haussmann - Courcelles", "public_transport": "platform", "ref:FR:STIF": "27329", "ref:FR:STIF:stop_id": "StopPoint:59:4022960", "route_ref": "93", "source:wheelchair": "STIF 2019-01", "wheelchair": "yes"}}, {"type": "node", "id": 827975681, "lat": 48.8803381, "lon": 2.3082693, "tags": {"STIF:zone": "1", "bench": "yes", "bin": "yes", "bus": "yes", "highway": "bus_stop", "lit": "yes", "name": "Monceau", "public_transport": "platform", "ref:FR:STIF": "28994", "ref:FR:STIF:stop_id": "StopPoint:59:3740312", "route_ref": "30", "shelter": "yes", "source:wheelchair": "STIF 2019-01", "tactile_paving": "no", "wheelchair": "no"}}, {"type": "node", "id": 828086163, "lat": 48.879133, "lon": 2.3036063, "tags": {"STIF:zone": "1", "bench": "yes", "bin": "no", "bus": "yes", "highway": "bus_stop", "lit": "yes", "name": "Courcelles", "public_transport": "platform", "ref:FR:STIF": "28995", "ref:FR:STIF:stop_id": "StopPoint:59:3740327", "route_ref": "30", "shelter": "yes", "source:wheelchair": "STIF 2019-01", "tactile_paving": "no", "wheelchair": "no"}}, {"type": "node", "id": 830630337, "lat": 48.8668906, "lon": 2.3058767, "tags": {"STIF:zone": "1", "bench": "yes", "bin": "no", "bus": "yes", "highway": "bus_stop", "name": "Montaigne - Fran\u00e7ois 1er", "public_transport": "platform", "ref:FR:STIF": "26179", "ref:FR:STIF:stop_id": "StopPoint:59:3749907", "route_ref": "80;42", "shelter": "yes", "source:wheelchair": "STIF 2019-01", "tactile_paving": "no", "wheelchair": "no"}}, {"type": "node", "id": 833088579, "lat": 48.8676857, "lon": 2.2995126, "tags": {"STIF:zone": "1", "bench": "yes", "bus": "yes", "highway": "bus_stop", "name": "Marceau - Pierre 1er de Serbie - Place de Beyrouth", "public_transport": "platform", "ref:FR:STIF": "25095", "ref:FR:STIF:stop_id": "StopPoint:59:3740526", "route_ref": "32", "shelter": "yes", "source:wheelchair": "STIF 2019-01", "wheelchair": "no"}}, {"type": "node", "id": 833088712, "lat": 48.8649545, "lon": 2.3007316, "tags": {"STIF:zone": "1", "bench": "yes", "bin": "no", "bus": "yes", "highway": "bus_stop", "lit": "yes", "name": "Alma - Marceau", "public_transport": "platform", "ref:FR:STIF": "26789", "ref:FR:STIF:stop_id": "StopPoint:59:3765228", "route_ref": "63;92", "shelter": "yes", "source:wheelchair": "STIF 2019-01", "tactile_paving": "no", "wheelchair": "no"}}, {"type": "node", "id": 833088718, "lat": 48.8678007, "lon": 2.2992701, "tags": {"STIF:zone": "1", "bench": "yes", "bus": "yes", "bus_stop:type": "Abri autobus 3,35x1,40", "check_date:shelter": "2023-07-13", "highway": "bus_stop", "name": "Marceau - Pierre 1er de Serbie - Place de Beyrouth", "public_transport": "platform", "ref:FR:STIF": "37392", "ref:FR:STIF:stop_id": "StopPoint:59:3813135", "shelter": "yes", "source": "survey 2019-04", "source:position": "BD Ortho 2019"}}, {"type": "node", "id": 833393599, "lat": 48.8726562, "lon": 2.2959361, "tags": {"STIF:zone": "1", "bench": "yes", "bin": "no", "bus": "yes", "bus_stop:type": "Abri autobus 4x1,30", "highway": "bus_stop", "lit": "yes", "name": "Charles de Gaulle - \u00c9toile - Marceau", "public_transport": "platform", "ref:FR:STIF": "37389", "ref:FR:STIF:stop_id": "StopPoint:59:4726748", "route_ref": "92", "shelter": "yes", "survey:date": "2020-12-03", "tactile_paving": "yes", "wheelchair": "yes"}}, {"type": "node", "id": 833422304, "lat": 48.8731284, "lon": 2.2966324, "tags": {"STIF:zone": "1", "bench": "no", "bin": "no", "bus": "yes", "highway": "bus_stop", "lit": "yes", "name": "Charles de Gaulle - \u00c9toile - Champs-\u00c9lys\u00e9es", "public_transport": "platform", "ref:FR:STIF": "24254", "shelter": "no", "source:wheelchair": "STIF 2019-01", "survey:date": "2020-12-03", "tactile_paving": "no", "wheelchair": "yes"}}, {"type": "node", "id": 838049984, "lat": 48.8746311, "lon": 2.3024124, "tags": {"STIF:zone": "1", "bus": "yes", "highway": "bus_stop", "name": "Balzac", "public_transport": "platform", "ref:FR:STIF": "37114", "ref:FR:STIF:stop_id": "StopPoint:59:4008220", "route_ref": "22;52;N53", "source:wheelchair": "STIF 2019-01", "wheelchair": "yes"}}, {"type": "node", "id": 838076184, "lat": 48.8738584, "lon": 2.2969573, "tags": {"STIF:zone": "1", "bench": "yes", "bus": "yes", "description": "Depuis le 01/11/2020, cet arr\u00eat n'est pas desservi en raison des travaux \u00c9OLE. L'arr\u00eat le plus proche est situ\u00e9 Avenue Hoche", "highway": "bus_stop", "name": "Charles de Gaulle - \u00c9toile - Friedland", "public_transport": "platform", "ref:FR:STIF": "25399;478510", "shelter": "yes", "source:wheelchair": "STIF 2019-01", "survey:date": "2020-12-03", "wheelchair": "yes"}}, {"type": "node", "id": 838123025, "lat": 48.8762546, "lon": 2.3007676, "tags": {"STIF:zone": "1", "bench": "yes", "bin": "no", "bus": "yes", "bus_stop:type": "Abri autobus T\u00e9l\u00e9com petit mod\u00e8le", "highway": "bus_stop", "lit": "yes", "mapillary": "316328890044831", "name": "Hoche - Saint-Honor\u00e9", "public_transport": "platform", "ref:FR:STIF": "25085", "ref:FR:STIF:stop_id": "StopPoint:59:5018180", "shelter": "yes", "source": "survey 06/2017", "source:position": "opendata.paris.fr - 04/2011", "survey:date": "2020-12-23", "tactile_paving": "yes"}}, {"type": "node", "id": 838532965, "lat": 48.8789726, "lon": 2.2989517, "tags": {"STIF:zone": "1", "bench": "yes", "bin": "yes", "bus": "yes", "bus_stop:type": "Abri autobus 3,35x1,40", "highway": "bus_stop", "lit": "yes", "mapillary": "326454345505403", "name": "Ternes", "public_transport": "platform", "ref:FR:STIF": "28250", "ref:FR:STIF:stop_id": "StopPoint:59:5018184", "shelter": "yes", "source": "survey 06/2017", "source:ref:FR:STIF": "opendata STIF - 03/2017", "survey:date": "2020-12-21", "tactile_paving": "no"}}, {"type": "node", "id": 838532968, "lat": 48.8780653, "lon": 2.297297, "tags": {"STIF:zone": "1", "bench": "yes", "bin": "yes", "bus": "yes", "highway": "bus_stop", "mapillary": "2836752499974082", "name": "Ternes", "public_transport": "platform", "ref:FR:STIF": "25307", "ref:FR:STIF:stop_id": "StopPoint:59:3749702", "route_ref": "43;93", "shelter": "yes", "source:wheelchair": "STIF 2019-01", "survey:date": "2020-12-21", "wheelchair": "yes"}}, {"type": "node", "id": 838533024, "lat": 48.8781435, "lon": 2.2989719, "tags": {"STIF:zone": "1", "bench": "yes", "bin": "no", "bus": "yes", "highway": "bus_stop", "mapillary": "796563374569269", "name": "Ternes", "public_transport": "platform", "ref:FR:STIF": "29000", "ref:FR:STIF:stop_id": "StopPoint:59:3740326", "route_ref": "30", "shelter": "yes", "source:wheelchair": "STIF 2019-01", "survey:date": "2020-12-21", "tactile_paving": "no", "wheelchair": "no"}}, {"type": "node", "id": 838533051, "lat": 48.8783783, "lon": 2.2989441, "tags": {"STIF:zone": "1", "bus": "yes", "highway": "bus_stop", "name": "Ternes", "public_transport": "platform", "ref:FR:STIF": "28990", "ref:FR:STIF:stop_id": "StopPoint:59:3740314", "route_ref": "30", "shelter": "no", "source:wheelchair": "STIF 2019-01", "wheelchair": "no"}}, {"type": "node", "id": 911471251, "lat": 48.8734969, "lon": 2.2963716, "tags": {"bench": "no", "bus": "yes", "highway": "bus_stop", "mapillary": "162430765762852", "name": "Champs \u00c9lys\u00e9es-\u00c9toile", "operator": "Cars Rouges", "public_transport": "platform", "ref": "Cars Rouges", "route_ref": "73;N11;N24", "shelter": "no", "survey:date": "2020-12-03", "website": "https://www.carsrouges.fr/"}}, {"type": "node", "id": 911471330, "lat": 48.8739587, "lon": 2.2963912, "tags": {"STIF:zone": "1", "bench": "yes", "bus": "yes", "description": "Depuis le 01/11/2020, cet arr\u00eat n'est pas desservi en raison des travaux \u00c9OLE. L'arr\u00eat le plus proche est situ\u00e9 Avenue Hoche", "highway": "bus_stop", "name": "Charles de Gaulle - \u00c9toile - Friedland", "public_transport": "platform", "ref:FR:STIF": "25392;478513", "ref:FR:STIF:stop_id": "StopPoint:59:4008222", "route_ref": "22;52;N53;N151;N153", "shelter": "yes", "source:wheelchair": "STIF 2019-01", "survey:date": "2020-12-03", "wheelchair": "yes"}}, {"type": "node", "id": 911471357, "lat": 48.8730842, "lon": 2.2958582, "tags": {"STIF:zone": "1", "bench": "yes", "bin": "no", "bus": "yes", "bus_stop:type": "Abri autobus 4x1,00", "highway": "bus_stop", "lit": "yes", "name": "Charles de Gaulle - \u00c9toile - Marceau", "public_transport": "platform", "ref:FR:STIF": "41773", "ref:FR:STIF:stop_id": "StopPoint:59:3813137", "shelter": "yes", "survey:date": "2020-12-03", "tactile_paving": "no"}}, {"type": "node", "id": 911471431, "lat": 48.8733733, "lon": 2.2967576, "tags": {"STIF:zone": "1", "bench": "no", "bus": "yes", "highway": "bus_stop", "name": "Charles de Gaulle - \u00c9toile - Champs-\u00c9lys\u00e9es", "public_transport": "platform", "ref:FR:STIF": "24253", "shelter": "no", "source:wheelchair": "STIF 2019-01", "survey:date": "2020-12-03", "wheelchair": "yes"}}, {"type": "node", "id": 911471503, "lat": 48.8746157, "lon": 2.2954652, "tags": {"STIF:zone": "1", "bus": "yes", "highway": "bus_stop", "name": "Charles de Gaulle - \u00c9toile - Wagram", "public_transport": "platform", "ref:FR:STIF": "28993", "ref:FR:STIF:stop_id": "StopPoint:59:3740315", "route_ref": "30", "shelter": "no", "survey:date": "2020-12-03"}}, {"type": "node", "id": 925761830, "lat": 48.8653193, "lon": 2.294864, "tags": {"STIF:zone": "1", "bench": "yes", "bin": "no", "bus": "yes", "highway": "bus_stop", "name": "I\u00e9na", "public_transport": "platform", "ref:FR:STIF": "39923", "ref:FR:STIF:stop_id": "StopPoint:59:3740527", "route_ref": "32", "shelter": "yes", "source:wheelchair": "STIF 2019-01", "wheelchair": "no"}}, {"type": "node", "id": 936923996, "lat": 48.8726724, "lon": 2.2941072, "tags": {"STIF:zone": "1", "bench": "yes", "bin": "no", "bus": "yes", "highway": "bus_stop", "lit": "yes", "name": "Charles de Gaulle - \u00c9toile - Kl\u00e9ber", "public_transport": "platform", "ref:FR:STIF": "29453", "shelter": "yes", "source:wheelchair": "STIF 2019-01", "survey:date": "2020-12-03", "tactile_paving": "no", "wheelchair": "no"}}, {"type": "node", "id": 936925030, "lat": 48.8732072, "lon": 2.2934772, "tags": {"STIF:zone": "1", "bench": "no", "bin": "yes", "bus": "yes", "bus_stop:type": "Abri autobus 4x1,30", "highway": "bus_stop", "lit": "yes", "name": "Charles de Gaulle - \u00c9toile - Victor Hugo", "public_transport": "platform", "ref:FR:STIF": "25391", "ref:FR:STIF:stop_id": "StopPoint:59:4008224", "route_ref": "52", "shelter": "yes", "source:wheelchair": "STIF 2019-01", "survey:date": "2020-12-03", "tactile_paving": "yes", "wheelchair": "yes"}}, {"type": "node", "id": 936925342, "lat": 48.8731747, "lon": 2.293826, "tags": {"STIF:zone": "1", "bench": "yes", "bin": "no", "bus": "yes", "bus_stop:type": "Abri autobus 4x1,30", "highway": "bus_stop", "lit": "yes", "name": "Charles de Gaulle - \u00c9toile - Victor Hugo", "public_transport": "platform", "ref:FR:STIF": "25416", "ref:FR:STIF:stop_id": "StopPoint:59:4008225", "route_ref": "52", "shelter": "yes", "source:wheelchair": "STIF 2019-01", "survey:date": "2020-12-03", "tactile_paving": "yes", "wheelchair": "yes"}}, {"type": "node", "id": 936925461, "lat": 48.8726164, "lon": 2.2943223, "tags": {"STIF:zone": "1", "bench": "yes", "bus": "yes", "highway": "bus_stop", "name": "Charles de Gaulle - \u00c9toile - Kl\u00e9ber", "public_transport": "platform", "ref:FR:STIF": "28003", "ref:FR:STIF:stop_id": "StopPoint:59:3740317", "route_ref": "22;30;N53", "shelter": "yes", "source:wheelchair": "STIF 2019-01", "survey:date": "2020-12-03", "wheelchair": "no"}}, {"type": "node", "id": 937195063, "lat": 48.8692074, "lon": 2.2859874, "tags": {"STIF:zone": "1", "bench": "no", "bus": "yes", "highway": "bus_stop", "name": "Victor Hugo - Poincar\u00e9", "public_transport": "platform", "ref:FR:STIF": "23506", "ref:FR:STIF:stop_id": "StopPoint:59:3813005", "route_ref": "82", "shelter": "no", "source:wheelchair": "STIF 2019-01", "tactile_paving": "no", "wheelchair": "yes"}}, {"type": "node", "id": 937209060, "lat": 48.8714154, "lon": 2.2892192, "tags": {"STIF:zone": "1", "bench": "yes", "bin": "yes", "bus": "yes", "bus_stop:type": "Abri autobus 3,35x1,40", "highway": "bus_stop", "lit": "yes", "name": "Victor Hugo - Paul Val\u00e9ry", "name:RATP": "VICTOR HUGO-PAUL VALERY", "public_transport": "platform", "ref:FR:RATP": "11346114", "ref:FR:STIF": "25408", "ref:FR:STIF:stop_id": "StopPoint:59:4008226", "route_ref": "52", "shelter": "yes", "source": "cadastre-dgi-fr source : Direction G\u00e9n\u00e9rale des Imp\u00f4ts - Cadastre. Mise \u00e0 jour : 2010", "source:position": "opendata.paris.fr - 04/2011", "source:wheelchair": "STIF 2019-01", "tactile_paving": "no", "type:RATP": "bus", "wheelchair": "yes"}}, {"type": "node", "id": 937854330, "lat": 48.8717442, "lon": 2.2847057, "tags": {"STIF:zone": "1", "bus": "yes", "highway": "bus_stop", "name": "Foch", "public_transport": "platform", "ref:FR:STIF": "25326", "ref:FR:STIF:stop_id": "StopPoint:59:3813007", "route_ref": "82", "source:wheelchair": "STIF 2019-01", "wheelchair": "yes"}}, {"type": "node", "id": 937854385, "lat": 48.8719746, "lon": 2.2848508, "tags": {"STIF:zone": "1", "bench": "yes", "bus": "yes", "bus_stop:type": "Abri autobus 4x1,60", "highway": "bus_stop", "name": "Foch", "public_transport": "platform", "ref:FR:STIF": "23503", "route_ref": "82", "shelter": "yes", "source": "survey 06/2018", "source:position": "BD Ortho 2018", "source:wheelchair": "STIF 2019-01", "wheelchair": "yes"}}, {"type": "node", "id": 938079213, "lat": 48.8746475, "lon": 2.2841725, "tags": {"STIF:zone": "1", "bench": "yes", "bin": "no", "bus": "yes", "bus_stop:type": "Abri autobus 3,35x1,40", "highway": "bus_stop", "lit": "no", "name": "Alphand", "public_transport": "platform", "ref:FR:STIF": "23501;23501", "ref:FR:STIF:stop_id": "StopPoint:59:3813008", "route_ref": "PC", "shelter": "yes", "source": "survey 06/2018", "source:position": "BD Ortho 2018", "source:wheelchair": "STIF 2019-01", "tactile_paving": "no", "wheelchair": "yes"}}, {"type": "node", "id": 938079693, "lat": 48.8743586, "lon": 2.2840384, "tags": {"STIF:zone": "1", "bench": "yes", "bin": "yes", "bus": "yes", "highway": "bus_stop", "name": "Alphand", "public_transport": "platform", "ref:FR:STIF": "25324", "ref:FR:STIF:stop_id": "StopPoint:59:3813009", "route_ref": "82", "shelter": "yes", "source:wheelchair": "STIF 2019-01", "tactile_paving": "no", "wheelchair": "yes"}}, {"type": "node", "id": 938085927, "lat": 48.8769503, "lon": 2.2846656, "tags": {"STIF:zone": "2", "bench": "yes", "bin": "no", "bus": "yes", "highway": "bus_stop", "lit": "yes", "name": "Porte Maillot", "public_transport": "platform", "ref:FR:STIF": "28427", "ref:FR:STIF:stop_id": "StopPoint:59:4022943", "route_ref": "N11;N24;N151;N153;73", "shelter": "yes", "source:wheelchair": "STIF 2019-01", "tactile_paving": "no", "wheelchair": "yes"}}, {"type": "node", "id": 938799494, "lat": 48.8763467, "lon": 2.2821327, "tags": {"STIF:zone": "1", "bus": "yes", "bus_stop:type": "Abri autobus 4x1,60", "highway": "bus_stop", "name": "Porte Maillot - Malakoff", "public_transport": "platform", "ref:FR:STIF": "25347", "ref:FR:STIF:stop_id": "StopPoint:59:3813192", "shelter": "yes", "source": "survey 09/2017", "source:position": "opendata.paris.fr - 04/2011", "wheelchair": "limited"}}, {"type": "node", "id": 959790723, "lat": 48.876715, "lon": 2.2836061, "tags": {"STIF:zone": "2", "bus": "yes", "highway": "bus_stop", "name": "Porte Maillot", "public_transport": "platform", "ref:FR:STIF": "483371", "route_ref": "PC", "source:wheelchair": "STIF 2019-01", "wheelchair": "yes"}}, {"type": "node", "id": 1300458214, "lat": 48.8671524, "lon": 2.3067325, "tags": {"STIF:zone": "1", "bench": "yes", "bin": "no", "bus": "yes", "highway": "bus_stop", "name": "Montaigne - Fran\u00e7ois 1er", "public_transport": "platform", "ref:FR:STIF": "22771", "ref:FR:STIF:stop_id": "StopPoint:59:3749906", "route_ref": "42;80", "shelter": "no", "source:wheelchair": "STIF 2019-01", "wheelchair": "no"}}, {"type": "node", "id": 1302120647, "lat": 48.878026, "lon": 2.2844731}, {"type": "node", "id": 1347029714, "lat": 48.8687875, "lon": 2.3019902, "tags": {"STIF:zone": "1", "bus": "yes", "highway": "bus_stop", "name": "Pierre Charron - Fran\u00e7ois 1er", "public_transport": "platform", "ref:FR:STIF": "22815", "ref:FR:STIF:stop_id": "StopPoint:59:3740525", "route_ref": "32", "shelter": "yes", "source:wheelchair": "STIF 2019-01", "wheelchair": "no"}}, {"type": "node", "id": 1463853553, "lat": 48.8680878, "lon": 2.2817635, "tags": {"STIF:zone": "1", "bus": "yes", "bus_stop:type": "Abri autobus 4x1,60", "highway": "bus_stop", "name": "Place Jean Monnet", "public_transport": "platform", "ref:FR:STIF": "9134", "ref:FR:STIF:stop_id": "StopPoint:59:4008232", "route_ref": "52", "shelter": "yes", "source": "survey", "source:position": "opendata.paris.fr - 04/2011", "source:wheelchair": "STIF 2019-01", "wheelchair": "yes"}}, {"type": "node", "id": 1549569954, "lat": 48.879038, "lon": 2.2945395, "tags": {"STIF:zone": "1", "bench": "yes", "bus": "yes", "highway": "bus_stop", "name": "Ternes - MacMahon", "public_transport": "platform", "ref:FR:STIF": "29153", "route_ref": "93;92;PC", "shelter": "yes", "source:wheelchair": "STIF 2019-01", "tactile_paving": "no", "wheelchair": "no"}}, {"type": "node", "id": 1549570012, "lat": 48.8790567, "lon": 2.2942853, "tags": {"STIF:zone": "1", "bench": "yes", "bin": "yes", "bus": "yes", "bus_stop:type": "Abri autobus 3,35x1,40", "highway": "bus_stop", "mapillary": "966373937523365", "name": "Ternes - Mac Mahon", "public_transport": "platform", "ref:FR:STIF": "29154", "shelter": "yes", "source": "survey", "source:position": "BD Ortho 2019", "survey:date": "2020-12-29", "tactile_paving": "yes", "wheelchair": "yes"}}, {"type": "node", "id": 1579846382, "lat": 48.869354, "lon": 2.308445, "tags": {"STIF:zone": "1", "bench": "yes", "bin": "no", "bus": "yes", "highway": "bus_stop", "lit": "yes", "name": "Rond-Point des Champs-\u00c9lys\u00e9es", "public_transport": "platform", "ref:FR:STIF": "24252", "ref:FR:STIF:stop_id": "StopPoint:59:4022893", "route_ref": "73;N24", "shelter": "yes", "source:wheelchair": "STIF 2019-01", "tactile_paving": "no", "wheelchair": "yes"}}, {"type": "node", "id": 1579846441, "lat": 48.8701814, "lon": 2.3058463, "tags": {"STIF:zone": "1", "bench": "yes", "bin": "yes", "bus": "yes", "highway": "bus_stop", "mapillary": "305058551236896", "name": "La Bo\u00e9tie - Champs-\u00c9lys\u00e9es", "passenger_information_display": "yes", "public_transport": "platform", "ref:FR:STIF": "27223", "ref:FR:STIF:stop_id": "StopPoint:59:3740523", "route_ref": "32;N24", "shelter": "yes", "source:wheelchair": "STIF 2019-01", "survey:date": "2020-12-23", "wheelchair": "no"}}, {"type": "node", "id": 1688696444, "lat": 48.8698995, "lon": 2.2844641, "tags": {"STIF:zone": "1", "bus": "yes", "highway": "bus_stop", "name": "Victor Hugo - Poincar\u00e9", "public_transport": "platform", "ref:FR:STIF": "40581", "ref:FR:STIF:stop_id": "StopPoint:59:4008228", "route_ref": "52", "shelter": "no", "source:wheelchair": "STIF 2019-01", "wheelchair": "yes"}}, {"type": "node", "id": 1688696452, "lat": 48.8699289, "lon": 2.2861384, "tags": {"STIF:zone": "1", "bus": "yes", "bus_stop:type": "Abri autobus 4x1,60", "highway": "bus_stop", "name": "Victor Hugo - Poincar\u00e9", "public_transport": "platform", "ref:FR:STIF": "25386", "ref:FR:STIF:stop_id": "StopPoint:59:4008229", "route_ref": "52", "shelter": "yes", "source:position": "opendata.paris.fr - 04/2011", "source:wheelchair": "STIF 2019-01", "wheelchair": "yes"}}, {"type": "node", "id": 1688696458, "lat": 48.8702353, "lon": 2.285301, "tags": {"STIF:zone": "1", "bench": "yes", "bus": "yes", "bus_stop:type": "Abri autobus 3,35x1,40", "highway": "bus_stop", "name": "Victor Hugo - Poincar\u00e9", "public_transport": "platform", "ref:FR:STIF": "23499", "route_ref": "82", "shelter": "yes", "source": "survey 06/2018", "source:position": "BD Ortho 2018", "source:wheelchair": "STIF 2019-01", "wheelchair": "yes"}}, {"type": "node", "id": 1983648219, "lat": 48.8686968, "lon": 2.3015531, "tags": {"STIF:zone": "1", "bench": "yes", "bin": "yes", "bus": "yes", "highway": "bus_stop", "lit": "yes", "name": "Pierre Charron - Fran\u00e7ois 1er", "public_transport": "platform", "ref:FR:STIF": "25101", "ref:FR:STIF:stop_id": "StopPoint:59:3740524", "route_ref": "32", "shelter": "yes", "source:wheelchair": "STIF 2019-01", "tactile_paving": "no", "wheelchair": "no"}}, {"type": "node", "id": 1986745623, "lat": 48.8721395, "lon": 2.3006866, "tags": {"STIF:zone": "1", "alt_name": "Champs Elys\u00e9es - George V", "bench": "yes", "bin": "yes", "bus": "yes", "highway": "bus_stop", "mapillary": "916652449180250", "name": "George V", "public_transport": "platform", "ref:FR:Open_Tour": "11", "ref:FR:STIF": "34163", "ref:FR:STIF:stop_id": "StopPoint:59:4022896", "route_ref": "73;N11;N24;Bb;OpenTour", "shelter": "yes", "source:wheelchair": "STIF 2019-01", "survey:date": "2019-12-25", "tactile_paving": "no", "wheelchair": "yes"}}, {"type": "node", "id": 1987166776, "lat": 48.8719232, "lon": 2.2935551, "tags": {"bench": "yes", "bus": "yes", "highway": "bus_stop", "name": "Charles de Gaulle - \u00c9toile", "public_transport": "platform", "ref:FR:Open_Tour": "12", "shelter": "yes", "survey:date": "2020-12-03"}}, {"type": "node", "id": 1987166807, "lat": 48.8691716, "lon": 2.2918283, "tags": {"STIF:zone": "1", "bench": "yes", "bin": "yes", "bus": "yes", "highway": "bus_stop", "name": "Kl\u00e9ber - Paul Val\u00e9ry", "public_transport": "platform", "ref:FR:STIF": "39488", "ref:FR:STIF:stop_id": "StopPoint:59:3740319", "route_ref": "22;30;N53", "shelter": "yes", "source:wheelchair": "STIF 2019-01", "wheelchair": "no"}}, {"type": "node", "id": 1987166808, "lat": 48.8693868, "lon": 2.2917295, "tags": {"STIF:zone": "1", "bench": "yes", "bin": "yes", "bus": "yes", "highway": "bus_stop", "name": "Kl\u00e9ber - Paul Val\u00e9ry", "public_transport": "platform", "ref:FR:STIF": "22805", "ref:FR:STIF:stop_id": "StopPoint:59:3740318", "route_ref": "22;30;N53", "shelter": "yes", "source:wheelchair": "STIF 2019-01", "wheelchair": "no"}}, {"type": "node", "id": 1987167041, "lat": 48.8676389, "lon": 2.2907118, "tags": {"STIF:zone": "1", "bus": "yes", "highway": "bus_stop", "name": "Kl\u00e9ber - Boissi\u00e8re", "public_transport": "platform", "ref:FR:STIF": "39327", "ref:FR:STIF:stop_id": "StopPoint:59:3813001", "route_ref": "82", "shelter": "yes", "source:wheelchair": "STIF 2019-01", "wheelchair": "yes"}}, {"type": "node", "id": 2034367270, "lat": 48.8812786, "lon": 2.3006155, "tags": {"STIF:zone": "1", "bench": "yes", "bus": "yes", "bus_stop:type": "Abri autobus 3,35x1,40", "highway": "bus_stop", "name": "Wagram \u2013 Courcelles", "public_transport": "platform", "ref:FR:STIF": "22814", "ref:FR:STIF:stop_id": "StopPoint:59:5018178", "route_ref": "31", "shelter": "yes", "source": "survey 06/2017", "source:position": "opendata.paris.fr - 04/2011", "tactile_paving": "no"}}, {"type": "node", "id": 2034367274, "lat": 48.8791872, "lon": 2.3027025, "tags": {"STIF:zone": "1", "bench": "yes", "bin": "yes", "bus": "yes", "highway": "bus_stop", "lit": "yes", "name": "Courcelles", "public_transport": "platform", "ref:FR:STIF": "28986", "ref:FR:STIF:stop_id": "StopPoint:59:3740313", "route_ref": "30", "shelter": "yes", "source:wheelchair": "STIF 2019-01", "tactile_paving": "no", "wheelchair": "no"}}, {"type": "node", "id": 2034367276, "lat": 48.8794012, "lon": 2.3027491, "tags": {"STIF:zone": "1", "bench": "yes", "bus": "yes", "bus_stop:type": "Abri autobus T\u00e9l\u00e9com petit mod\u00e8le", "highway": "bus_stop", "name": "Courcelles", "public_transport": "platform", "ref:FR:STIF": "24869", "ref:FR:STIF:stop_id": "StopPoint:59:3765465", "shelter": "yes", "source": "survey 09/2018", "source:position": "BDOrtho IGN 2018", "source:ref:FR:STIF": "opendata STIF - 03/2017", "tactile_paving": "no"}}, {"type": "node", "id": 2034367277, "lat": 48.8819917, "lon": 2.3003977, "tags": {"STIF:zone": "1", "bus": "yes", "bus_stop:type": "Abri autobus T\u00e9l\u00e9com petit mod\u00e8le", "highway": "bus_stop", "name": "Wagram - Courcelles", "public_transport": "platform", "ref:FR:STIF": "24864", "ref:FR:STIF:stop_id": "StopPoint:59:7653704", "route_ref": "84", "shelter": "yes", "source": "survey 09/2018", "source:position": "BDOrtho IGN 2018", "source:wheelchair": "STIF 2019-01", "tactile_paving": "yes", "wheelchair": "yes"}}, {"type": "node", "id": 2034367278, "lat": 48.8819687, "lon": 2.3001702, "tags": {"STIF:zone": "1", "bench": "yes", "bus": "yes", "bus_stop:type": "Abri autobus T\u00e9l\u00e9com grand mod\u00e8le", "highway": "bus_stop", "name": "Wagram - Courcelles", "public_transport": "platform", "ref:FR:STIF": "24870", "ref:FR:STIF:stop_id": "StopPoint:59:7653705", "route_ref": "84", "shelter": "yes", "source": "survey 09/2018", "source:position": "BDOrtho IGN 2018", "source:wheelchair": "STIF 2019-01", "tactile_paving": "yes", "wheelchair": "yes"}}, {"type": "node", "id": 2038089336, "lat": 48.877824, "lon": 2.3055076, "tags": {"STIF:zone": "1", "bench": "yes", "bin": "no", "bus": "yes", "bus_stop:type": "Abri autobus 4x1,60", "highway": "bus_stop", "name": "Murillo", "public_transport": "platform", "ref:FR:STIF": "9140", "ref:FR:STIF:stop_id": "StopPoint:59:3765454", "shelter": "yes", "source": "survey 09/2018", "source:position": "BDOrtho IGN 2018", "source:ref:FR:STIF": "opendata STIF - 03/2017", "tactile_paving": "no"}}, {"type": "node", "id": 2038089337, "lat": 48.8789229, "lon": 2.3036705, "tags": {"STIF:zone": "1", "bench": "no", "bus": "yes", "bus_stop:type": "Abri autobus T\u00e9l\u00e9com grand mod\u00e8le", "highway": "bus_stop", "name": "Courcelles", "public_transport": "platform", "ref:FR:STIF": "24868", "ref:FR:STIF:stop_id": "StopPoint:59:7653703", "route_ref": "84", "shelter": "no", "source": "survey 09/2018", "source:position": "opendata.paris.fr - 04/2011", "source:wheelchair": "STIF 2019-01", "wheelchair": "yes"}}, {"type": "node", "id": 2042462228, "lat": 48.8649749, "lon": 2.2951353, "tags": {"STIF:zone": "1", "bench": "yes", "bus": "yes", "highway": "bus_stop", "name": "I\u00e9na", "public_transport": "platform", "ref:FR:STIF": "27094", "ref:FR:STIF:stop_id": "StopPoint:59:3765229", "route_ref": "63", "shelter": "yes", "source:wheelchair": "STIF 2019-01", "wheelchair": "yes"}}, {"type": "node", "id": 2042462229, "lat": 48.8650233, "lon": 2.3022637, "tags": {"STIF:zone": "1", "bench": "yes", "bin": "no", "bus": "yes", "highway": "bus_stop", "name": "Alma - Marceau", "public_transport": "platform", "ref:FR:STIF": "26178", "ref:FR:STIF:stop_id": "StopPoint:59:3749905", "route_ref": "42;80", "shelter": "yes", "source:wheelchair": "STIF 2019-01", "wheelchair": "no"}}, {"type": "node", "id": 2042462232, "lat": 48.8660206, "lon": 2.2920414, "tags": {"STIF:zone": "1", "bus": "yes", "highway": "bus_stop", "name": "Lubeck", "public_transport": "platform", "ref:FR:STIF": "9108", "ref:FR:STIF:stop_id": "StopPoint:59:3812999", "route_ref": "82", "source:wheelchair": "STIF 2019-01", "wheelchair": "yes"}}, {"type": "node", "id": 2042462236, "lat": 48.866991, "lon": 2.2992746, "tags": {"STIF:zone": "1", "bench": "yes", "bin": "no", "bus": "yes", "bus_stop:type": "Abri autobus T\u00e9l\u00e9com grand mod\u00e8le", "check_date:shelter": "2023-07-13", "highway": "bus_stop", "name": "Marceau - Pierre 1er de Serbie - Place de Beyrouth", "public_transport": "platform", "ref:FR:RATP": "11347666", "ref:FR:STIF": "37394", "ref:FR:STIF:stop_id": "StopPoint:59:3813153", "shelter": "yes", "source": "survey 09/2017", "source:position": "BD Ortho 2019", "source:ref:FR:STIF": "opendata STIF - 03/2017", "type:RATP": "bus", "wheelchair": "yes"}}, {"type": "node", "id": 2042462237, "lat": 48.8670154, "lon": 2.2985529, "tags": {"STIF:zone": "1", "bench": "yes", "bus": "yes", "highway": "bus_stop", "name": "Marceau - Pierre 1er de Serbie - Place de Beyrouth", "public_transport": "platform", "ref:FR:STIF": "34170", "ref:FR:STIF:stop_id": "StopPoint:59:3740555", "route_ref": "32", "shelter": "yes", "source:wheelchair": "STIF 2019-01", "wheelchair": "no"}}, {"type": "node", "id": 2042462250, "lat": 48.8712232, "lon": 2.2891794, "tags": {"STIF:zone": "1", "bench": "yes", "bin": "yes", "bus": "yes", "bus_stop:type": "Abri autobus 3,35x1,40", "highway": "bus_stop", "lit": "yes", "name": "Victor Hugo - Paul Val\u00e9ry", "public_transport": "platform", "ref:FR:RATP": "11346153", "ref:FR:STIF": "25383", "ref:FR:STIF:stop_id": "StopPoint:59:4008227", "route_ref": "52", "shelter": "yes", "source:name": "opendata RATP - navitia.io", "source:position": "opendata.paris.fr - 04/2011", "source:wheelchair": "STIF 2019-01", "tactile_paving": "no", "type:RATP": "bus", "wheelchair": "yes"}}, {"type": "node", "id": 2042462271, "lat": 48.8740352, "lon": 2.2937527, "tags": {"STIF:zone": "1", "bench": "yes", "bin": "yes", "bus": "yes", "highway": "bus_stop", "lit": "yes", "name": "Charles de Gaulle - \u00c9toile - Grande Arm\u00e9e", "public_transport": "platform", "ref:FR:STIF": "28428", "shelter": "yes", "source:wheelchair": "STIF 2019-01", "survey:date": "2020-12-03", "tactile_paving": "no", "wheelchair": "yes"}}, {"type": "node", "id": 2042462277, "lat": 48.8744249, "lon": 2.2934693, "tags": {"STIF:zone": "1", "bench": "yes", "bin": "no", "bus": "yes", "highway": "bus_stop", "lit": "yes", "name": "Charles de Gaulle - \u00c9toile - Grande Arm\u00e9e", "public_transport": "platform", "ref:FR:STIF": "460436", "ref:FR:STIF:stop_id": "StopPoint:59:7305038", "route_ref": "N24;73;N11", "shelter": "yes", "source:wheelchair": "STIF 2019-01", "survey:date": "2020-12-03", "tactile_paving": "no", "wheelchair": "yes"}}, {"type": "node", "id": 2042462290, "lat": 48.8748654, "lon": 2.2960204, "tags": {"STIF:zone": "1", "bench": "yes", "bus": "yes", "highway": "bus_stop", "name": "Charles de Gaulle - \u00c9toile - Wagram", "public_transport": "platform", "ref:FR:STIF": "39487", "shelter": "yes", "source:wheelchair": "STIF 2019-01", "survey:date": "2020-12-03", "tactile_paving": "yes", "wheelchair": "no"}}, {"type": "node", "id": 2042462311, "lat": 48.8779032, "lon": 2.3056888, "tags": {"STIF:zone": "1", "bench": "yes", "bus": "yes", "bus_stop:type": "Abri autobus T\u00e9l\u00e9com type Champs-Elys\u00e9es", "highway": "bus_stop", "name": "Murillo", "name:RATP": "MURILLO", "public_transport": "platform", "ref:FR:RATP": "11347451", "ref:FR:STIF": "39819", "ref:FR:STIF:stop_id": "StopPoint:59:7653701", "route_ref": "84", "shelter": "yes", "source": "survey 09/2018", "source:position": "BDOrtho IGN 2018", "source:wheelchair": "STIF 2019-01", "tactile_paving": "no", "type:RATP": "bus", "wheelchair": "yes"}}, {"type": "node", "id": 2042462318, "lat": 48.880691, "lon": 2.2848205, "tags": {"STIF:zone": "1", "bench": "yes", "bus": "yes", "bus_stop:type": "Abri autobus T\u00e9l\u00e9com grand mod\u00e8le", "highway": "bus_stop", "name": "G\u00e9n\u00e9ral K\u0153nig - Palais des Congr\u00e8s", "public_transport": "platform", "ref:FR:RATP": "11345732", "ref:FR:STIF": "26255", "route_ref": "43", "shelter": "yes", "source:wheelchair": "STIF 2019-01", "survey:date": "2020-12-03", "wheelchair": "yes"}}, {"type": "node", "id": 2042462321, "lat": 48.8809024, "lon": 2.2849439, "tags": {"STIF:zone": "1", "bench": "yes", "bin": "no", "bus": "yes", "bus_stop:type": "Abri autobus T\u00e9l\u00e9com petit mod\u00e8le", "highway": "bus_stop", "mapillary": "793008401358272", "name": "G\u00e9n\u00e9ral K\u0153nig - Palais des Congr\u00e8s", "public_transport": "platform", "ref:FR:RATP": "11345715", "ref:FR:STIF": "26251", "route_ref": "43", "shelter": "yes", "source:wheelchair": "STIF 2019-01", "survey:date": "2020-12-29", "wheelchair": "yes"}}, {"type": "node", "id": 2042462322, "lat": 48.8810322, "lon": 2.2952954, "tags": {"STIF:zone": "1", "bench": "yes", "bin": "no", "bus": "yes", "departures_board": "realtime", "highway": "bus_stop", "level": "0", "name": "Pierre Demours", "public_transport": "platform", "ref:FR:STIF": "9112", "route_ref": "92;93;341", "shelter": "yes", "source:wheelchair": "STIF 2019-01", "tactile_paving": "no", "wheelchair": "no"}}, {"type": "node", "id": 2042462324, "lat": 48.8815093, "lon": 2.2957912, "tags": {"STIF:zone": "1", "bench": "yes", "bus": "yes", "highway": "bus_stop", "name": "Pierre Demours", "public_transport": "platform", "ref:FR:STIF": "36745", "shelter": "yes", "source:wheelchair": "STIF 2019-01", "tactile_paving": "no", "wheelchair": "no"}}, {"type": "node", "id": 2043512967, "lat": 48.8747157, "lon": 2.3056852, "tags": {"STIF:zone": "1", "bench": "yes", "bin": "yes", "bus": "yes", "highway": "bus_stop", "mapillary": "500053278003254", "name": "Friedland - Haussmann", "passenger_information_display": "yes", "public_transport": "platform", "ref:FR:STIF": "25400", "ref:FR:STIF:stop_id": "StopPoint:59:4008219", "route_ref": "52", "shelter": "yes", "source:wheelchair": "STIF 2019-01", "survey:date": "2020-12-29", "wheelchair": "yes"}}, {"type": "node", "id": 2076993616, "lat": 48.8748205, "lon": 2.3066235, "tags": {"STIF:zone": "1", "bench": "yes", "bus": "yes", "highway": "bus_stop", "image": "http://storage3.openstreetcam.org/files/photo/2017/12/17/lth/986865_ceec7_41.jpg", "name": "Friedland - Haussmann", "public_transport": "platform", "ref:FR:STIF": "22997", "ref:FR:STIF:stop_id": "StopPoint:59:3893401", "route_ref": "83", "shelter": "yes", "source": "survey 06/2018", "source:position": "BD Ortho 2018", "source:wheelchair": "STIF 2019-01", "survey:date": "2018-06-15", "wheelchair": "yes"}}, {"type": "node", "id": 2493410467, "lat": 48.8776135, "lon": 2.2825044}, {"type": "node", "id": 2531630828, "lat": 48.8779589, "lon": 2.2845968}, {"type": "node", "id": 2531630830, "lat": 48.8780353, "lon": 2.2844576}, {"type": "node", "id": 2531630832, "lat": 48.8783775, "lon": 2.2852325}, {"type": "node", "id": 2531630833, "lat": 48.8784612, "lon": 2.2850822}, {"type": "node", "id": 2531630834, "lat": 48.8786721, "lon": 2.2857479}, {"type": "node", "id": 2531630835, "lat": 48.8787649, "lon": 2.2855971}, {"type": "node", "id": 2531630836, "lat": 48.8789357, "lon": 2.2862795}, {"type": "node", "id": 2531630837, "lat": 48.8790488, "lon": 2.2861243}, {"type": "node", "id": 2531630838, "lat": 48.8794204, "lon": 2.2871869}, {"type": "node", "id": 2531630840, "lat": 48.879542, "lon": 2.287023}, {"type": "node", "id": 2662235778, "lat": 48.8750982, "lon": 2.3079908, "tags": {"STIF:zone": "1", "bus": "yes", "highway": "bus_stop", "name": "Haussmann - Courcelles", "public_transport": "platform", "ref:FR:STIF": "27322", "ref:FR:STIF:stop_id": "StopPoint:59:4022959", "route_ref": "N53;93", "source:wheelchair": "STIF 2019-01", "wheelchair": "yes"}}, {"type": "node", "id": 2880104580, "lat": 48.8756021, "lon": 2.2888883, "tags": {"STIF:zone": "1", "bench": "no", "bin": "yes", "bus": "yes", "highway": "bus_stop", "lit": "yes", "name": "Argentine", "public_transport": "platform", "ref:FR:STIF": "27222", "ref:FR:STIF:stop_id": "StopPoint:59:4022944", "route_ref": "73;N24", "shelter": "no", "source:wheelchair": "STIF 2019-01", "tactile_paving": "yes", "wheelchair": "yes"}}, {"type": "node", "id": 2880433269, "lat": 48.8714976, "lon": 2.3016926, "tags": {"STIF:zone": "1", "bench": "yes", "bin": "yes", "bus": "yes", "highway": "bus_stop", "lit": "yes", "mapillary": "2962812443957493", "name": "George V", "passenger_information_display": "yes", "public_transport": "platform", "ref:FR:STIF": "27224", "ref:FR:STIF:stop_id": "StopPoint:59:4022897", "route_ref": "73;N24", "shelter": "yes", "source:wheelchair": "STIF 2019-01", "survey:date": "2021-09-28", "tactile_paving": "no", "wheelchair": "yes"}}, {"type": "node", "id": 2883697216, "lat": 48.8759536, "lon": 2.2886241, "tags": {"STIF:zone": "1", "bench": "yes", "bin": "yes", "bus": "yes", "highway": "bus_stop", "lit": "yes", "name": "Argentine", "public_transport": "platform", "ref:FR:STIF": "29284", "ref:FR:STIF:stop_id": "StopPoint:59:4022901", "route_ref": "73;N24", "shelter": "yes", "source:wheelchair": "STIF 2019-01", "tactile_paving": "no", "wheelchair": "yes"}}, {"type": "node", "id": 2883697225, "lat": 48.8696444, "lon": 2.3085559, "tags": {"STIF:zone": "1", "bench": "yes", "bin": "no", "bus": "yes", "highway": "bus_stop", "lit": "yes", "name": "Rond-Point des Champs-\u00c9lys\u00e9es", "public_transport": "platform", "ref:FR:STIF": "24251", "ref:FR:STIF:stop_id": "StopPoint:59:4022892", "route_ref": "73;N24", "shelter": "yes", "source:wheelchair": "STIF 2019-01", "tactile_paving": "no", "wheelchair": "yes"}}, {"type": "node", "id": 3693890822, "lat": 48.8780933, "lon": 2.2846758}, {"type": "node", "id": 3693890823, "lat": 48.8780891, "lon": 2.284628, "tags": {"level": "-1", "tactile_paving": "no"}}, {"type": "node", "id": 3693957633, "lat": 48.8782296, "lon": 2.2849266}, {"type": "node", "id": 3693957636, "lat": 48.8782666, "lon": 2.2848716}, {"type": "node", "id": 3693957643, "lat": 48.8783042, "lon": 2.2849815, "tags": {"door": "no", "level": "-1", "note": "Acc\u00e8s ferm\u00e9 pour travaux constat\u00e9 le 16/10/2018"}}, {"type": "node", "id": 3693957651, "lat": 48.8782865, "lon": 2.2850096}, {"type": "node", "id": 3693957660, "lat": 48.8783223, "lon": 2.2849529}, {"type": "node", "id": 3693957662, "lat": 48.8784479, "lon": 2.2852782}, {"type": "node", "id": 3693957663, "lat": 48.8784691, "lon": 2.2852491, "tags": {"entrance": "main", "layer": "-1", "level": "-1"}}, {"type": "node", "id": 3693957664, "lat": 48.8784892, "lon": 2.2852213}, {"type": "node", "id": 3693957665, "lat": 48.8785103, "lon": 2.285383}, {"type": "node", "id": 3693957666, "lat": 48.8785507, "lon": 2.2853246}, {"type": "node", "id": 3693957667, "lat": 48.8785856, "lon": 2.2853831, "tags": {"access": "no", "entrance": "yes", "layer": "-1", "level": "-1"}}, {"type": "node", "id": 3693957668, "lat": 48.8786236, "lon": 2.2855735}, {"type": "node", "id": 3693957669, "lat": 48.8786268, "lon": 2.2854524, "tags": {"access": "no", "entrance": "yes", "layer": "-1", "level": "-1"}}, {"type": "node", "id": 3693957670, "lat": 48.878665, "lon": 2.2855166}, {"type": "node", "id": 3693957678, "lat": 48.8794628, "lon": 2.2871307}, {"type": "node", "id": 3693957682, "lat": 48.8795204, "lon": 2.2870521}, {"type": "node", "id": 3930433723, "lat": 48.8648066, "lon": 2.3025798, "tags": {"STIF:zone": "1", "bench": "yes", "bin": "no", "bus": "yes", "highway": "bus_stop", "name": "Alma - Marceau", "public_transport": "platform", "ref:FR:STIF": "25538", "ref:FR:STIF:stop_id": "StopPoint:59:5727640", "route_ref": "72", "shelter": "yes", "source:wheelchair": "STIF 2019-01", "tactile_paving": "no", "wheelchair": "no"}}, {"type": "node", "id": 3976260822, "lat": 48.8695982, "lon": 2.3080252}, {"type": "node", "id": 3976260823, "lat": 48.8696791, "lon": 2.3080693}, {"type": "node", "id": 3976260824, "lat": 48.8699546, "lon": 2.3069002}, {"type": "node", "id": 3976260825, "lat": 48.8700265, "lon": 2.3069546}, {"type": "node", "id": 3976260826, "lat": 48.8719134, "lon": 2.3007899}, {"type": "node", "id": 3976260827, "lat": 48.8719911, "lon": 2.300843}, {"type": "node", "id": 3976260828, "lat": 48.8721636, "lon": 2.300001}, {"type": "node", "id": 3976260830, "lat": 48.8722371, "lon": 2.3000555}, {"type": "node", "id": 3976260850, "lat": 48.8741599, "lon": 2.2963552}, {"type": "node", "id": 3976260855, "lat": 48.8745004, "lon": 2.2954825}, {"type": "node", "id": 3976260858, "lat": 48.8745355, "lon": 2.2954211}, {"type": "node", "id": 3976260870, "lat": 48.8751084, "lon": 2.2960409}, {"type": "node", "id": 3976260872, "lat": 48.8751304, "lon": 2.295966}, {"type": "node", "id": 3976260873, "lat": 48.8751341, "lon": 2.290666}, {"type": "node", "id": 3976260875, "lat": 48.8751811, "lon": 2.2906995}, {"type": "node", "id": 3976260876, "lat": 48.8754941, "lon": 2.289557}, {"type": "node", "id": 3976260878, "lat": 48.8755384, "lon": 2.2895897}, {"type": "node", "id": 4086276394, "lat": 48.8795859, "lon": 2.302568, "tags": {"bus": "yes", "highway": "bus_stop", "image": "http://storage8.openstreetcam.org/files/photo/2018/5/13/lth/1180559_56a6a_30.jpg", "name": "Courcelles", "public_transport": "platform", "shelter": "yes", "survey:date": "2018-05-13"}}, {"type": "node", "id": 4324806119, "lat": 48.8801455, "lon": 2.288255, "tags": {"STIF:zone": "1", "bench": "yes", "bin": "yes", "bus": "yes", "highway": "bus_stop", "mapillary": "846156702663752", "name": "Pereire - Porte Maillot", "public_transport": "platform", "ref:FR:STIF": "26252", "ref:FR:STIF:stop_id": "StopPoint:59:3749707", "route_ref": "43;PC", "shelter": "yes", "source:wheelchair": "STIF 2019-01", "survey:date": "2020-12-29", "tactile_paving": "no", "wheelchair": "yes"}}, {"type": "node", "id": 4324806120, "lat": 48.8799413, "lon": 2.288065, "tags": {"STIF:zone": "1", "bench": "yes", "bin": "no", "bus": "yes", "highway": "bus_stop", "mapillary": "152299933532688", "name": "Pereire - Porte Maillot", "public_transport": "platform", "ref:FR:STIF": "26248", "ref:FR:STIF:stop_id": "StopPoint:59:3749708", "route_ref": "43;PC", "shelter": "yes", "source:wheelchair": "STIF 2019-01", "survey:date": "2020-12-29", "tactile_paving": "no", "wheelchair": "yes"}}, {"type": "node", "id": 4496601590, "lat": 48.8794558, "lon": 2.2821234, "tags": {"bus": "yes", "highway": "bus_stop", "note": "navette Beauvais", "public_transport": "platform"}}, {"type": "node", "id": 4943067532, "lat": 48.8762455, "lon": 2.302306, "tags": {"STIF:zone": "1", "bench": "no", "bin": "no", "bus": "yes", "highway": "bus_stop", "mapillary": "1214273172341945", "name": "Hoche - Saint-Honor\u00e9", "public_transport": "platform", "ref:FR:STIF": "423949", "ref:FR:STIF:stop_id": "StopPoint:59:4022964", "route_ref": "93", "shelter": "no", "source:wheelchair": "STIF 2019-01", "survey:date": "2020-12-23", "tactile_paving": "no", "wheelchair": "yes"}}, {"type": "node", "id": 4943067535, "lat": 48.8784128, "lon": 2.2947083, "tags": {"STIF:zone": "1", "bench": "yes", "bus": "yes", "highway": "bus_stop", "name": "Ternes - MacMahon", "public_transport": "platform", "ref:FR:STIF": "26257", "ref:FR:STIF:stop_id": "StopPoint:59:3749704", "route_ref": "93", "shelter": "yes", "source:wheelchair": "STIF 2019-01", "tactile_paving": "no", "wheelchair": "yes"}}, {"type": "node", "id": 5087798657, "lat": 48.8750084, "lon": 2.2947156, "tags": {"STIF:zone": "1", "bench": "yes", "bus": "yes", "highway": "bus_stop", "name": "Charles de Gaulle - \u00c9toile - Mac Mahon", "public_transport": "platform", "ref:FR:STIF": "39329", "shelter": "yes", "survey:date": "2020-12-03"}}, {"type": "node", "id": 5090905974, "lat": 48.8705769, "lon": 2.2976004, "tags": {"STIF:zone": "1", "bench": "yes", "bus": "yes", "highway": "bus_stop", "name": "Bassano", "public_transport": "platform", "ref:FR:STIF": "37391", "ref:FR:STIF:stop_id": "StopPoint:59:4726749", "shelter": "yes", "source": "survey 09/2017", "source:position": "BD Ortho 2019"}}, {"type": "node", "id": 5093998833, "lat": 48.8700595, "lon": 2.2981637, "tags": {"STIF:zone": "1", "bench": "yes", "bus": "yes", "highway": "bus_stop", "name": "Bassano", "public_transport": "platform", "ref:FR:STIF": "37393", "ref:FR:STIF:stop_id": "StopPoint:59:3813136", "shelter": "yes", "source": "survey 09/2017", "source:position": "BD Ortho 2019"}}, {"type": "node", "id": 5095712345, "lat": 48.8750354, "lon": 2.2949376, "tags": {"STIF:zone": "1", "bench": "yes", "bus": "yes", "highway": "bus_stop", "name": "Charles de Gaulle - \u00c9toile - Mac Mahon", "public_transport": "platform", "ref:FR:STIF": "39330", "shelter": "yes", "survey:date": "2020-12-03", "tactile_paving": "yes"}}, {"type": "node", "id": 5220407035, "lat": 48.8745738, "lon": 2.2948582}, {"type": "node", "id": 5220407037, "lat": 48.8742904, "lon": 2.2959685}, {"type": "node", "id": 5220407038, "lat": 48.8746174, "lon": 2.2948785}, {"type": "node", "id": 5220407042, "lat": 48.8741409, "lon": 2.2958585}, {"type": "node", "id": 5220407043, "lat": 48.8744261, "lon": 2.2949635}, {"type": "node", "id": 5220407044, "lat": 48.8741197, "lon": 2.2958429}, {"type": "node", "id": 5220407045, "lat": 48.8744049, "lon": 2.2949479}, {"type": "node", "id": 5290358623, "lat": 48.8700157, "lon": 2.2825903, "tags": {"STIF:zone": "1", "bus": "yes", "highway": "bus_stop", "name": "Bugeaud", "public_transport": "platform", "ref:FR:STIF": "25387", "ref:FR:STIF:stop_id": "StopPoint:59:4008230", "route_ref": "52", "shelter": "no", "source:wheelchair": "STIF 2019-01", "wheelchair": "yes", "wikidata": "Q56858034"}}, {"type": "node", "id": 5327310321, "lat": 48.8733955, "lon": 2.296719, "tags": {"bus": "yes", "highway": "bus_stop", "name": "Champs-Elys\u00e9es", "public_transport": "platform", "ref:FR:BigBus": "8", "route_ref": "rouge", "source": "mapillary 2020", "website": "https://www.bigbustours.com"}}, {"type": "node", "id": 5370704523, "lat": 48.866915, "lon": 2.2896166, "tags": {"STIF:zone": "1", "bench": "no", "bus": "yes", "highway": "bus_stop", "name": "Kl\u00e9ber - Boissi\u00e8re", "public_transport": "platform", "ref:FR:STIF": "23496", "ref:FR:STIF:stop_id": "StopPoint:59:3813002", "route_ref": "82", "shelter": "no", "source:wheelchair": "STIF 2019-01", "tactile_paving": "no", "wheelchair": "yes"}}, {"type": "node", "id": 5524543220, "lat": 48.8749633, "lon": 2.2940836, "tags": {"STIF:zone": "1", "bus": "yes", "highway": "bus_stop", "name": "\u00c9toile - Champs \u00c9lys\u00e9es", "public_transport": "platform", "ref:FR:STIF": "20453", "shelter": "yes", "survey:date": "2020-12-03"}}, {"type": "node", "id": 5529663796, "lat": 48.8762245, "lon": 2.2835773, "tags": {"STIF:zone": "2", "bench": "yes", "bin": "no", "bus": "yes", "highway": "bus_stop", "name": "Porte Maillot", "public_transport": "platform", "ref:FR:STIF": "25325", "ref:FR:STIF:stop_id": "StopPoint:59:3813011", "route_ref": "82", "shelter": "yes", "source:wheelchair": "STIF 2019-01", "tactile_paving": "no", "wheelchair": "yes"}}, {"type": "node", "id": 5561542460, "lat": 48.8770204, "lon": 2.300758, "tags": {"STIF:zone": "1", "bench": "yes", "bus": "yes", "highway": "bus_stop", "name": "Hoche - Saint-Honor\u00e9", "public_transport": "platform", "ref:FR:STIF": "423950", "ref:FR:STIF:stop_id": "StopPoint:59:4022963", "route_ref": "43;93", "shelter": "yes", "source:wheelchair": "STIF 2019-01", "tactile_paving": "no", "wheelchair": "yes"}}, {"type": "node", "id": 5678423700, "lat": 48.8653989, "lon": 2.2928522, "tags": {"STIF:zone": "1", "bench": "yes", "bus": "yes", "highway": "bus_stop", "name": "L\u00fcbeck", "public_transport": "platform", "ref:FR:STIF": "25777", "ref:FR:STIF:stop_id": "StopPoint:59:3813000", "route_ref": "82", "shelter": "yes", "source": "survey 06/2018", "source:wheelchair": "STIF 2019-01", "wheelchair": "yes"}}, {"type": "node", "id": 5682929167, "lat": 48.8692104, "lon": 2.2894592, "tags": {"STIF:zone": "1", "bench": "no", "bus": "yes", "highway": "bus_stop", "name": "Lauriston", "public_transport": "platform", "ref:FR:STIF": "23500", "route_ref": "82", "shelter": "no", "source": "survey 06/2018", "source:wheelchair": "STIF 2019-01", "wheelchair": "yes"}}, {"type": "node", "id": 5866597644, "lat": 48.8744867, "lon": 2.2946039, "tags": {"STIF:zone": "1", "bus": "yes", "highway": "bus_stop", "name": "\u00c9toile - Champs Elys\u00e9es", "public_transport": "platform", "ref:FR:STIF": "20453", "ref:FR:STIF:stop_id": "StopPoint:14:14935;StopPoint:14:14934", "route_ref": "DIRECT 1;DIRECT 2;1;2", "source:wheelchair": "STIF 2018-07", "wheelchair": "no"}}, {"type": "node", "id": 5866597651, "lat": 48.8792869, "lon": 2.2845129, "tags": {"STIF:zone": "1", "bus": "yes", "bus_stop:type": "Abri autobus 4x1,60", "highway": "bus_stop", "name": "Porte Maillot", "public_transport": "platform", "ref:FR:STIF": "4964", "ref:FR:STIF:stop_id": "StopPoint:14:419;StopPoint:14:418", "route_ref": "DIRECT 2;2", "shelter": "yes", "source:position": "opendata.paris.fr - 04/2011", "source:wheelchair": "STIF 2018-07", "wheelchair": "no"}}, {"type": "node", "id": 6090165373, "lat": 48.8744533, "lon": 2.2964405, "tags": {"STIF:zone": "1", "bus": "yes", "highway": "bus_stop", "name": "Charles de Gaulle - \u00c9toile", "public_transport": "platform", "ref:FR:STIF": "28255", "route_ref": "341", "shelter": "yes", "source:wheelchair": "STIF 2018-07", "survey:date": "2020-12-03", "wheelchair": "yes"}}, {"type": "node", "id": 6100508229, "lat": 48.8770667, "lon": 2.2851985, "tags": {"bench": "yes", "bin": "no", "bus": "yes", "highway": "bus_stop", "lit": "yes", "name": "Porte Maillot - Palais des Congr\u00e8s", "public_transport": "platform", "ref:FR:STIF": "427820", "shelter": "yes", "tactile_paving": "no"}}, {"type": "node", "id": 6102707209, "lat": 48.8780304, "lon": 2.284466, "tags": {"door": "yes", "level": "-1"}}, {"type": "node", "id": 6102707210, "lat": 48.8779882, "lon": 2.2845444}, {"type": "node", "id": 6102707211, "lat": 48.8779997, "lon": 2.2845591}, {"type": "node", "id": 6102707212, "lat": 48.8780228, "lon": 2.2845169}, {"type": "node", "id": 6102707213, "lat": 48.8780111, "lon": 2.2844991}, {"type": "node", "id": 6102721034, "lat": 48.8780644, "lon": 2.2845687}, {"type": "node", "id": 6102721035, "lat": 48.8780346, "lon": 2.2846205}, {"type": "node", "id": 6102721036, "lat": 48.8780859, "lon": 2.2846887}, {"type": "node", "id": 6102721037, "lat": 48.8781001, "lon": 2.2846641}, {"type": "node", "id": 6102721038, "lat": 48.8780821, "lon": 2.2846402}, {"type": "node", "id": 6102721039, "lat": 48.8780977, "lon": 2.284613}, {"type": "node", "id": 6183041445, "lat": 48.8802321, "lon": 2.2824625, "tags": {"STIF:zone": "1", "bus": "yes", "highway": "bus_stop", "name": "Paris Porte Maillot", "public_transport": "platform", "ref:FR:STIF": "461914", "ref:FR:STIF:stop_id": "StopPoint:90:1", "shelter": "yes"}}, {"type": "node", "id": 6257517586, "lat": 48.8748535, "lon": 2.3072577, "tags": {"STIF:zone": "1", "bench": "yes", "bin": "no", "bus": "yes", "highway": "bus_stop", "mapillary": "224986068998313", "name": "Friedland - Haussmann", "public_transport": "platform", "ref:FR:STIF": "27323", "ref:FR:STIF:stop_id": "StopPoint:59:3749699", "route_ref": "22;43", "shelter": "yes", "source:wheelchair": "STIF 2019-01", "survey:date": "2020-12-29", "wheelchair": "yes"}}, {"type": "node", "id": 6257517587, "lat": 48.8744379, "lon": 2.302127, "tags": {"STIF:zone": "1", "bus": "yes", "highway": "bus_stop", "name": "Balzac", "public_transport": "platform", "ref:FR:STIF": "27324", "ref:FR:STIF:stop_id": "StopPoint:59:4008221", "route_ref": "22;N53", "source:wheelchair": "STIF 2019-01", "wheelchair": "yes"}}, {"type": "node", "id": 6257517609, "lat": 48.8748149, "lon": 2.3041356, "tags": {"STIF:zone": "1", "bus": "yes", "highway": "bus_stop", "name": "Friedland - Haussmann", "public_transport": "platform", "ref:FR:STIF": "37111", "ref:FR:STIF:stop_id": "StopPoint:59:4008218", "route_ref": "22;52", "source:wheelchair": "STIF 2019-01", "wheelchair": "yes"}}, {"type": "node", "id": 6257795906, "lat": 48.879262, "lon": 2.291067, "tags": {"STIF:zone": "1", "bench": "yes", "bin": "no", "bus": "yes", "highway": "bus_stop", "mapillary": "287635109726443", "name": "\u00c9glise Saint-Ferdinand", "public_transport": "platform", "ref:FR:STIF": "26254", "ref:FR:STIF:stop_id": "StopPoint:59:3749706", "route_ref": "43", "shelter": "yes", "source:wheelchair": "STIF 2019-01", "survey:date": "2020-12-29", "wheelchair": "yes"}}, {"type": "node", "id": 6257795926, "lat": 48.879643, "lon": 2.2904606, "tags": {"STIF:zone": "1", "bus": "yes", "highway": "bus_stop", "name": "\u00c9glise Saint-Ferdinand", "public_transport": "platform", "ref:FR:STIF": "26250", "ref:FR:STIF:stop_id": "StopPoint:59:3749705", "route_ref": "43", "shelter": "yes", "source:wheelchair": "STIF 2019-01", "wheelchair": "yes"}}, {"type": "node", "id": 6257795927, "lat": 48.878635, "lon": 2.294787, "tags": {"STIF:zone": "1", "bus": "yes", "highway": "bus_stop", "name": "Ternes - MacMahon", "public_transport": "platform", "ref:FR:STIF": "26253", "ref:FR:STIF:stop_id": "StopPoint:59:3749703", "route_ref": "43", "shelter": "yes", "source:wheelchair": "STIF 2019-01", "tactile_paving": "no", "wheelchair": "yes"}}, {"type": "node", "id": 6275831907, "lat": 48.8670188, "lon": 2.2902689, "tags": {"STIF:zone": "1", "bench": "yes", "bin": "no", "bus": "yes", "highway": "bus_stop", "lit": "yes", "name": "Kl\u00e9ber - Boissi\u00e8re", "public_transport": "platform", "ref:FR:STIF": "22807", "ref:FR:STIF:stop_id": "StopPoint:59:3740324", "route_ref": "22;30", "shelter": "yes", "source:wheelchair": "STIF 2019-01", "tactile_paving": "no", "wheelchair": "no"}}, {"type": "node", "id": 6275831925, "lat": 48.8665756, "lon": 2.2896914, "tags": {"STIF:zone": "1", "bench": "yes", "bus": "yes", "highway": "bus_stop", "name": "Kl\u00e9ber - Boissi\u00e8re", "public_transport": "platform", "ref:FR:STIF": "22806", "ref:FR:STIF:stop_id": "StopPoint:59:3740320", "route_ref": "22;30", "shelter": "yes", "source:wheelchair": "STIF 2019-01", "wheelchair": "no"}}, {"type": "node", "id": 6283213043, "lat": 48.8653142, "lon": 2.2952058, "tags": {"STIF:zone": "1", "bench": "yes", "bin": "no", "bus": "yes", "highway": "bus_stop", "name": "I\u00e9na", "public_transport": "platform", "ref:FR:STIF": "34171", "ref:FR:STIF:stop_id": "StopPoint:59:3740528", "route_ref": "32", "shelter": "yes", "source:wheelchair": "STIF 2019-01", "wheelchair": "no"}}, {"type": "node", "id": 6283213059, "lat": 48.8708537, "lon": 2.305864, "tags": {"STIF:zone": "1", "bench": "no", "bin": "no", "bus": "yes", "highway": "bus_stop", "lit": "yes", "name": "La Bo\u00e9tie - Champs-\u00c9lys\u00e9es", "public_transport": "platform", "ref:FR:STIF": "25094", "ref:FR:STIF:stop_id": "StopPoint:59:3740522", "route_ref": "32", "shelter": "no", "source:wheelchair": "STIF 2019-01", "tactile_paving": "no", "wheelchair": "no"}}, {"type": "node", "id": 6284808408, "lat": 48.8750424, "lon": 2.3055691, "tags": {"STIF:zone": "1", "bus": "yes", "highway": "bus_stop", "name": "Friedland - Haussmann", "public_transport": "platform", "ref:FR:STIF": "35137", "ref:FR:STIF:stop_id": "StopPoint:59:3749698", "route_ref": "43", "shelter": "yes", "source:wheelchair": "STIF 2019-01", "wheelchair": "yes"}}, {"type": "node", "id": 6347770482, "lat": 48.871551, "lon": 2.2934589}, {"type": "node", "id": 6347770483, "lat": 48.8715701, "lon": 2.2934006}, {"type": "node", "id": 6347770484, "lat": 48.8715947, "lon": 2.293325}, {"type": "node", "id": 6347770785, "lat": 48.8715264, "lon": 2.2935344}, {"type": "node", "id": 6347770790, "lat": 48.8709917, "lon": 2.2928715}, {"type": "node", "id": 6347770791, "lat": 48.8709671, "lon": 2.292947}, {"type": "node", "id": 6347770792, "lat": 48.8709481, "lon": 2.2930054}, {"type": "node", "id": 6347770793, "lat": 48.8709236, "lon": 2.2930809}, {"type": "node", "id": 6347770800, "lat": 48.8715766, "lon": 2.2933807}, {"type": "node", "id": 6347770801, "lat": 48.8715891, "lon": 2.2933422}, {"type": "node", "id": 6347770802, "lat": 48.8715329, "lon": 2.2935145}, {"type": "node", "id": 6347770803, "lat": 48.8715455, "lon": 2.2934759}, {"type": "node", "id": 6370094793, "lat": 48.8742278, "lon": 2.2963731}, {"type": "node", "id": 6370094794, "lat": 48.8745184, "lon": 2.2934224}, {"type": "node", "id": 6370094795, "lat": 48.8744495, "lon": 2.2934073}, {"type": "node", "id": 6370094815, "lat": 48.8751009, "lon": 2.2906437}, {"type": "node", "id": 6370094816, "lat": 48.8754635, "lon": 2.2895339}, {"type": "node", "id": 6370094818, "lat": 48.87557, "lon": 2.289613}, {"type": "node", "id": 6370094819, "lat": 48.875213, "lon": 2.2907228}, {"type": "node", "id": 6370094825, "lat": 48.8743851, "lon": 2.2933931}, {"type": "node", "id": 6370094826, "lat": 48.8740948, "lon": 2.2963376}, {"type": "node", "id": 6370094827, "lat": 48.8743159, "lon": 2.2933773}, {"type": "node", "id": 6370094829, "lat": 48.8742153, "lon": 2.2959133}, {"type": "node", "id": 6370094830, "lat": 48.8745351, "lon": 2.2948694}, {"type": "node", "id": 6370094834, "lat": 48.8743232, "lon": 2.2959926}, {"type": "node", "id": 6370094836, "lat": 48.8745466, "lon": 2.295161}, {"type": "node", "id": 6370094839, "lat": 48.8745036, "lon": 2.2951271}, {"type": "node", "id": 6370094848, "lat": 48.8745806, "lon": 2.2950405}, {"type": "node", "id": 6370094849, "lat": 48.8746109, "lon": 2.2950618}, {"type": "node", "id": 6370094850, "lat": 48.8745768, "lon": 2.2951818}, {"type": "node", "id": 6370094851, "lat": 48.8744723, "lon": 2.2951036}, {"type": "node", "id": 6370094852, "lat": 48.8745383, "lon": 2.2950125}, {"type": "node", "id": 6370094853, "lat": 48.8745066, "lon": 2.294991}, {"type": "node", "id": 6370094874, "lat": 48.8744812, "lon": 2.2950041}, {"type": "node", "id": 6370094875, "lat": 48.8741959, "lon": 2.2958991}, {"type": "node", "id": 6370094877, "lat": 48.8743788, "lon": 2.2949286}, {"type": "node", "id": 6370094878, "lat": 48.8740935, "lon": 2.2958236}, {"type": "node", "id": 6370164259, "lat": 48.8747886, "lon": 2.2957955}, {"type": "node", "id": 6370164260, "lat": 48.8749588, "lon": 2.2959358}, {"type": "node", "id": 6370164261, "lat": 48.8746285, "lon": 2.2956384}, {"type": "node", "id": 6370164262, "lat": 48.8748825, "lon": 2.2958757}, {"type": "node", "id": 6370164263, "lat": 48.8747109, "lon": 2.2957238}, {"type": "node", "id": 6370164264, "lat": 48.8745638, "lon": 2.2955654}, {"type": "node", "id": 6370164265, "lat": 48.874599, "lon": 2.2955039}, {"type": "node", "id": 6370164266, "lat": 48.8746602, "lon": 2.2955742}, {"type": "node", "id": 6370164267, "lat": 48.8747394, "lon": 2.2956541}, {"type": "node", "id": 6370164268, "lat": 48.8748171, "lon": 2.2957265}, {"type": "node", "id": 6370164269, "lat": 48.8749089, "lon": 2.2958047}, {"type": "node", "id": 6370164270, "lat": 48.874984, "lon": 2.2958621}, {"type": "node", "id": 6370164276, "lat": 48.8750932, "lon": 2.2960919}, {"type": "node", "id": 6370164277, "lat": 48.8749425, "lon": 2.2959849}, {"type": "node", "id": 6370164278, "lat": 48.8748647, "lon": 2.295924}, {"type": "node", "id": 6370164279, "lat": 48.87477, "lon": 2.2958441}, {"type": "node", "id": 6370164280, "lat": 48.8746909, "lon": 2.2957699}, {"type": "node", "id": 6370164281, "lat": 48.8746078, "lon": 2.2956846}, {"type": "node", "id": 6370164282, "lat": 48.874541, "lon": 2.2956078}, {"type": "node", "id": 6370164283, "lat": 48.8744747, "lon": 2.2955237}, {"type": "node", "id": 6370164284, "lat": 48.8745594, "lon": 2.2953804}, {"type": "node", "id": 6370165385, "lat": 48.874622, "lon": 2.2954604}, {"type": "node", "id": 6370165386, "lat": 48.8746813, "lon": 2.2955285}, {"type": "node", "id": 6370165387, "lat": 48.8747592, "lon": 2.2956077}, {"type": "node", "id": 6370165388, "lat": 48.8748358, "lon": 2.2956784}, {"type": "node", "id": 6370165389, "lat": 48.8749261, "lon": 2.2957553}, {"type": "node", "id": 6370165390, "lat": 48.8749995, "lon": 2.2958124}, {"type": "node", "id": 6370165391, "lat": 48.8751459, "lon": 2.2959163}, {"type": "node", "id": 6370202826, "lat": 48.8742211, "lon": 2.2958948}, {"type": "node", "id": 6370202827, "lat": 48.8742454, "lon": 2.2959356}, {"type": "node", "id": 6370202828, "lat": 48.87453, "lon": 2.2950403}, {"type": "node", "id": 6370982503, "lat": 48.8781541, "lon": 2.2813045}, {"type": "node", "id": 6370982504, "lat": 48.8777289, "lon": 2.2826146}, {"type": "node", "id": 6370982505, "lat": 48.8777622, "lon": 2.2826396}, {"type": "node", "id": 6370982506, "lat": 48.8781874, "lon": 2.2813294}, {"type": "node", "id": 6370982507, "lat": 48.8777208, "lon": 2.2826077}, {"type": "node", "id": 6370982508, "lat": 48.8781462, "lon": 2.2812989}, {"type": "node", "id": 6370982509, "lat": 48.8781131, "lon": 2.2812741}, {"type": "node", "id": 6370982510, "lat": 48.8776878, "lon": 2.2825829}, {"type": "node", "id": 6370982511, "lat": 48.8782681, "lon": 2.2813874}, {"type": "node", "id": 6370982512, "lat": 48.8778425, "lon": 2.2827015}, {"type": "node", "id": 6370982514, "lat": 48.8782354, "lon": 2.2813637}, {"type": "node", "id": 6370982515, "lat": 48.8778098, "lon": 2.282677}, {"type": "node", "id": 6370982516, "lat": 48.8778481, "lon": 2.282684}, {"type": "node", "id": 6370982527, "lat": 48.8776073, "lon": 2.2825235}, {"type": "node", "id": 6370982528, "lat": 48.8780333, "lon": 2.2812155}, {"type": "node", "id": 6370982529, "lat": 48.8780658, "lon": 2.28124}, {"type": "node", "id": 6370982530, "lat": 48.8780276, "lon": 2.2812329}, {"type": "node", "id": 6370982531, "lat": 48.8776396, "lon": 2.2825471}, {"type": "node", "id": 6371064378, "lat": 48.8743357, "lon": 2.2945662}, {"type": "node", "id": 6371064393, "lat": 48.8745689, "lon": 2.2948849}, {"type": "node", "id": 6371064394, "lat": 48.8745404, "lon": 2.294842}, {"type": "node", "id": 6371064395, "lat": 48.8746119, "lon": 2.2949091}, {"type": "node", "id": 6371064396, "lat": 48.8746485, "lon": 2.2948908}, {"type": "node", "id": 6371064414, "lat": 48.8746432, "lon": 2.2949205}, {"type": "node", "id": 6539284758, "lat": 48.8704425, "lon": 2.3059812, "tags": {"bench": "no", "bin": "no", "bus": "yes", "highway": "bus_stop", "lit": "yes", "name": "Champs-Elys\u00e9es - Disney Store", "public_transport": "platform", "ref:FR:Open_Tour": "10", "shelter": "no", "tactile_paving": "yes"}}, {"type": "node", "id": 8059012557, "lat": 48.8742274, "lon": 2.2963229, "tags": {"STIF:zone": "1", "bench": "no", "bus": "yes", "description": "Depuis le 01/11/2020, cet arr\u00eat temporaire remplace l'arr\u00eat Avenue de Friedland qui n'est pas desservi en raison des travaux \u00c9OLE.", "highway": "bus_stop", "name": "Charles de Gaulle - \u00c9toile", "public_transport": "platform", "ref:FR:STIF": "478510", "shelter": "no", "survey:date": "2020-12-03", "temporary": "yes"}}, {"type": "node", "id": 8059054816, "lat": 48.874509, "lon": 2.2965815, "tags": {"STIF:zone": "1", "bus": "yes", "description": "Depuis le 01/11/2020, cet arr\u00eat temporaire remplace l'arr\u00eat Avenue de Friedland qui n'est pas desservi en raison des travaux \u00c9OLE.", "highway": "bus_stop", "name": "Charles de Gaulle - \u00c9toile", "public_transport": "platform", "ref:FR:STIF": "478513", "survey:date": "2020-12-03", "temporary": "yes"}}, {"type": "node", "id": 8063373069, "lat": 48.8805871, "lon": 2.2833002, "tags": {"STIF:zone": "1", "bench": "no", "bin": "no", "bus": "yes", "highway": "bus_stop", "lit": "yes", "mapillary": "855320041995870", "name": "Porte Maillot - Pershing", "public_transport": "platform", "ref:FR:STIF": "480043", "shelter": "no", "survey:date": "2020-12-03", "tactile_paving": "no"}}, {"type": "node", "id": 8198538789, "lat": 48.8742517, "lon": 2.29638, "tags": {"STIF:zone": "1", "bench": "no", "bin": "yes", "bus": "yes", "description": "Depuis le 01/11/2020, cet arr\u00eat temporaire remplace l'arr\u00eat Avenue de Friedland qui n'est pas desservi en raison des travaux \u00c9OLE.", "highway": "bus_stop", "name": "Charles de Gaulle - \u00c9toile", "public_transport": "platform", "ref:FR:STIF": "25399", "shelter": "no", "survey:date": "2020-12-03", "temporary": "yes"}}, {"type": "node", "id": 8198538790, "lat": 48.8740289, "lon": 2.2970284, "tags": {"bus": "yes", "highway": "bus_stop", "name": "Fondation Louis Vuitton", "public_transport": "platform", "shelter": "yes", "survey:date": "2020-12-03"}}, {"type": "node", "id": 8198538791, "lat": 48.8748217, "lon": 2.2942047, "tags": {"bus": "yes", "highway": "bus_stop", "name": "\u00c9toile - Champs \u00c9lys\u00e9es", "public_transport": "platform", "ref:FR:STIF": "20453", "shelter": "yes", "survey:date": "2020-12-03"}}, {"type": "node", "id": 8198756298, "lat": 48.8743707, "lon": 2.2962646, "tags": {"STIF:zone": "1", "bus": "yes", "description": "Depuis le 01/11/2020, cet arr\u00eat temporaire remplace l'arr\u00eat Avenue de Friedland qui n'est pas desservi en raison des travaux \u00c9OLE.", "highway": "bus_stop", "mapillary": "997847587649994", "name": "Charles de Gaulle - \u00c9toile", "public_transport": "platform", "ref:FR:STIF": "25392", "route_ref": "22;52", "survey:date": "2020-12-03", "temporary": "yes"}}, {"type": "node", "id": 9471076826, "lat": 48.8647117, "lon": 2.3007499}, {"type": "node", "id": 9471076827, "lat": 48.8650672, "lon": 2.2999091}, {"type": "node", "id": 9471076828, "lat": 48.8646685, "lon": 2.3006922}, {"type": "node", "id": 9471076829, "lat": 48.865024, "lon": 2.2998514}, {"type": "node", "id": 9471174368, "lat": 48.8683803, "lon": 2.3090973}, {"type": "node", "id": 9471174369, "lat": 48.8678986, "lon": 2.30817}, {"type": "node", "id": 9471174370, "lat": 48.8684409, "lon": 2.3090214}, {"type": "node", "id": 9471174371, "lat": 48.8679592, "lon": 2.3080941}, {"type": "node", "id": 9923798970, "lat": 48.8740357, "lon": 2.2963198}, {"type": "node", "id": 9966559399, "lat": 48.8715253, "lon": 2.3018107}, {"type": "node", "id": 9966559400, "lat": 48.8715139, "lon": 2.3018022}, {"type": "node", "id": 9966559401, "lat": 48.8714775, "lon": 2.3019149}, {"type": "node", "id": 9966559402, "lat": 48.8714889, "lon": 2.3019234}, {"type": "node", "id": 9966559403, "lat": 48.8715106, "lon": 2.3018127}, {"type": "node", "id": 9966672167, "lat": 48.8721187, "lon": 2.3005576}, {"type": "node", "id": 9966672168, "lat": 48.8720428, "lon": 2.3007975}, {"type": "node", "id": 9966672169, "lat": 48.8720638, "lon": 2.3008104}, {"type": "node", "id": 9966672170, "lat": 48.8721386, "lon": 2.3005722}, {"type": "node", "id": 9966672171, "lat": 48.8704165, "lon": 2.3059024}, {"type": "node", "id": 9966672172, "lat": 48.8703424, "lon": 2.3061411}, {"type": "node", "id": 9966672173, "lat": 48.8703655, "lon": 2.3061578}, {"type": "node", "id": 9966672174, "lat": 48.8704397, "lon": 2.305919}, {"type": "node", "id": 9966672175, "lat": 48.8702862, "lon": 2.3057675}, {"type": "node", "id": 9966672176, "lat": 48.8702109, "lon": 2.3059999}, {"type": "node", "id": 9966672177, "lat": 48.8701839, "lon": 2.3059796}, {"type": "node", "id": 9966672178, "lat": 48.8702592, "lon": 2.3057473}, {"type": "node", "id": 9966672179, "lat": 48.8695979, "lon": 2.3084667}, {"type": "node", "id": 9966672180, "lat": 48.8695232, "lon": 2.3087039}, {"type": "node", "id": 9966672181, "lat": 48.8695447, "lon": 2.3087196}, {"type": "node", "id": 9966672182, "lat": 48.8696195, "lon": 2.3084824}, {"type": "node", "id": 9966672190, "lat": 48.8694368, "lon": 2.3084219}, {"type": "node", "id": 9966672191, "lat": 48.8693699, "lon": 2.3086219}, {"type": "node", "id": 9966672192, "lat": 48.8693475, "lon": 2.3086045}, {"type": "node", "id": 9966672193, "lat": 48.8694143, "lon": 2.3084046}, {"type": "node", "id": 11324061009, "lat": 48.8809748, "lon": 2.2854767}, {"type": "node", "id": 11324061010, "lat": 48.8809704, "lon": 2.285495}, {"type": "node", "id": 11324061011, "lat": 48.880958, "lon": 2.2854882}, {"type": "node", "id": 11324061012, "lat": 48.8809622, "lon": 2.28547}, {"type": "node", "id": 11324061014, "lat": 48.8810633, "lon": 2.2855263}, {"type": "node", "id": 11324061015, "lat": 48.8810589, "lon": 2.2855446}, {"type": "node", "id": 11324061016, "lat": 48.8810465, "lon": 2.2855377}, {"type": "node", "id": 11324061017, "lat": 48.8810508, "lon": 2.2855195}, {"type": "node", "id": 11324061019, "lat": 48.881152, "lon": 2.285576}, {"type": "node", "id": 11324061020, "lat": 48.8811476, "lon": 2.2855942}, {"type": "node", "id": 11324061021, "lat": 48.8811352, "lon": 2.2855874}, {"type": "node", "id": 11324061022, "lat": 48.8811395, "lon": 2.2855692}, {"type": "node", "id": 11324061024, "lat": 48.8812405, "lon": 2.2856259}, {"type": "node", "id": 11324061025, "lat": 48.8812362, "lon": 2.2856441}, {"type": "node", "id": 11324061026, "lat": 48.8812237, "lon": 2.2856373}, {"type": "node", "id": 11324061027, "lat": 48.881228, "lon": 2.2856191}, {"type": "node", "id": 11324061029, "lat": 48.8813291, "lon": 2.2856756}, {"type": "node", "id": 11324061030, "lat": 48.8813248, "lon": 2.2856939}, {"type": "node", "id": 11324061031, "lat": 48.8813123, "lon": 2.2856871}, {"type": "node", "id": 11324061032, "lat": 48.8813166, "lon": 2.2856689}, {"type": "node", "id": 11324061034, "lat": 48.8813649, "lon": 2.2855289}, {"type": "node", "id": 11324061035, "lat": 48.8813605, "lon": 2.2855472}, {"type": "node", "id": 11324061036, "lat": 48.881348, "lon": 2.2855403}, {"type": "node", "id": 11324061037, "lat": 48.8813523, "lon": 2.2855221}, {"type": "node", "id": 11324061039, "lat": 48.8812763, "lon": 2.2854791}, {"type": "node", "id": 11324061040, "lat": 48.8812719, "lon": 2.2854974}, {"type": "node", "id": 11324061041, "lat": 48.8812594, "lon": 2.2854905}, {"type": "node", "id": 11324061042, "lat": 48.8812637, "lon": 2.2854723}, {"type": "node", "id": 11324061044, "lat": 48.8811877, "lon": 2.2854294}, {"type": "node", "id": 11324061045, "lat": 48.8811833, "lon": 2.2854477}, {"type": "node", "id": 11324061046, "lat": 48.8811708, "lon": 2.2854409}, {"type": "node", "id": 11324061047, "lat": 48.8811751, "lon": 2.2854227}, {"type": "node", "id": 11324061049, "lat": 48.8810991, "lon": 2.2853798}, {"type": "node", "id": 11324061050, "lat": 48.8810947, "lon": 2.285398}, {"type": "node", "id": 11324061051, "lat": 48.8810823, "lon": 2.2853912}, {"type": "node", "id": 11324061052, "lat": 48.8810866, "lon": 2.285373}, {"type": "node", "id": 11324061112, "lat": 48.8813408, "lon": 2.2856578}, {"type": "node", "id": 11324061113, "lat": 48.8813614, "lon": 2.2855722}, {"type": "node", "id": 11324061127, "lat": 48.8809816, "lon": 2.2853601}, {"type": "node", "id": 11324061128, "lat": 48.8809614, "lon": 2.2854433}, {"type": "node", "id": 11324061133, "lat": 48.8809492, "lon": 2.2854939}, {"type": "node", "id": 11324061134, "lat": 48.8809938, "lon": 2.2853098}, {"type": "node", "id": 11324061203, "lat": 48.8813734, "lon": 2.2855231}, {"type": "node", "id": 11324061204, "lat": 48.8813287, "lon": 2.2857077}, {"type": "node", "id": 11327653107, "lat": 48.878073, "lon": 2.2838387}, {"type": "node", "id": 11327653108, "lat": 48.8780473, "lon": 2.2838363}, {"type": "node", "id": 11327653109, "lat": 48.8780376, "lon": 2.283814}, {"type": "node", "id": 11327653110, "lat": 48.8780373, "lon": 2.2838004}, {"type": "node", "id": 11327653111, "lat": 48.8780395, "lon": 2.283791}, {"type": "node", "id": 11327653112, "lat": 48.8780829, "lon": 2.2838227}, {"type": "node", "id": 11327653120, "lat": 48.87808, "lon": 2.2838302}, {"type": "node", "id": 11327653121, "lat": 48.8780645, "lon": 2.2838428}, {"type": "node", "id": 11327653122, "lat": 48.8780411, "lon": 2.2838265}, {"type": "node", "id": 11327653123, "lat": 48.8780555, "lon": 2.283842}, {"type": "node", "id": 11327653130, "lat": 48.8776966, "lon": 2.2839081}, {"type": "node", "id": 11327653131, "lat": 48.8780616, "lon": 2.2841747}, {"type": "node", "id": 11327653132, "lat": 48.877729, "lon": 2.2838061}, {"type": "node", "id": 11327653133, "lat": 48.878094, "lon": 2.2840726}, {"type": "node", "id": 11327653134, "lat": 48.8781561, "lon": 2.2838761}, {"type": "node", "id": 11327653135, "lat": 48.8777915, "lon": 2.28361}, {"type": "node", "id": 11327653136, "lat": 48.8781186, "lon": 2.2839943}, {"type": "node", "id": 11327653137, "lat": 48.877754, "lon": 2.2837281}, {"type": "way", "id": 246082957, "nodes": [2531630840, 2531630837, 2531630835, 2531630833, 2531630830, 6102707209, 1302120647, 6102707213, 6102707212, 6102707211, 6102707210, 2531630828, 2531630832, 2531630834, 2531630836, 2531630838, 3693957678, 3693957682, 2531630840]}, {"type": "way", "id": 365381063, "nodes": [3693957633, 3693957651, 3693957643, 3693957660, 3693957636, 3693957633], "tags": {"barrier": "fence", "layer": "-1", "level": "-1"}}, {"type": "way", "id": 365381067, "nodes": [3693957666, 3693957667, 3693957669, 3693957670, 3693957668, 3693957665, 3693957666], "tags": {"access": "no", "indoor": "room", "layer": "-1", "level": "-1", "room": "yes"}}, {"type": "way", "id": 365381069, "nodes": [3693957666, 3693957665, 3693957662, 3693957663, 3693957664, 3693957666], "tags": {"indoor": "room", "layer": "-1", "level": "-1", "name": "Hubiz", "opening_hours": "Mo-Fr 07:00-20:30; Sa 10:00-19:00", "operator": "Relay", "room": "shop", "shop": "convenience"}}, {"type": "way", "id": 394652550, "nodes": [3976260828, 3976260826], "tags": {"operator": "RATP", "public_transport": "platform", "railway": "platform", "ref": "1", "subway": "yes", "tunnel": "yes"}}, {"type": "way", "id": 394652556, "nodes": [3976260824, 3976260822], "tags": {"operator": "RATP", "public_transport": "platform", "railway": "platform", "ref": "1", "subway": "yes", "tunnel": "yes"}}, {"type": "way", "id": 394652558, "nodes": [3976260823, 3976260825], "tags": {"operator": "RATP", "public_transport": "platform", "railway": "platform", "ref": "1", "subway": "yes", "tunnel": "yes"}}, {"type": "way", "id": 394652559, "nodes": [3976260876, 3976260873], "tags": {"barrier": "platform_gates", "bench": "yes", "bin": "yes", "layer": "-2", "level": "-2", "location": "underground", "operator": "RATP", "public_transport": "platform", "railway": "platform_edge", "ref": "2", "start_date": "2011", "tunnel": "yes"}}, {"type": "way", "id": 394652564, "nodes": [3976260827, 3976260830], "tags": {"operator": "RATP", "public_transport": "platform", "railway": "platform", "ref": "1", "subway": "yes", "tunnel": "yes"}}, {"type": "way", "id": 394652569, "nodes": [3976260875, 3976260878], "tags": {"barrier": "platform_gates", "bench": "yes", "bin": "yes", "layer": "-2", "level": "-2", "location": "underground", "operator": "RATP", "public_transport": "platform", "railway": "platform_edge", "ref": "1", "start_date": "2011", "tunnel": "yes"}}, {"type": "way", "id": 394652578, "nodes": [3976260872, 6370164270, 6370164269, 6370164268, 6370164267, 6370164266, 6370164265, 3976260858, 6370164284, 6370165385, 6370165386, 6370165387, 6370165388, 6370165389, 6370165390, 6370165391, 3976260872], "tags": {"area": "yes", "bench": "yes", "departures_board": "realtime", "layer": "-3", "level": "-3", "lit": "yes", "location": "underground", "name": "Charles de Gaulle \u2014 \u00c9toile", "network": "M\u00e9tro de Paris;RATP", "operator": "RATP", "public_transport": "platform", "railway": "platform", "ref": "1", "start_date": "1900-10-13", "subway": "yes", "surface": "asphalt", "tunnel": "yes", "wheelchair": "no"}}, {"type": "way", "id": 394652580, "nodes": [3976260855, 6370164264, 6370164261, 6370164263, 6370164259, 6370164262, 6370164260, 3976260870, 6370164276, 6370164277, 6370164278, 6370164279, 6370164280, 6370164281, 6370164282, 6370164283, 3976260855], "tags": {"area": "yes", "bench": "yes", "departures_board": "realtime", "layer": "-3", "level": "-3", "lit": "yes", "location": "underground", "name": "Charles de Gaulle \u2014 \u00c9toile", "network": "M\u00e9tro de Paris;RATP", "operator": "RATP", "public_transport": "platform", "railway": "platform", "ref": "2", "start_date": "1900-10-13", "subway": "yes", "surface": "asphalt", "tunnel": "yes", "wheelchair": "no"}}, {"type": "way", "id": 539498309, "nodes": [5220407042, 5220407043], "tags": {"layer": "-2", "level": "-2", "lit": "yes", "location": "underground", "public_transport": "platform", "railway": "platform_edge", "ref": "Entr\u00e9e", "shelter": "yes", "start_date": "1900-10-02", "surface": "asphalt", "tunnel": "yes"}}, {"type": "way", "id": 539498310, "nodes": [5220407044, 5220407045], "tags": {"layer": "-2", "level": "-2", "lit": "yes", "location": "underground", "public_transport": "platform", "railway": "platform_edge", "ref": "Sortie", "shelter": "yes", "start_date": "1900-10-02", "tunnel": "yes"}}, {"type": "way", "id": 650565663, "nodes": [6102721039, 3693890823, 6102721038, 6102721037, 3693890822, 6102721036, 6102721035, 6102721034, 6102721039]}, {"type": "way", "id": 677931362, "nodes": [6347770785, 6347770793, 6347770792, 6347770482, 6347770803, 6347770802, 6347770785], "tags": {"area": "yes", "bench": "yes", "bin": "yes", "covered": "yes", "departures_board": "realtime", "layer": "-2", "level": "-2", "public_transport": "platform", "railway": "platform", "subway": "yes", "tactile_paving": "yes", "wheelchair": "no"}}, {"type": "way", "id": 677931363, "nodes": [6347770483, 6347770791, 6347770790, 6347770484, 6347770801, 6347770800, 6347770483], "tags": {"area": "yes", "bench": "yes", "bin": "yes", "covered": "yes", "departures_board": "realtime", "layer": "-2", "level": "-2", "public_transport": "platform", "railway": "platform", "subway": "yes", "surface": "asphalt", "tactile_paving": "yes", "wheelchair": "no"}}, {"type": "way", "id": 680326848, "nodes": [6370094795, 6371064378, 3976260850, 6370094793, 6370094794, 6370094795], "tags": {"area": "yes", "bench": "yes", "departures_board": "yes", "fixme": "niveau+couche", "layer": "-5", "level": "-5", "lit": "yes", "location": "underground", "name": "Charles de Gaulle \u2014 \u00c9toile", "network": "RER Parisien;RATP", "operator": "RATP", "public_transport": "platform", "railway": "platform", "ref": "1", "start_date": "1970-07-19", "subway": "yes", "surface": "asphalt", "tunnel": "yes", "wheelchair": "limited"}}, {"type": "way", "id": 680326888, "nodes": [3976260876, 3976260873, 6370094815, 6370094816, 3976260876], "tags": {"area": "yes", "bench": "yes", "bin": "yes", "departures_board": "realtime", "layer": "-2", "level": "-2", "lit": "yes", "location": "underground", "name": "Argentine", "network": "M\u00e9tro de Paris;RATP", "operator": "RATP", "public_transport": "platform", "railway": "platform", "ref": "2", "start_date": "1900-09-01", "subway": "yes", "surface": "asphalt", "tunnel": "yes", "wheelchair": "no"}}, {"type": "way", "id": 680326894, "nodes": [3976260875, 3976260878, 6370094818, 6370094819, 3976260875], "tags": {"area": "yes", "bench": "yes", "bin": "yes", "departures_board": "realtime", "layer": "-2", "level": "-2", "lit": "yes", "location": "underground", "name": "Argentine", "network": "M\u00e9tro de Paris;RATP", "operator": "RATP", "public_transport": "platform", "railway": "platform", "ref": "1", "start_date": "1900-09-01", "subway": "yes", "surface": "asphalt", "tunnel": "yes", "wheelchair": "no"}}, {"type": "way", "id": 680326902, "nodes": [9923798970, 6370094827, 6370094825, 6370094826, 9923798970], "tags": {"area": "yes", "bench": "yes", "departures_board": "yes", "fixme": "niveau+couche", "layer": "-5", "level": "-5", "lit": "yes", "location": "underground", "name": "Charles de Gaulle \u2014 \u00c9toile", "network": "RER Parisien;RATP", "operator": "RATP", "public_transport": "platform", "railway": "platform", "ref": "2", "start_date": "1970-01-19", "subway": "yes", "surface": "asphalt", "tunnel": "yes", "wheelchair": "yes"}}, {"type": "way", "id": 680326906, "nodes": [5220407035, 6371064393, 6370094852, 6370202828, 6370094839, 6370202827, 6370094829, 6370202826, 6370094851, 6370094853, 6370094830, 6371064394, 5220407035], "tags": {"area": "yes", "bench": "yes", "departures_board": "realtime", "layer": "-2", "level": "-2", "lit": "yes", "location": "underground", "name": "Charles de Gaulle \u2014 \u00c9toile", "network": "M\u00e9tro de Paris;RATP", "operator": "RATP", "public_transport": "platform", "railway": "platform", "ref": "2", "start_date": "1900-07-19", "subway": "yes", "surface": "asphalt", "tunnel": "yes", "wheelchair": "no"}}, {"type": "way", "id": 680326910, "nodes": [5220407037, 6370094836, 6370094848, 6371064395, 5220407038, 6371064396, 6371064414, 6370094849, 6370094850, 6370094834, 5220407037], "tags": {"area": "yes", "bench": "yes", "departures_board": "realtime", "layer": "-2", "level": "-2", "lit": "yes", "location": "underground", "name": "Charles de Gaulle \u2014 \u00c9toile", "network": "M\u00e9tro de Paris;RATP", "operator": "RATP", "public_transport": "platform", "railway": "platform", "ref": "1", "start_date": "1900-07-19", "subway": "yes", "surface": "asphalt", "tunnel": "yes", "wheelchair": "no"}}, {"type": "way", "id": 680326914, "nodes": [6370094874, 6370094875, 5220407042, 5220407043, 6370094874], "tags": {"area": "yes", "bench": "yes", "departures_board": "realtime", "fixme": "Largeur \u00e0 v\u00e9rifier", "layer": "-2", "level": "-2", "lit": "yes", "location": "underground", "name": "Charles de Gaulle \u2014 \u00c9toile", "network": "M\u00e9tro de Paris;RATP", "operator": "RATP", "public_transport": "platform", "railway": "platform", "ref": "Mont\u00e9e", "start_date": "1900-10-02", "subway": "yes", "surface": "asphalt", "tunnel": "yes", "wheelchair": "no"}}, {"type": "way", "id": 680326919, "nodes": [5220407044, 5220407045, 6370094877, 6370094878, 5220407044], "tags": {"area": "yes", "bench": "no", "departures_board": "no", "layer": "-1", "level": "-2", "lit": "yes", "location": "underground", "name": "Charles de Gaulle \u2014 \u00c9toile", "network": "M\u00e9tro de Paris;RATP", "operator": "RATP", "public_transport": "platform", "railway": "platform", "ref": "Descente", "start_date": "1900-10-02", "subway": "yes", "surface": "asphalt", "tunnel": "yes", "wheelchair": "no"}}, {"type": "way", "id": 680424557, "nodes": [6370982503, 6370982504, 6370982505, 6370982506, 6370982503], "tags": {"area": "yes", "bench": "no", "departures_board": "realtime", "layer": "-2", "level": "-2", "lit": "yes", "location": "underground", "name": "Porte Maillot", "network": "M\u00e9tro de Paris", "operator": "RATP", "public_transport": "platform", "railway": "platform", "ref": "1Bis", "start_date": "1936-11-15", "subway": "yes", "surface": "asphalt", "tunnel": "yes", "wheelchair": "no"}}, {"type": "way", "id": 680424558, "nodes": [6370982507, 6370982508, 6370982509, 6370982510, 6370982507], "tags": {"area": "yes", "bench": "no", "departures_board": "no", "layer": "-2", "level": "-2", "lit": "yes", "location": "underground", "name": "Porte Maillot", "network": "M\u00e9tro de Paris;RATP", "operator": "RATP", "public_transport": "platform", "railway": "platform", "ref": "2Bis", "start_date": "1936-11-15", "subway": "yes", "surface": "asphalt", "tunnel": "yes", "wheelchair": "no"}}, {"type": "way", "id": 680424559, "nodes": [6370982515, 6370982514, 6370982511, 6370982516, 6370982512, 6370982515], "tags": {"area": "yes", "bench": "yes", "departures_board": "realtime", "layer": "-2", "level": "-2", "location": "underground", "name": "Porte Maillot", "network": "M\u00e9tro de Paris;RATP", "operator": "RATP", "public_transport": "platform", "railway": "platform", "ref": "1", "start_date": "1936-11-15", "subway": "yes", "surface": "asphalt", "tunnel": "yes", "wheelchair": "no"}}, {"type": "way", "id": 680424563, "nodes": [6370982529, 6370982531, 6370982527, 2493410467, 6370982530, 6370982528, 6370982529], "tags": {"area": "yes", "bench": "yes", "departures_board": "realtime", "layer": "-3", "level": "-3", "lit": "yes", "location": "underground", "name": "Porte Maillot", "network": "M\u00e9tro de Paris;RATP", "operator": "RATP", "public_transport": "platform", "railway": "platform", "ref": "2", "start_date": "1936-11-15", "subway": "yes", "surface": "asphalt", "tunnel": "yes", "wheelchair": "no"}}, {"type": "way", "id": 1027326007, "nodes": [9471076827, 9471076826], "tags": {"layer": "-2", "level": "-2", "lit": "yes", "location": "underground", "public_transport": "platform", "railway": "platform", "subway": "yes", "surface": "asphalt", "tunnel": "yes"}}, {"type": "way", "id": 1027326008, "nodes": [9471076829, 9471076828], "tags": {"layer": "-2", "level": "-2", "lit": "yes", "location": "underground", "public_transport": "platform", "railway": "platform", "subway": "yes", "surface": "asphalt", "tunnel": "yes"}}, {"type": "way", "id": 1027334624, "nodes": [9471174369, 9471174368], "tags": {"layer": "-2", "level": "-2", "lit": "yes", "location": "underground", "public_transport": "platform", "railway": "platform", "subway": "yes", "surface": "asphalt", "tunnel": "yes"}}, {"type": "way", "id": 1027334625, "nodes": [9471174371, 9471174370], "tags": {"layer": "-2", "level": "-2", "lit": "yes", "location": "underground", "public_transport": "platform", "railway": "platform", "subway": "yes", "surface": "asphalt", "tunnel": "yes"}}, {"type": "way", "id": 1087767607, "nodes": [9966559399, 9966559400, 9966559403, 9966559401, 9966559402, 9966559399], "tags": {"area": "yes", "bench": "no", "bin": "no", "bus": "yes", "highway": "bus_stop", "mapillary": "832747983998963", "public_transport": "platform", "shelter": "no", "survey:date": "2020-08-19"}}, {"type": "way", "id": 1087781164, "nodes": [9966672167, 9966672168, 9966672169, 9966672170, 9966672167], "tags": {"area": "yes", "bench": "yes", "bin": "yes", "bus": "yes", "highway": "bus_stop", "mapillary": "136545448417221", "passenger_information_display": "yes", "public_transport": "platform", "shelter": "yes", "survey:date": "2020-12-23"}}, {"type": "way", "id": 1087781165, "nodes": [9966672171, 9966672172, 9966672173, 9966672174, 9966672171], "tags": {"area": "yes", "bench": "no", "bin": "no", "bus": "yes", "highway": "bus_stop", "lit": "yes", "mapillary": "379020546740064", "name": "La Bo\u00e9tie Champs-Elys\u00e9es", "public_transport": "platform", "shelter": "no", "survey:date": "2020-12-23", "tactile_paving": "yes"}}, {"type": "way", "id": 1087781166, "nodes": [9966672175, 9966672176, 9966672177, 9966672178, 9966672175], "tags": {"area": "yes", "bench": "no", "bin": "no", "bus": "yes", "highway": "bus_stop", "mapillary": "409261600715728", "public_transport": "platform", "shelter": "no", "survey:date": "2021-09-28"}}, {"type": "way", "id": 1087781167, "nodes": [9966672179, 9966672180, 9966672181, 9966672182, 9966672179], "tags": {"area": "yes", "bench": "yes", "bin": "no", "bus": "yes", "highway": "pedestrian", "lit": "yes", "name": "Rond-Point des Champs-\u00c9lys\u00e9es", "public_transport": "platform", "shelter": "yes", "surface": "paving_stones", "tactile_paving": "no"}}, {"type": "way", "id": 1087781170, "nodes": [9966672190, 9966672191, 9966672192, 9966672193, 9966672190], "tags": {"area": "yes", "bus": "yes", "highway": "pedestrian", "public_transport": "platform"}}, {"type": "way", "id": 1221268699, "nodes": [11324061012, 11324061011, 11324061010, 11324061009, 11324061012], "tags": {"area": "yes", "highway": "pedestrian"}}, {"type": "way", "id": 1221268700, "nodes": [11324061017, 11324061016, 11324061015, 11324061014, 11324061017], "tags": {"area": "yes", "highway": "pedestrian"}}, {"type": "way", "id": 1221268701, "nodes": [11324061022, 11324061021, 11324061020, 11324061019, 11324061022], "tags": {"area": "yes", "highway": "pedestrian"}}, {"type": "way", "id": 1221268702, "nodes": [11324061027, 11324061026, 11324061025, 11324061024, 11324061027], "tags": {"area": "yes", "highway": "pedestrian"}}, {"type": "way", "id": 1221268703, "nodes": [11324061032, 11324061031, 11324061030, 11324061029, 11324061032], "tags": {"area": "yes", "highway": "pedestrian"}}, {"type": "way", "id": 1221268704, "nodes": [11324061037, 11324061036, 11324061035, 11324061034, 11324061037], "tags": {"area": "yes", "highway": "pedestrian"}}, {"type": "way", "id": 1221268705, "nodes": [11324061042, 11324061041, 11324061040, 11324061039, 11324061042], "tags": {"area": "yes", "highway": "pedestrian"}}, {"type": "way", "id": 1221268706, "nodes": [11324061047, 11324061046, 11324061045, 11324061044, 11324061047], "tags": {"area": "yes", "highway": "pedestrian"}}, {"type": "way", "id": 1221268707, "nodes": [11324061052, 11324061051, 11324061050, 11324061049, 11324061052], "tags": {"area": "yes", "highway": "pedestrian"}}, {"type": "way", "id": 1221268712, "nodes": [11324061113, 11324061127, 11324061134, 11324061203, 11324061113]}, {"type": "way", "id": 1221268713, "nodes": [11324061204, 11324061133, 11324061128, 11324061112, 11324061204]}, {"type": "way", "id": 1221360408, "nodes": [11327653133, 11327653131, 11327653130, 11327653132, 11327653133], "tags": {"area": "yes", "bench": "yes", "bin": "yes", "lit": "yes", "name": "Porte Mailllot", "operator": "RATP", "public_transport": "platform", "railway": "platform", "tram": "yes"}}, {"type": "way", "id": 1221360409, "nodes": [11327653137, 11327653135, 11327653111, 11327653110, 11327653109, 11327653122, 11327653108, 11327653123, 11327653121, 11327653107, 11327653120, 11327653112, 11327653134, 11327653136, 11327653137], "tags": {"area": "yes", "bench": "yes", "bin": "yes", "lit": "yes", "name": "Porte Mailllot", "operator": "RATP", "public_transport": "platform", "railway": "platform", "tram": "yes"}}, {"type": "relation", "id": 9060420, "members": [{"type": "way", "ref": 246082957, "role": "outer"}, {"type": "way", "ref": 650565663, "role": "inner"}, {"type": "way", "ref": 365381063, "role": "inner"}, {"type": "way", "ref": 365381069, "role": "inner"}, {"type": "way", "ref": 365381067, "role": "inner"}], "tags": {"fixme": "\u00e0 recaler plus pr\u00e9cis\u00e9ment avec un plan d'architecte", "indoor": "level", "layer": "-1", "level": "-1", "level:ref": "Quai", "name": "Voies 1 et 2", "public_transport": "platform", "railway": "platform", "ref": "1;2", "ref:FR:STIF": "471859;472182", "tactile_paving": "yes", "tunnel": "yes", "type": "multipolygon"}}, {"type": "relation", "id": 16654554, "members": [{"type": "way", "ref": 1221268703, "role": "inner"}, {"type": "way", "ref": 1221268702, "role": "inner"}, {"type": "way", "ref": 1221268701, "role": "inner"}, {"type": "way", "ref": 1221268700, "role": "inner"}, {"type": "way", "ref": 1221268699, "role": "inner"}, {"type": "way", "ref": 1221268713, "role": "outer"}], "tags": {"bench": "yes", "bin": "yes", "lit": "yes", "name": "Anny Flore", "operator": "RATP", "public_transport": "platform", "railway": "platform", "type": "multipolygon"}}, {"type": "relation", "id": 16654555, "members": [{"type": "way", "ref": 1221268707, "role": "inner"}, {"type": "way", "ref": 1221268706, "role": "inner"}, {"type": "way", "ref": 1221268705, "role": "inner"}, {"type": "way", "ref": 1221268704, "role": "inner"}, {"type": "way", "ref": 1221268712, "role": "outer"}], "tags": {"bench": "yes", "bin": "yes", "lit": "yes", "name": "Anny Flore", "operator": "RATP", "public_transport": "platform", "railway": "platform", "type": "multipolygon"}}]}