{"version": 0.6, "generator": "Overpass API 0.7.61.5 4133829e", "osm3s": {"timestamp_osm_base": "2023-12-09T22:48:09Z", "copyright": "The data included in this document is from www.openstreetmap.org. The data is made available under ODbL."}, "elements": [{"type": "node", "id": 295350060, "lat": 48.8782993, "lon": 2.3708169, "tags": {"STIF:zone": "1", "bench": "yes", "bin": "no", "bus": "yes", "highway": "bus_stop", "lit": "yes", "name": "Colonel Fabien", "public_transport": "platform", "ref:FR:STIF": "28261", "ref:FR:STIF:stop_id": "StopPoint:59:3747967", "route_ref": "46;75", "shelter": "yes", "source:wheelchair": "STIF 2019-01", "tactile_paving": "no", "wheelchair": "no"}}, {"type": "node", "id": 808486028, "lat": 48.8808939, "lon": 2.3571131, "tags": {"STIF:zone": "1", "bus": "yes", "covered": "yes", "highway": "bus_stop", "level": "1", "name": "Gare du Nord", "public_transport": "platform", "ref:FR:STIF": "40024", "ref:FR:STIF:stop_id": "StopPoint:59:3749675", "route_ref": "43", "wheelchair": "yes"}}, {"type": "node", "id": 808486041, "lat": 48.881162, "lon": 2.357448, "tags": {"STIF:zone": "1", "bus": "yes", "covered": "yes", "highway": "bus_stop", "level": "1", "name": "Gare du Nord", "note": "Arr\u00eats repositionn\u00e9s dans la gare routi\u00e8re sans pouvoir lespositionner plus pr\u00e9cis\u00e9ment", "public_transport": "platform", "ref:FR:STIF": "40094", "ref:FR:STIF:stop_id": "StopPoint:59:3741051"}}, {"type": "node", "id": 808486071, "lat": 48.881029, "lon": 2.3573546, "tags": {"STIF:zone": "1", "bus": "yes", "covered": "yes", "highway": "bus_stop", "level": "1", "name": "Gare du Nord", "public_transport": "platform", "ref:FR:STIF": "39926", "ref:FR:STIF:stop_id": "StopPoint:59:3764604", "route_ref": "48;38", "source": "survey", "source:ref:FR:STIF": "STIF - 12/2016"}}, {"type": "node", "id": 808486091, "lat": 48.8807009, "lon": 2.357288, "tags": {"STIF:zone": "1", "bus": "yes", "highway": "bus_stop", "name": "Gare du Nord", "public_transport": "platform", "ref:FR:STIF": "39889", "ref:FR:STIF:stop_id": "StopPoint:59:3747905", "route_ref": "46", "source:wheelchair": "STIF 2019-01", "wheelchair": "yes"}}, {"type": "node", "id": 808486097, "lat": 48.8808725, "lon": 2.357385, "tags": {"STIF:zone": "1", "bench": "no", "bus": "yes", "covered": "yes", "highway": "bus_stop", "level": "1", "name": "Gare du Nord", "public_transport": "platform", "ref:FR:STIF": "40024", "ref:FR:STIF:stop_id": "StopPoint:59:3811223", "route_ref": "42"}}, {"type": "node", "id": 808486123, "lat": 48.8809275, "lon": 2.3575258, "tags": {"STIF:zone": "1", "bus": "yes", "highway": "bus_stop", "name": "Gare du Nord", "note": "Arr\u00eats repositionn\u00e9s dans la gare routi\u00e8re sans pouvoir lespositionner plus pr\u00e9cis\u00e9ment", "public_transport": "platform", "ref:FR:STIF": "39927", "ref:FR:STIF:stop_id": "StopPoint:59:7920888", "route_ref": "39;Bus 39", "shelter": "yes", "source:wheelchair": "STIF 2019-01", "wheelchair": "no"}}, {"type": "node", "id": 813027526, "lat": 48.8745205, "lon": 2.358599, "tags": {"STIF:zone": "1", "bench": "yes", "bin": "no", "bus": "yes", "highway": "bus_stop", "lit": "yes", "name": "Magenta - Saint-Martin", "public_transport": "platform", "ref:FR:STIF": "22745", "ref:FR:STIF:stop_id": "StopPoint:59:3764609", "route_ref": "38;39;47;56;65;91;N14", "shelter": "yes", "source:wheelchair": "STIF 2019-01", "tactile_paving": "no", "wheelchair": "no"}}, {"type": "node", "id": 813027561, "lat": 48.8763129, "lon": 2.3567488, "tags": {"STIF:zone": "1", "bench": "no", "bin": "no", "bus": "yes", "highway": "bus_stop", "lit": "no", "name": "Gare de l'Est", "public_transport": "platform", "ref:FR:STIF": "463953", "ref:FR:STIF:stop_id": "StopPoint:59:3747908", "route_ref": "38;46;54;N142", "shelter": "no", "source:wheelchair": "STIF 2019-01", "tactile_paving": "no", "wheelchair": "no"}}, {"type": "node", "id": 827624431, "lat": 48.8808643, "lon": 2.3570929, "tags": {"STIF:zone": "1", "bus": "yes", "highway": "bus_stop", "name": "Gare du Nord", "public_transport": "platform", "ref:FR:STIF": "39805", "ref:FR:STIF:stop_id": "StopPoint:59:3747906", "route_ref": "46;39;91", "shelter": "yes", "source:wheelchair": "STIF 2019-01", "wheelchair": "no"}}, {"type": "node", "id": 827624440, "lat": 48.8786533, "lon": 2.3548092, "tags": {"STIF:zone": "1", "bench": "no", "bin": "no", "bus": "yes", "highway": "bus_stop", "lit": "yes", "name": "La Fayette - Magenta", "public_transport": "platform", "ref:FR:STIF": "22816", "ref:FR:STIF:stop_id": "StopPoint:59:3749738", "route_ref": "48;42;43;45", "shelter": "no", "source:wheelchair": "STIF 2019-01", "tactile_paving": "no", "wheelchair": "no"}}, {"type": "node", "id": 827624445, "lat": 48.8768893, "lon": 2.3480727, "tags": {"STIF:zone": "1", "bench": "no", "bin": "yes", "bus": "yes", "highway": "bus_stop", "lit": "yes", "name": "Square Montholon", "public_transport": "platform", "ref:FR:STIF": "8420", "ref:FR:STIF:stop_id": "StopPoint:59:3740506", "route_ref": "26;32;42;43;48;45", "shelter": "no", "source:wheelchair": "STIF 2019-01", "tactile_paving": "no", "wheelchair": "no"}}, {"type": "node", "id": 830583593, "lat": 48.8802871, "lon": 2.3513477, "tags": {"STIF:zone": "1", "bench": "no", "bin": "yes", "bus": "yes", "highway": "bus_stop", "lit": "yes", "name": "Magenta - Maubeuge", "public_transport": "platform", "ref:FR:STIF": "29789", "ref:FR:STIF:stop_id": "StopPoint:59:7899177", "route_ref": "26;42;43;48;45;39", "shelter": "no", "source:wheelchair": "STIF 2019-01", "tactile_paving": "no", "wheelchair": "no"}}, {"type": "node", "id": 830583622, "lat": 48.8781255, "lon": 2.3444446, "tags": {"STIF:zone": "1", "bench": "yes", "bin": "no", "bus": "yes", "highway": "bus_stop", "lit": "yes", "name": "Maubeuge - Rochechouart", "public_transport": "platform", "ref:FR:STIF": "28571", "ref:FR:STIF:stop_id": "StopPoint:59:3811227", "route_ref": "26;42;43;45", "shelter": "yes", "source:wheelchair": "STIF 2019-01", "tactile_paving": "no", "wheelchair": "no"}}, {"type": "node", "id": 830583624, "lat": 48.8792877, "lon": 2.3480192, "tags": {"STIF:zone": "1", "bench": "yes", "bin": "no", "bus": "yes", "highway": "bus_stop", "lit": "no", "name": "Condorcet", "public_transport": "platform", "ref:FR:STIF": "27335", "ref:FR:STIF:stop_id": "StopPoint:59:3811226", "route_ref": "26;42;43;45", "shelter": "yes", "source:wheelchair": "STIF 2019-01", "tactile_paving": "no", "wheelchair": "no"}}, {"type": "node", "id": 877959047, "lat": 48.8837753, "lon": 2.3593675, "tags": {"STIF:zone": "1", "bench": "yes", "bin": "no", "bus": "yes", "highway": "bus_stop", "lit": "yes", "name": "Place de la Chapelle", "public_transport": "platform", "ref:FR:STIF": "14672", "ref:FR:STIF:stop_id": "StopPoint:59:3741056", "route_ref": "35;48;N43", "shelter": "yes", "tactile_paving": "no"}}, {"type": "node", "id": 880598252, "lat": 48.8797404, "lon": 2.3583417, "tags": {"STIF:zone": "1", "bench": "yes", "bin": "no", "bus": "yes", "bus_stop:type": "Abri autobus T\u00e9l\u00e9com grand mod\u00e8le", "check_date:shelter": "2021-12-18", "highway": "bus_stop", "level": "1", "lit": "yes", "name": "La Fayette - Dunkerque", "name:RATP": "LA FAYETTE - DUNKERQUE", "public_transport": "platform", "ref:FR:RATP": "11343453", "ref:FR:STIF": "40769", "ref:FR:STIF:stop_id": "StopPoint:59:5657280", "route_ref": "26;54", "shelter": "yes", "source:position": "opendata.paris.fr - 04/2011", "source:wheelchair": "STIF 2019-01", "tactile_paving": "no", "type:RATP": "bus", "wheelchair": "yes"}}, {"type": "node", "id": 880665465, "lat": 48.8806728, "lon": 2.362146, "tags": {"STIF:zone": "1", "bench": "yes", "bin": "no", "bus": "yes", "highway": "bus_stop", "layer": "2", "lit": "yes", "name": "Ch\u00e2teau Landon", "name:RATP": "CHATEAU LANDON", "public_transport": "platform", "ref:FR:RATP": "11343452", "ref:FR:STIF": "37116", "ref:FR:STIF:stop_id": "StopPoint:59:5657282", "route_ref": "26;54", "shelter": "no", "source:wheelchair": "STIF 2019-01", "tactile_paving": "no", "wheelchair": "yes"}}, {"type": "node", "id": 884493081, "lat": 48.8808356, "lon": 2.3579616, "tags": {"STIF:zone": "1", "bench": "no", "bin": "no", "bus": "yes", "highway": "bus_stop", "lit": "yes", "name": "Gare du Nord", "public_transport": "platform", "ref:FR:STIF": "8326", "ref:FR:STIF:stop_id": "StopPoint:59:3666564", "route_ref": "35;38;48;65;N43", "shelter": "yes", "source:wheelchair": "STIF 2019-01", "tactile_paving": "no", "wheelchair": "yes"}}, {"type": "node", "id": 884493127, "lat": 48.881791, "lon": 2.3584862, "tags": {"STIF:zone": "1", "bench": "yes", "bin": "no", "bus": "yes", "highway": "bus_stop", "lit": "yes", "name": "Cail - Demarquay", "public_transport": "platform", "ref:FR:STIF": "22824", "ref:FR:STIF:stop_id": "StopPoint:59:3741054", "route_ref": "35;38;48;N43;302", "shelter": "yes", "tactile_paving": "no"}}, {"type": "node", "id": 891069015, "lat": 48.8810714, "lon": 2.3579059, "tags": {"STIF:zone": "1", "bench": "yes", "bin": "yes", "bus": "yes", "highway": "bus_stop", "lit": "yes", "name": "Gare du Nord", "public_transport": "platform", "ref:FR:STIF": "39803", "ref:FR:STIF:stop_id": "StopPoint:59:3749767", "route_ref": "35;38;45;350;N43", "shelter": "yes", "source:wheelchair": "STIF 2019-01", "tactile_paving": "no", "wheelchair": "no"}}, {"type": "node", "id": 912442071, "lat": 48.8808638, "lon": 2.3632492, "tags": {"STIF:zone": "1", "bench": "yes", "bin": "no", "bus": "yes", "highway": "bus_stop", "lit": "yes", "name": "Ch\u00e2teau Landon", "name:RATP": "CHATEAU LANDON", "public_transport": "platform", "ref:FR:RATP": "11343413", "ref:FR:STIF": "8423", "ref:FR:STIF:stop_id": "StopPoint:59:5657281", "route_ref": "26", "shelter": "yes", "source:wheelchair": "STIF 2019-01", "tactile_paving": "no", "type:RATP": "bus", "wheelchair": "yes"}}, {"type": "node", "id": 917274900, "lat": 48.8808018, "lon": 2.3646698, "tags": {"STIF:zone": "1", "bench": "no", "bin": "no", "bus": "yes", "highway": "bus_stop", "lit": "yes", "name": "Louis Blanc", "public_transport": "platform", "ref:FR:STIF": "28388", "ref:FR:STIF:stop_id": "StopPoint:59:3747968", "route_ref": "46;54;N13;N41;N42;N45", "shelter": "no", "source:wheelchair": "STIF 2019-01", "tactile_paving": "no", "wheelchair": "yes"}}, {"type": "node", "id": 987614328, "lat": 48.8801898, "lon": 2.3668847, "tags": {"STIF:zone": "1", "bench": "yes", "bin": "no", "bus": "yes", "check_date:shelter": "2021-11-11", "highway": "bus_stop", "lit": "yes", "name": "Canal Saint-Martin", "public_transport": "platform", "ref:FR:STIF": "22818", "ref:FR:STIF:stop_id": "StopPoint:59:3747915", "route_ref": "46", "shelter": "yes", "source": "survey 06/2018", "source:position": "BD Ortho 2018", "source:wheelchair": "STIF 2019-01", "tactile_paving": "no", "wheelchair": "yes"}}, {"type": "node", "id": 997919792, "lat": 48.8845473, "lon": 2.3611014, "tags": {"STIF:zone": "1", "bench": "yes", "bin": "yes", "bus": "yes", "highway": "bus_stop", "lit": "yes", "name": "Place de la Chapelle", "public_transport": "platform", "ref:FR:STIF": "24811", "ref:FR:STIF:stop_id": "StopPoint:59:3749764", "route_ref": "48;45", "shelter": "yes", "source:wheelchair": "STIF 2019-01", "tactile_paving": "no", "wheelchair": "no"}}, {"type": "node", "id": 1044993536, "lat": 48.886868, "lon": 2.3613291, "tags": {"STIF:zone": "1", "bench": "yes", "bin": "yes", "bus": "yes", "highway": "bus_stop", "lit": "yes", "name": "Pajol - D\u00e9partement", "public_transport": "platform", "ref:FR:STIF": "23162", "ref:FR:STIF:stop_id": "StopPoint:59:3750033", "route_ref": "519", "shelter": "yes", "source:wheelchair": "STIF 2019-01", "tactile_paving": "no", "wheelchair": "yes"}}, {"type": "node", "id": 1046353228, "lat": 48.8898844, "lon": 2.3634601, "tags": {"STIF:zone": "1", "bench": "yes", "bin": "yes", "bus": "yes", "highway": "bus_stop", "lit": "yes", "name": "Pajol - Riquet", "public_transport": "platform", "ref:FR:STIF": "24676", "ref:FR:STIF:stop_id": "StopPoint:59:3750035", "route_ref": "519", "shelter": "yes", "source:wheelchair": "STIF 2019-01", "tactile_paving": "no", "wheelchair": "yes"}}, {"type": "node", "id": 1113455239, "lat": 48.8761394, "lon": 2.3586199, "tags": {"STIF:zone": "1", "bench": "yes", "bin": "yes", "bus": "yes", "bus_stop:type": "Abri autobus 4x1,30", "highway": "bus_stop", "lit": "no", "name": "Gare de l'Est", "public_transport": "platform", "ref:FR:STIF": "37117", "ref:FR:STIF:stop_id": "StopPoint:800:8759118;StopPoint:59:3747909", "route_ref": "46;54;N140;N143;N13;N41;N45;91", "shelter": "yes", "source": "survey 2019-04", "source:wheelchair": "STIF 2019-01", "tactile_paving": "no", "wheelchair": "yes"}}, {"type": "node", "id": 1113455501, "lat": 48.8761194, "lon": 2.3580473, "tags": {"STIF:zone": "1", "bench": "no", "bus": "yes", "highway": "bus_stop", "name": "Gare de l'Est", "public_transport": "platform", "ref:FR:STIF": "39917", "ref:FR:STIF:stop_id": "StopPoint:59:3666561", "route_ref": "350;N14", "shelter": "no", "source:wheelchair": "STIF 2019-01", "tactile_paving": "no", "wheelchair": "yes"}}, {"type": "node", "id": 1236570996, "lat": 48.8827868, "lon": 2.3443446, "tags": {"STIF:zone": "1", "bench": "yes", "bin": "no", "bus": "yes", "highway": "bus_stop", "lit": "yes", "name": "Anvers - Sacre C\u0153ur", "public_transport": "platform", "ref:FR:STIF": "28244", "ref:FR:STIF:stop_id": "StopPoint:59:3740337", "route_ref": "30;N01", "shelter": "yes", "source:wheelchair": "STIF 2019-01", "tactile_paving": "no", "wheelchair": "yes"}}, {"type": "node", "id": 1236570997, "lat": 48.8834067, "lon": 2.3462776, "tags": {"STIF:zone": "1", "bench": "yes", "bin": "yes", "bus": "yes", "highway": "bus_stop", "lit": "yes", "name": "Rochechouart - Clignancourt", "public_transport": "platform", "ref:FR:STIF": "27969", "ref:FR:STIF:stop_id": "StopPoint:59:3740301", "route_ref": "30;N02", "shelter": "yes", "source:wheelchair": "STIF 2019-01", "tactile_paving": "no", "wheelchair": "yes"}}, {"type": "node", "id": 1236571082, "lat": 48.8832195, "lon": 2.3465319, "tags": {"STIF:zone": "1", "bench": "yes", "bin": "yes", "bus": "yes", "highway": "bus_stop", "lit": "yes", "name": "Rochechouart - Clignancourt", "public_transport": "platform", "ref:FR:STIF": "28246", "ref:FR:STIF:stop_id": "StopPoint:59:3740338", "route_ref": "30;N01", "shelter": "yes", "source:wheelchair": "STIF 2019-01", "tactile_paving": "yes", "wheelchair": "yes"}}, {"type": "node", "id": 1236630566, "lat": 48.8829704, "lon": 2.3440536, "tags": {"STIF:zone": "1", "bench": "yes", "bin": "yes", "bus": "yes", "highway": "bus_stop", "lit": "yes", "name": "Anvers - Sacre C\u0153ur", "public_transport": "platform", "ref:FR:STIF": "34160", "ref:FR:STIF:stop_id": "StopPoint:59:3740302", "route_ref": "30;N02", "shelter": "yes", "source:wheelchair": "STIF 2019-01", "tactile_paving": "no", "wheelchair": "yes"}}, {"type": "node", "id": 1277982265, "lat": 48.8734591, "lon": 2.3700728, "tags": {"STIF:zone": "1", "bench": "yes", "bin": "no", "bus": "yes", "highway": "bus_stop", "lit": "yes", "name": "H\u00f4pital Saint-Louis", "public_transport": "platform", "ref:FR:STIF": "37705", "ref:FR:STIF:stop_id": "StopPoint:59:3747917", "route_ref": "46;75", "shelter": "yes", "source:wheelchair": "STIF 2019-01", "tactile_paving": "no", "wheelchair": "no"}}, {"type": "node", "id": 1277982266, "lat": 48.8766446, "lon": 2.3608387, "tags": {"STIF:zone": "1", "bench": "yes", "bin": "yes", "bus": "yes", "highway": "bus_stop", "lit": "yes", "name": "Verdun", "public_transport": "platform", "ref:FR:STIF": "28632", "ref:FR:STIF:stop_id": "StopPoint:59:3747911", "route_ref": "46;54", "shelter": "yes", "source": "survey 06/2018", "source:position": "BD Ortho 2018", "source:wheelchair": "STIF 2019-01", "survey:date": "2021-12-28", "tactile_paving": "no", "wheelchair": "yes"}}, {"type": "node", "id": 1277982271, "lat": 48.8757258, "lon": 2.3704068, "tags": {"STIF:zone": "1", "bench": "yes", "bin": "no", "bus": "yes", "highway": "bus_stop", "lit": "yes", "name": "Sambre et Meuse", "public_transport": "platform", "ref:FR:STIF": "37706", "ref:FR:STIF:stop_id": "StopPoint:59:3926405", "route_ref": "46;75", "shelter": "yes", "source:wheelchair": "STIF 2019-01", "tactile_paving": "no", "wheelchair": "no"}}, {"type": "node", "id": 1279221589, "lat": 48.877094, "lon": 2.3660399, "tags": {"STIF:zone": "1", "bench": "yes", "bin": "no", "bus": "yes", "highway": "bus_stop", "lit": "yes", "name": "Canal Saint-Martin", "public_transport": "platform", "ref:FR:STIF": "23645", "ref:FR:STIF:stop_id": "StopPoint:59:3747914", "route_ref": "46", "shelter": "yes", "source": "survey 07/2018", "source:position": "BD Ortho 2018", "source:wheelchair": "STIF 2019-01", "tactile_paving": "no", "wheelchair": "yes"}}, {"type": "node", "id": 1279221590, "lat": 48.8756912, "lon": 2.3687473, "tags": {"STIF:zone": "1", "bench": "yes", "bin": "no", "bus": "yes", "highway": "bus_stop", "lit": "yes", "name": "Grange aux Belles - Juliette Dodu", "public_transport": "platform", "ref:FR:STIF": "40849", "ref:FR:STIF:stop_id": "StopPoint:59:3747916", "route_ref": "46;75", "shelter": "yes", "source:wheelchair": "STIF 2019-01", "tactile_paving": "no", "wheelchair": "no"}}, {"type": "node", "id": 1279221593, "lat": 48.8769652, "lon": 2.3612124, "tags": {"STIF:zone": "1", "bench": "yes", "bin": "yes", "bus": "yes", "highway": "bus_stop", "lit": "yes", "name": "Verdun", "public_transport": "platform", "ref:FR:STIF": "30112", "ref:FR:STIF:stop_id": "StopPoint:59:3747910", "route_ref": "46;54;N13;N41;N42;N45", "shelter": "yes", "source:wheelchair": "STIF 2019-01", "survey:date": "2021-12-28", "tactile_paving": "no", "wheelchair": "yes"}}, {"type": "node", "id": 1489177436, "lat": 48.8798182, "lon": 2.3592216, "tags": {"STIF:zone": "1", "bench": "yes", "bin": "no", "bus": "yes", "bus_stop:type": "Abri autobus 4x1,60", "highway": "bus_stop", "lit": "yes", "name": "La Fayette - Dunkerque", "name:RATP": "LA FAYETTE - DUNKERQUE", "public_transport": "platform", "ref:FR:RATP": "11343412", "ref:FR:STIF": "22734", "ref:FR:STIF:stop_id": "StopPoint:59:5657279", "route_ref": "26", "shelter": "yes", "source:position": "opendata.paris.fr - 04/2011", "source:wheelchair": "STIF 2019-01", "tactile_paving": "no", "type:RATP": "bus", "wheelchair": "yes"}}, {"type": "node", "id": 1489177478, "lat": 48.8817621, "lon": 2.3666052, "tags": {"STIF:zone": "1", "bench": "yes", "bin": "no", "bus": "yes", "highway": "bus_stop", "lit": "yes", "name": "Louis Blanc", "public_transport": "platform", "ref:FR:STIF": "28385", "ref:FR:STIF:stop_id": "StopPoint:59:4035558", "route_ref": "26;N13;N42;N45", "shelter": "yes", "source:wheelchair": "STIF 2019-01", "tactile_paving": "no", "wheelchair": "yes"}}, {"type": "node", "id": 1489177494, "lat": 48.8828534, "lon": 2.3708395, "tags": {"STIF:zone": "1", "bench": "yes", "bin": "no", "bus": "yes", "highway": "bus_stop", "lit": "yes", "name": "Jaur\u00e8s", "public_transport": "platform", "ref:FR:STIF": "26263", "ref:FR:STIF:stop_id": "StopPoint:59:3749761", "route_ref": "48;N13;N41;N45", "shelter": "yes", "source:wheelchair": "STIF 2019-01", "survey:date": "2020-12-29", "tactile_paving": "no", "wheelchair": "yes"}}, {"type": "node", "id": 1958796813, "lat": 48.8752722, "lon": 2.3574635, "tags": {"STIF:zone": "1", "bench": "no", "bin": "yes", "bus": "yes", "highway": "bus_stop", "lit": "yes", "name": "Gare de l'Est", "public_transport": "platform", "ref:FR:STIF": "39919", "ref:FR:STIF:stop_id": "StopPoint:800:8759118", "route_ref": "N141", "shelter": "no", "source:wheelchair": "STIF 2019-01", "tactile_paving": "yes", "wheelchair": "yes"}}, {"type": "node", "id": 2042462253, "lat": 48.8724204, "lon": 2.369848, "tags": {"STIF:zone": "1", "bench": "yes", "bin": "yes", "bus": "yes", "highway": "bus_stop", "lit": "yes", "name": "H\u00f4pital Saint-Louis", "public_transport": "platform", "ref:FR:STIF": "40850", "ref:FR:STIF:stop_id": "StopPoint:59:3747918", "route_ref": "46;75", "shelter": "yes", "source:wheelchair": "STIF 2019-01", "tactile_paving": "no", "wheelchair": "no"}}, {"type": "node", "id": 2042462260, "lat": 48.8735639, "lon": 2.3586128, "tags": {"STIF:zone": "1", "bench": "yes", "bin": "no", "bus": "yes", "highway": "bus_stop", "lit": "yes", "name": "Strasbourg - Magenta", "public_transport": "platform", "ref:FR:STIF": "28411", "ref:FR:STIF:stop_id": "StopPoint:59:4996992", "route_ref": "91;56", "shelter": "yes", "source:wheelchair": "STIF 2019-01", "tactile_paving": "no", "wheelchair": "no"}}, {"type": "node", "id": 2042462310, "lat": 48.8777429, "lon": 2.356457, "tags": {"STIF:zone": "1", "bench": "yes", "bin": "yes", "bus": "yes", "bus_stop:type": "Abri autobus 4x1,60", "highway": "bus_stop", "lit": "yes", "name": "Valenciennes", "name:RATP": "VALENCIENNES", "public_transport": "platform", "ref:FR:RATP": "11337299", "ref:FR:STIF": "39925", "ref:FR:STIF:stop_id": "StopPoint:59:4035732", "route_ref": "N43;35;38;39;54", "shelter": "yes", "source": "survey", "source:position": "opendata.paris.fr - 04/2011", "source:ref:FR:STIF": "STIF - 12/2016", "tactile_paving": "no", "type:RATP": "bus"}}, {"type": "node", "id": 2042462323, "lat": 48.8814763, "lon": 2.3649726, "tags": {"STIF:zone": "1", "bench": "no", "bin": "no", "bus": "yes", "highway": "bus_stop", "lit": "yes", "name": "Louis Blanc", "name:RATP": "LOUIS BLANC", "public_transport": "platform", "ref:FR:RATP": "11343451", "ref:FR:STIF": "8424", "ref:FR:STIF:stop_id": "StopPoint:59:5657284", "route_ref": "26", "shelter": "yes", "source:wheelchair": "STIF 2019-01", "tactile_paving": "no", "type:RATP": "bus", "wheelchair": "yes"}}, {"type": "node", "id": 2042462336, "lat": 48.8842675, "lon": 2.3496004, "tags": {"STIF:zone": "1", "bench": "yes", "bus": "yes", "highway": "bus_stop", "name": "Barb\u00e8s - Rochechouart", "public_transport": "platform", "ref:FR:STIF": "28253", "ref:FR:STIF:stop_id": "StopPoint:59:5018146", "route_ref": "56", "shelter": "yes", "source:wheelchair": "STIF 2019-01", "tactile_paving": "no", "wheelchair": "no"}}, {"type": "node", "id": 2042462337, "lat": 48.8843157, "lon": 2.3493326, "tags": {"STIF:zone": "1", "bench": "yes", "bin": "yes", "bus": "yes", "highway": "bus_stop", "lit": "yes", "name": "Barb\u00e8s - Rochechouart", "public_transport": "platform", "ref:FR:STIF": "22808", "ref:FR:STIF:stop_id": "StopPoint:59:4211801", "route_ref": "N44;85;N14;56", "shelter": "yes", "source:wheelchair": "STIF 2019-01", "tactile_paving": "no", "wheelchair": "no"}}, {"type": "node", "id": 2042462342, "lat": 48.8850607, "lon": 2.3592061, "tags": {"STIF:zone": "1", "bench": "yes", "bus": "yes", "highway": "bus_stop", "name": "Place de la Chapelle", "public_transport": "platform", "ref:FR:RATP": "11337383", "ref:FR:STIF": "27889", "ref:FR:STIF:stop_id": "StopPoint:59:3666618", "route_ref": "35;38;65;N43", "shelter": "yes", "tactile_paving": "no", "type:RATP": "bus", "wheelchair": "yes"}}, {"type": "node", "id": 2042462356, "lat": 48.8861454, "lon": 2.3565194, "tags": {"STIF:zone": "1", "bench": "yes", "bus": "yes", "bus_stop:type": "Abri autobus 4x1,60", "highway": "bus_stop", "name": "Saint-Bruno", "name:RATP": "SAINT-BRUNO", "public_transport": "platform", "ref:FR:RATP": "11344254", "ref:FR:STIF": "24694", "ref:FR:STIF:stop_id": "StopPoint:59:3741058", "route_ref": "302", "shelter": "yes", "source:wheelchair": "STIF 2019-01", "tactile_paving": "no", "type:RATP": "bus", "wheelchair": "yes"}}, {"type": "node", "id": 2042462362, "lat": 48.8873175, "lon": 2.359613, "tags": {"STIF:zone": "1", "bench": "yes", "bin": "no", "bus": "yes", "highway": "bus_stop", "name": "D\u00e9partement - Marx Dormoy", "public_transport": "platform", "ref:FR:STIF": "22841", "ref:FR:STIF:stop_id": "StopPoint:59:4035722", "route_ref": "35;38;N43", "shelter": "yes", "source:wheelchair": "STIF 2019-01", "tactile_paving": "no", "wheelchair": "yes"}}, {"type": "node", "id": 2042462372, "lat": 48.8878917, "lon": 2.3496722, "tags": {"STIF:zone": "1", "bench": "yes", "bin": "no", "bus": "yes", "highway": "bus_stop", "name": "Ch\u00e2teau Rouge", "public_transport": "platform", "ref:FR:STIF": "34166", "ref:FR:STIF:stop_id": "StopPoint:59:4211800", "route_ref": "N44;N14;56", "shelter": "yes", "source:wheelchair": "STIF 2019-01", "tactile_paving": "no", "wheelchair": "no"}}, {"type": "node", "id": 2042462376, "lat": 48.889837, "lon": 2.3597516, "tags": {"STIF:zone": "1", "bus": "yes", "highway": "bus_stop", "name": "Ordener - Marx Dormoy", "public_transport": "platform", "ref:FR:STIF": "22834", "ref:FR:STIF:stop_id": "StopPoint:59:4035720", "route_ref": "35;38;65;N43", "source:wheelchair": "STIF 2019-01", "wheelchair": "yes"}}, {"type": "node", "id": 2043864963, "lat": 48.879927, "lon": 2.3552862, "tags": {"STIF:zone": "1", "bench": "yes", "bin": "yes", "bus": "yes", "highway": "bus_stop", "lit": "yes", "name": "Gare du Nord - Dunkerque", "public_transport": "platform", "ref:FR:STIF": "39806", "ref:FR:STIF:stop_id": "StopPoint:59:7899176", "route_ref": "26;39;43;48;54;45", "shelter": "yes", "source:wheelchair": "STIF 2019-01", "tactile_paving": "no", "wheelchair": "no", "wikidata": "Q56716370"}}, {"type": "node", "id": 2078331473, "lat": 48.888449, "lon": 2.3466872, "tags": {"STIF:zone": "1", "bench": "no", "bin": "no", "bus": "yes", "highway": "bus_stop", "lit": "yes", "name": "Custine - Ramey", "public_transport": "platform", "ref:FR:STIF": "27346", "ref:FR:STIF:stop_id": "StopPoint:59:5710021", "shelter": "no", "source": "survey 02/2018", "source:ref:FR:STIF": "opendata STIF - 03/2017", "tactile_paving": "no"}}, {"type": "node", "id": 2078331476, "lat": 48.8867411, "lon": 2.3475484, "tags": {"STIF:zone": "1", "bench": "no", "bin": "no", "bus": "yes", "highway": "bus_stop", "lit": "no", "name": "Muller", "public_transport": "platform", "ref:FR:STIF": "23002", "ref:FR:STIF:stop_id": "StopPoint:59:5709995", "route_ref": "85", "shelter": "no", "source:wheelchair": "STIF 2019-01", "tactile_paving": "no", "wheelchair": "yes"}}, {"type": "node", "id": 2078331479, "lat": 48.8830125, "lon": 2.3464904, "tags": {"STIF:zone": "1", "bench": "no", "bin": "no", "bus": "yes", "highway": "bus_stop", "lit": "yes", "name": "Rochechouart - Clignancourt", "public_transport": "platform", "ref:FR:STIF": "37385", "ref:FR:STIF:stop_id": "StopPoint:59:5710023", "route_ref": "85", "shelter": "no", "source:wheelchair": "STIF 2019-01", "tactile_paving": "no", "wheelchair": "yes"}}, {"type": "node", "id": 2078331480, "lat": 48.8813226, "lon": 2.3442929, "tags": {"STIF:zone": "1", "bench": "no", "bin": "yes", "bus": "yes", "highway": "bus_stop", "lit": "yes", "name": "Trudaine", "public_transport": "platform", "ref:FR:STIF": "37384", "ref:FR:STIF:stop_id": "StopPoint:59:5710082", "route_ref": "85", "shelter": "no", "source:wheelchair": "STIF 2019-01", "tactile_paving": "no", "wheelchair": "yes"}}, {"type": "node", "id": 2078420349, "lat": 48.8760966, "lon": 2.3439964, "tags": {"STIF:zone": "1", "bench": "yes", "bin": "no", "bus": "yes", "highway": "bus_stop", "lit": "yes", "name": "Cadet", "public_transport": "platform", "ref:FR:STIF": "22999", "ref:FR:STIF:stop_id": "StopPoint:59:5709990", "route_ref": "85", "shelter": "yes", "source:wheelchair": "STIF 2019-01", "tactile_paving": "no", "wheelchair": "yes"}}, {"type": "node", "id": 2078420354, "lat": 48.8810811, "lon": 2.3465233, "tags": {"STIF:zone": "1", "bench": "no", "bin": "yes", "bus": "yes", "highway": "bus_stop", "lit": "yes", "name": "Condorcet - Trudaine", "public_transport": "platform", "ref:FR:STIF": "23000", "ref:FR:STIF:stop_id": "StopPoint:59:5709992", "route_ref": "85", "shelter": "no", "source:wheelchair": "STIF 2019-01", "tactile_paving": "no", "wheelchair": "yes"}}, {"type": "node", "id": 2078420359, "lat": 48.878855, "lon": 2.3454642, "tags": {"STIF:zone": "1", "bench": "no", "bin": "no", "bus": "yes", "highway": "bus_stop", "lit": "yes", "name": "Maubeuge - Rochechouart", "public_transport": "platform", "ref:FR:STIF": "24796", "ref:FR:STIF:stop_id": "StopPoint:59:5709991", "route_ref": "85", "shelter": "no", "source": "survey", "tactile_paving": "no", "wheelchair": "yes"}}, {"type": "node", "id": 2078420364, "lat": 48.8874135, "lon": 2.3478481, "tags": {"STIF:zone": "1", "bench": "no", "bin": "no", "bus": "yes", "highway": "bus_stop", "lit": "no", "name": "Muller", "public_transport": "platform", "ref:FR:STIF": "23001", "ref:FR:STIF:stop_id": "StopPoint:59:5709994", "route_ref": "85", "shelter": "no", "source:wheelchair": "STIF 2019-01", "tactile_paving": "no", "wheelchair": "yes"}}, {"type": "node", "id": 2078420378, "lat": 48.8838003, "lon": 2.3470916, "tags": {"STIF:zone": "1", "bench": "no", "bin": "no", "bus": "yes", "highway": "bus_stop", "lit": "no", "name": "Rochechouart - Clignancourt", "public_transport": "platform", "ref:FR:STIF": "37383", "ref:FR:STIF:stop_id": "StopPoint:59:5709993", "route_ref": "85", "shelter": "no", "source:wheelchair": "STIF 2019-01", "tactile_paving": "no", "wheelchair": "yes"}}, {"type": "node", "id": 2078906754, "lat": 48.8892307, "lon": 2.3482522, "tags": {"STIF:zone": "1", "bench": "no", "bin": "no", "bus": "yes", "highway": "bus_stop", "lit": "yes", "name": "Labat", "public_transport": "platform", "ref:FR:STIF": "23003", "ref:FR:STIF:stop_id": "StopPoint:59:5709996", "route_ref": "85", "shelter": "no", "source:wheelchair": "STIF 2019-01", "tactile_paving": "no", "wheelchair": "yes"}}, {"type": "node", "id": 2168692444, "lat": 48.8756876, "lon": 2.3592746, "tags": {"bench": "yes", "bin": "yes", "bus": "yes", "check_date:shelter": "2021-10-21", "highway": "bus_stop", "lit": "yes", "name": "Gare de l'Est", "public_transport": "platform", "ref:FR:Open_Tour": "34", "shelter": "yes", "tactile_paving": "no"}}, {"type": "node", "id": 2174795279, "lat": 48.8758736, "lon": 2.3576344, "tags": {"STIF:zone": "1", "bench": "yes", "bin": "no", "bus": "yes", "highway": "bus_stop", "lit": "yes", "name": "Gare de l'Est", "public_transport": "platform", "ref:FR:STIF": "40023", "ref:FR:STIF:stop_id": "StopPoint:59:4044988", "route_ref": "31;35;N01", "shelter": "yes", "source:wheelchair": "STIF 2019-01", "tactile_paving": "no", "wheelchair": "yes"}}, {"type": "node", "id": 2271679232, "lat": 48.8834236, "lon": 2.3497662, "tags": {"STIF:zone": "1", "bench": "yes", "bus": "yes", "highway": "bus_stop", "name": "Barb\u00e8s - Rochechouart", "name:fr": "Barb\u00e8s - Rochechouart", "public_transport": "platform", "ref:FR:STIF": "36542", "ref:FR:STIF:stop_id": "StopPoint:59:3740300", "route_ref": "30;N02", "shelter": "yes", "source": "survey 07/2017", "survey:date": "2017-07-04", "tactile_paving": "no"}}, {"type": "node", "id": 2281243444, "lat": 48.8903375, "lon": 2.3590926, "tags": {"STIF:zone": "1", "bus": "yes", "highway": "bus_stop", "name": "Ordener - Marx Dormoy", "public_transport": "platform", "ref:FR:STIF": "36674", "ref:FR:STIF:stop_id": "StopPoint:59:5770806", "route_ref": "60", "shelter": "yes", "source:wheelchair": "STIF 2019-01", "tactile_paving": "no", "wheelchair": "no"}}, {"type": "node", "id": 2283655492, "lat": 48.8871093, "lon": 2.3598178, "tags": {"STIF:zone": "1", "bus": "yes", "highway": "bus_stop", "name": "D\u00e9partement - Marx Dormoy", "public_transport": "platform", "ref:FR:STIF": "40771", "ref:FR:STIF:stop_id": "StopPoint:59:4035723", "route_ref": "35;38;N43", "shelter": "no", "source:wheelchair": "STIF 2019-01", "tactile_paving": "no", "wheelchair": "yes"}}, {"type": "node", "id": 2319381281, "lat": 48.8881927, "lon": 2.3621096, "tags": {"STIF:zone": "1", "bench": "yes", "bin": "no", "bus": "yes", "highway": "bus_stop", "lit": "yes", "name": "Pajol", "public_transport": "platform", "ref:FR:STIF": "10188", "ref:FR:STIF:stop_id": "StopPoint:59:3750034", "route_ref": "519", "shelter": "yes", "source:position": "local survey", "source:wheelchair": "STIF 2019-01", "tactile_paving": "no", "wheelchair": "yes"}}, {"type": "node", "id": 2323800420, "lat": 48.8845262, "lon": 2.3643914, "tags": {"STIF:zone": "1", "bench": "yes", "bin": "yes", "bus": "yes", "highway": "bus_stop", "lit": "yes", "name": "Chapelle - Cailli\u00e9", "public_transport": "platform", "ref:FR:STIF": "22822", "ref:FR:STIF:stop_id": "StopPoint:59:3749763", "route_ref": "48;La Traverse;45", "shelter": "yes", "source:wheelchair": "STIF 2019-01", "tactile_paving": "no", "wheelchair": "no"}}, {"type": "node", "id": 2323800421, "lat": 48.8846958, "lon": 2.3614362, "tags": {"STIF:zone": "1", "bench": "no", "bin": "no", "bus": "yes", "highway": "bus_stop", "lit": "no", "name": "La Chapelle", "public_transport": "platform", "ref:FR:STIF": "28513", "ref:FR:STIF:stop_id": "StopPoint:59:3952750", "route_ref": "519", "shelter": "no", "source:position": "local survey", "source:wheelchair": "STIF 2019-01", "tactile_paving": "no", "wheelchair": "yes"}}, {"type": "node", "id": 2330869328, "lat": 48.8826526, "lon": 2.3588127, "tags": {"STIF:zone": "1", "bench": "yes", "bin": "no", "bus": "yes", "highway": "bus_stop", "lit": "yes", "name": "Cail - Demarquay", "public_transport": "platform", "ref:FR:STIF": "22823", "ref:FR:STIF:stop_id": "StopPoint:59:3741055", "route_ref": "35;48;N43", "shelter": "yes", "tactile_paving": "no"}}, {"type": "node", "id": 2337160165, "lat": 48.884169, "lon": 2.3679379, "tags": {"STIF:zone": "1", "bench": "no", "bin": "no", "bus": "yes", "highway": "bus_stop", "lit": "yes", "name": "Stalingrad", "public_transport": "platform", "ref:FR:STIF": "24818", "ref:FR:STIF:stop_id": "StopPoint:59:3749762", "route_ref": "48", "shelter": "no", "tactile_paving": "no"}}, {"type": "node", "id": 2337276302, "lat": 48.8862829, "lon": 2.3566228, "tags": {"STIF:zone": "1", "bench": "no", "bus": "yes", "highway": "bus_stop", "name": "Saint-Bruno", "name:RATP": "SAINT-BRUNO", "public_transport": "platform", "ref:FR:STIF": "24697", "ref:FR:STIF:stop_id": "StopPoint:59:3741057", "route_ref": "302", "shelter": "no", "source:wheelchair": "STIF 2019-01", "tactile_paving": "no", "type:RATP": "bus", "wheelchair": "yes"}}, {"type": "node", "id": 2459537090, "lat": 48.8888757, "lon": 2.3560908, "tags": {"STIF:zone": "1", "bench": "no", "bin": "no", "bus": "yes", "highway": "bus_stop", "lit": "no", "name": "Doudeauville", "public_transport": "platform", "ref:FR:STIF": "17568", "ref:FR:STIF:stop_id": "StopPoint:59:3741059", "route_ref": "302", "shelter": "no", "source:wheelchair": "STIF 2019-01", "tactile_paving": "no", "wheelchair": "yes"}}, {"type": "node", "id": 2467125813, "lat": 48.8898325, "lon": 2.3681572, "tags": {"STIF:zone": "1", "bench": "no", "bin": "yes", "bus": "yes", "highway": "bus_stop", "lit": "no", "name": "Riquet", "public_transport": "platform", "ref:FR:STIF": "24675", "ref:FR:STIF:stop_id": "StopPoint:59:7991788", "route_ref": "45;519", "shelter": "no", "source:wheelchair": "STIF 2019-01", "tactile_paving": "no", "wheelchair": "no"}}, {"type": "node", "id": 2467604813, "lat": 48.8871205, "lon": 2.3669275, "tags": {"STIF:zone": "1", "bench": "yes", "bin": "no", "bus": "yes", "highway": "bus_stop", "lit": "yes", "name": "Maroc", "public_transport": "platform", "ref:FR:STIF": "24670", "ref:FR:STIF:stop_id": "StopPoint:59:7991789", "route_ref": "45;519", "shelter": "yes", "source:wheelchair": "STIF 2019-01", "tactile_paving": "no", "wheelchair": "no"}}, {"type": "node", "id": 2467604832, "lat": 48.8896676, "lon": 2.3677472, "tags": {"STIF:zone": "1", "bench": "no", "bin": "no", "bus": "yes", "highway": "bus_stop", "lit": "no", "name": "Riquet", "public_transport": "platform", "ref:FR:STIF": "24669", "ref:FR:STIF:stop_id": "StopPoint:59:3750036", "route_ref": "519", "shelter": "no", "source:wheelchair": "STIF 2019-01", "tactile_paving": "no", "wheelchair": "yes"}}, {"type": "node", "id": 2490190440, "lat": 48.8763042, "lon": 2.3581128, "tags": {"STIF:zone": "1", "bench": "yes", "bin": "yes", "bus": "yes", "highway": "bus_stop", "lit": "yes", "name": "Gare de l'Est", "public_transport": "platform", "ref:FR:STIF": "472786", "route_ref": "38;39", "shelter": "yes", "source:wheelchair": "STIF 2019-01", "tactile_paving": "no", "wheelchair": "no"}}, {"type": "node", "id": 2490190442, "lat": 48.8756452, "lon": 2.357981, "tags": {"STIF:zone": "1", "bench": "no", "bin": "no", "bus": "yes", "highway": "bus_stop", "lit": "yes", "name": "Gare de l'Est", "public_transport": "platform", "ref:FR:STIF": "39738", "ref:FR:STIF:stop_id": "StopPoint:59:3740294", "route_ref": "N41;N42;N45", "shelter": "no", "source:wheelchair": "STIF 2019-01", "tactile_paving": "no", "wheelchair": "yes"}}, {"type": "node", "id": 2549984379, "lat": 48.8756477, "lon": 2.3575641, "tags": {"STIF:zone": "1", "bench": "yes", "bin": "yes", "bus": "yes", "highway": "bus_stop", "lit": "yes", "name": "Gare de l'Est", "public_transport": "platform", "ref:FR:STIF": "462532;479844", "route_ref": "31;35;N43;N44", "shelter": "yes", "source": "survey 06/2017", "tactile_paving": "no"}}, {"type": "node", "id": 2549984380, "lat": 48.8757782, "lon": 2.3578427, "tags": {"STIF:zone": "1", "bench": "no", "bin": "no", "bus": "yes", "highway": "bus_stop", "lit": "yes", "name": "Gare de l'Est", "public_transport": "platform", "ref:FR:STIF": "37519", "ref:FR:STIF:stop_id": "StopPoint:59:5018331", "shelter": "no", "source:ref:FR:STIF": "STIF - 12/2016", "tactile_paving": "no"}}, {"type": "node", "id": 2549984382, "lat": 48.8758325, "lon": 2.3580993, "tags": {"STIF:zone": "1", "bench": "no", "bin": "no", "bus": "yes", "highway": "bus_stop", "lit": "yes", "name": "Gare de l'Est", "public_transport": "platform", "ref:FR:STIF": "39738", "ref:FR:STIF:stop_id": "StopPoint:59:3740294", "route_ref": "46;N02;N14", "shelter": "no", "source:wheelchair": "STIF 2019-01", "tactile_paving": "no", "wheelchair": "yes"}}, {"type": "node", "id": 2549984385, "lat": 48.8760146, "lon": 2.3579188, "tags": {"STIF:zone": "1", "bench": "no", "bus": "yes", "highway": "bus_stop", "lit": "yes", "name": "Gare de l'Est", "public_transport": "platform", "ref:FR:STIF": "40088", "ref:FR:STIF:stop_id": "StopPoint:59:5018330", "shelter": "no", "source:ref:FR:STIF": "STIF - 12/2016", "tactile_paving": "no"}}, {"type": "node", "id": 2651043045, "lat": 48.8847923, "lon": 2.3692626, "tags": {"STIF:zone": "1", "bench": "yes", "bus": "yes", "highway": "bus_stop", "name": "Quai de la Seine - Stalingrad", "public_transport": "platform", "ref:FR:STIF": "24609", "ref:FR:STIF:stop_id": "StopPoint:59:4035808", "route_ref": "54;N42", "shelter": "yes", "source:wheelchair": "STIF 2019-01", "tactile_paving": "yes", "toilets:wheelchair": "no", "wheelchair": "yes"}}, {"type": "node", "id": 2889523045, "lat": 48.8877968, "lon": 2.3495029, "tags": {"STIF:zone": "1", "bench": "no", "bin": "no", "bus": "yes", "highway": "bus_stop", "name": "Ch\u00e2teau Rouge", "public_transport": "platform", "ref:FR:STIF": "22809", "ref:FR:STIF:stop_id": "StopPoint:59:4211799", "route_ref": "N44;N14;31;56", "shelter": "yes", "source:wheelchair": "STIF 2019-01", "wheelchair": "no"}}, {"type": "node", "id": 2889523054, "lat": 48.8788493, "lon": 2.3536485, "tags": {"STIF:zone": "1", "bench": "yes", "bin": "no", "bus": "yes", "highway": "bus_stop", "lit": "yes", "name": "La Fayette - Magenta - Gare du Nord", "public_transport": "platform", "ref:FR:STIF": "26658", "ref:FR:STIF:stop_id": "StopPoint:59:6423458", "route_ref": "30;31;56;N01;N14;N44", "shelter": "yes", "source:wheelchair": "STIF 2019-01", "tactile_paving": "no", "wheelchair": "no"}}, {"type": "node", "id": 2889523056, "lat": 48.8808819, "lon": 2.3518157, "tags": {"STIF:zone": "1", "bench": "yes", "bin": "yes", "bus": "yes", "highway": "bus_stop", "lit": "yes", "name": "Magenta - Maubeuge - Gare du Nord", "public_transport": "platform", "ref:FR:STIF": "28247", "ref:FR:STIF:stop_id": "StopPoint:59:3740299", "route_ref": "N44;30;31;54", "shelter": "yes", "source": "survey 06/2017", "tactile_paving": "no"}}, {"type": "node", "id": 3042998488, "lat": 48.8883829, "lon": 2.3560631, "tags": {"STIF:zone": "1", "bench": "no", "bin": "no", "bus": "yes", "highway": "bus_stop", "lit": "yes", "name": "Doudeauville", "public_transport": "platform", "ref:FR:STIF": "24696", "ref:FR:STIF:stop_id": "StopPoint:59:3741060", "route_ref": "302", "shelter": "no", "source:wheelchair": "STIF 2019-01", "tactile_paving": "no", "wheelchair": "yes"}}, {"type": "node", "id": 3497165398, "lat": 48.8824084, "lon": 2.3694337, "tags": {"STIF:zone": "1", "bench": "yes", "bin": "yes", "bus": "yes", "check_date:shelter": "2023-10-21", "highway": "bus_stop", "lit": "yes", "name": "Jaur\u00e8s - Stalingrad", "public_transport": "platform", "ref:FR:STIF": "39885", "ref:FR:STIF:stop_id": "StopPoint:59:5657285", "route_ref": "26;N42", "shelter": "yes", "source:wheelchair": "STIF 2019-01", "survey:date": "2020-12-29", "tactile_paving": "no", "wheelchair": "yes", "wikidata": "Q56868705"}}, {"type": "node", "id": 3765612049, "lat": 48.883527, "lon": 2.368793, "tags": {"STIF:zone": "1", "bench": "yes", "bin": "yes", "bus": "yes", "highway": "bus_stop", "lit": "yes", "name": "Stalingrad", "public_transport": "platform", "ref:FR:STIF": "26271", "ref:FR:STIF:stop_id": "StopPoint:59:3749794", "route_ref": "48;N42", "shelter": "yes", "tactile_paving": "yes"}}, {"type": "node", "id": 4319801218, "lat": 48.8738399, "lon": 2.3478472, "tags": {"STIF:zone": "1", "bench": "no", "bin": "no", "bus": "yes", "highway": "bus_stop", "lit": "no", "name": "Petites \u00c9curies", "public_transport": "platform", "ref:FR:STIF": "24809", "ref:FR:STIF:stop_id": "StopPoint:59:7920894", "route_ref": "48;39", "shelter": "no", "source:wheelchair": "STIF 2019-01", "tactile_paving": "no", "wheelchair": "no", "wikidata": "Q56858350"}}, {"type": "node", "id": 4321206361, "lat": 48.8873364, "lon": 2.3444776, "tags": {"STIF:zone": "1", "bench": "no", "bin": "yes", "bus": "yes", "highway": "bus_stop", "lit": "yes", "name": "Chevalier de la Barre", "public_transport": "platform", "ref:FR:STIF": "24785", "ref:FR:STIF:stop_id": "StopPoint:59:3749648", "route_ref": "40", "shelter": "no", "tactile_paving": "no", "wikidata": "Q56715286"}}, {"type": "node", "id": 4886220022, "lat": 48.8781895, "lon": 2.3544902, "tags": {"STIF:zone": "1", "bench": "yes", "bin": "yes", "bus": "yes", "highway": "bus_stop", "lit": "yes", "name": "La Fayette - Magenta - Gare du Nord", "public_transport": "platform", "ref:FR:STIF": "28251", "ref:FR:STIF:stop_id": "StopPoint:59:6423459", "route_ref": "56;N02;N14;N44", "shelter": "yes", "source:wheelchair": "STIF 2019-01", "tactile_paving": "no", "wheelchair": "no"}}, {"type": "node", "id": 4901607322, "lat": 48.8788238, "lon": 2.3625092, "tags": {"STIF:zone": "1", "bench": "yes", "bin": "no", "bus": "yes", "highway": "bus_stop", "lit": "yes", "name": "Ch\u00e2teau Landon", "public_transport": "platform", "ref:FR:STIF": "28387", "ref:FR:STIF:stop_id": "StopPoint:59:3747912", "route_ref": "46;54;N13;N41;N42;N45", "shelter": "yes", "source:wheelchair": "STIF 2019-01", "tactile_paving": "no", "wheelchair": "yes"}}, {"type": "node", "id": 4901607323, "lat": 48.8785672, "lon": 2.3619016, "tags": {"STIF:zone": "1", "bench": "yes", "bin": "no", "bus": "yes", "highway": "bus_stop", "lit": "yes", "name": "Ch\u00e2teau Landon", "public_transport": "platform", "ref:FR:STIF": "28389", "ref:FR:STIF:stop_id": "StopPoint:59:3747913", "route_ref": "46;54;N13;N41;N42;N45", "shelter": "yes", "source:wheelchair": "STIF 2019-01", "tactile_paving": "no", "wheelchair": "yes"}}, {"type": "node", "id": 4913326022, "lat": 48.8812369, "lon": 2.3517574, "tags": {"STIF:zone": "1", "bench": "yes", "bin": "no", "bus": "yes", "highway": "bus_stop", "lit": "yes", "name": "Magenta - Maubeuge \u2013 Gare du Nord", "public_transport": "platform", "ref:FR:STIF": "28252", "ref:FR:STIF:stop_id": "StopPoint:59:3740298", "route_ref": "56;N14;N44", "shelter": "yes", "tactile_paving": "no"}}, {"type": "node", "id": 4913326023, "lat": 48.8812348, "lon": 2.3517236, "tags": {"STIF:zone": "1", "bench": "yes", "bin": "no", "bus": "yes", "highway": "bus_stop", "lit": "yes", "name": "Magenta - Maubeuge - Gare du Nord", "public_transport": "platform", "ref:FR:STIF": "28252", "ref:FR:STIF:stop_id": "StopPoint:59:3740298", "route_ref": "N02;30;31;54", "shelter": "yes", "source:wheelchair": "STIF 2019-01", "tactile_paving": "no", "wheelchair": "yes"}}, {"type": "node", "id": 4913326221, "lat": 48.8833293, "lon": 2.3498596, "tags": {"STIF:zone": "1", "bench": "yes", "bus": "yes", "highway": "bus_stop", "name": "Barb\u00e8s - Rochechouart", "public_transport": "platform", "ref:FR:STIF": "36542", "ref:FR:STIF:stop_id": "StopPoint:59:3740300", "route_ref": "54;N14;N44", "shelter": "yes", "source:wheelchair": "STIF 2019-01", "tactile_paving": "no", "wheelchair": "yes"}}, {"type": "node", "id": 4942810074, "lat": 48.8834916, "lon": 2.348903, "tags": {"STIF:zone": "1", "bench": "no", "bin": "yes", "bus": "yes", "highway": "bus_stop", "lit": "yes", "name": "Barb\u00e8s - Rochechouart", "public_transport": "platform", "ref:FR:STIF": "28243", "ref:FR:STIF:stop_id": "StopPoint:59:3740339", "route_ref": "54;N01", "shelter": "no", "source:wheelchair": "STIF 2019-01", "tactile_paving": "no", "wheelchair": "yes"}}, {"type": "node", "id": 4953654921, "lat": 48.8744547, "lon": 2.3551298, "tags": {"STIF:zone": "1", "bench": "no", "bin": "no", "bus": "yes", "highway": "bus_stop", "lit": "no", "name": "Faubourg Saint-Denis", "public_transport": "platform", "ref:FR:STIF": "26569", "ref:FR:STIF:stop_id": "StopPoint:59:3740503", "route_ref": "32", "shelter": "no", "source:wheelchair": "STIF 2019-01", "tactile_paving": "no", "wheelchair": "no", "wikidata": "Q56868533"}}, {"type": "node", "id": 5137316022, "lat": 48.8818567, "lon": 2.3585241, "tags": {"STIF:zone": "1", "bench": "yes", "bin": "no", "bus": "yes", "highway": "bus_stop", "lit": "yes", "name": "Cail - Demarquay", "public_transport": "platform", "ref:FR:STIF": "22824", "ref:FR:STIF:stop_id": "StopPoint:59:3741054", "route_ref": "35;48;N43;45", "shelter": "yes", "source:wheelchair": "STIF 2019-01", "tactile_paving": "no", "wheelchair": "no"}}, {"type": "node", "id": 5137326826, "lat": 48.8851537, "lon": 2.3592067, "tags": {"STIF:zone": "1", "bench": "yes", "bus": "yes", "highway": "bus_stop", "name": "Place de la Chapelle", "public_transport": "platform", "ref:FR:STIF": "27889", "ref:FR:STIF:stop_id": "StopPoint:59:3666618", "route_ref": "302;350", "shelter": "yes", "source:wheelchair": "STIF 2019-01", "tactile_paving": "no", "wheelchair": "yes"}}, {"type": "node", "id": 5137349323, "lat": 48.8836823, "lon": 2.3593515, "tags": {"STIF:zone": "1", "bench": "yes", "bin": "no", "bus": "yes", "highway": "bus_stop", "lit": "yes", "name": "Place de la Chapelle", "public_transport": "platform", "ref:FR:STIF": "14672", "ref:FR:STIF:stop_id": "StopPoint:59:3741056", "route_ref": "38;45;302", "shelter": "yes", "tactile_paving": "no"}}, {"type": "node", "id": 5137349326, "lat": 48.8825524, "lon": 2.3587489, "tags": {"STIF:zone": "1", "bench": "yes", "bin": "no", "bus": "yes", "highway": "bus_stop", "lit": "yes", "name": "Cail - Demarquay", "public_transport": "platform", "ref:FR:STIF": "22823", "ref:FR:STIF:stop_id": "StopPoint:59:3741055", "route_ref": "38;45;65;302", "shelter": "yes", "source:wheelchair": "STIF 2019-01", "tactile_paving": "no", "wheelchair": "no"}}, {"type": "node", "id": 5137398621, "lat": 48.8807767, "lon": 2.3579306, "tags": {"STIF:zone": "1", "bench": "no", "bin": "no", "bus": "yes", "highway": "bus_stop", "lit": "yes", "name": "Gare du Nord", "public_transport": "platform", "ref:FR:STIF": "8326", "ref:FR:STIF:stop_id": "StopPoint:59:3749768", "route_ref": "45;302;350;N140;N143", "shelter": "yes", "source:wheelchair": "STIF 2019-01", "tactile_paving": "no", "wheelchair": "no"}}, {"type": "node", "id": 5137405224, "lat": 48.8794559, "lon": 2.3557946, "tags": {"bench": "no", "bin": "no", "bus": "yes", "highway": "bus_stop", "lit": "yes", "name": "Gare du Nord", "public_transport": "platform", "ref:FR:STIF": "no", "route_ref": "Les Cars rouges, arr\u00eat 11", "shelter": "no", "tactile_paving": "no"}}, {"type": "node", "id": 5137405225, "lat": 48.87928, "lon": 2.3557433, "tags": {"STIF:zone": "1", "alt_ref:FR:STIF": "411257", "alt_ref:FR:STIF:stop_id": "StopPoint:800:8759492R", "bench": "yes", "bin": "no", "bus": "yes", "highway": "bus_stop", "lit": "yes", "name": "La Fayette - Dunkerque", "public_transport": "platform", "ref:FR:STIF": "39804", "ref:FR:STIF:stop_id": "StopPoint:59:4035729", "route_ref": "N43;N140;N143", "shelter": "yes", "source:wheelchair": "STIF 2019-01", "tactile_paving": "no", "wheelchair": "yes"}}, {"type": "node", "id": 5447400928, "lat": 48.8889852, "lon": 2.3460974, "tags": {"STIF:zone": "1", "bench": "yes", "bin": "no", "bus": "yes", "highway": "bus_stop", "lit": "yes", "name": "Custine - Ramey", "public_transport": "platform", "ref:FR:STIF": "25941", "ref:FR:STIF:stop_id": "StopPoint:59:3749935", "route_ref": "Montmartrobus;80", "shelter": "yes", "source:wheelchair": "STIF 2019-01", "tactile_paving": "no", "wheelchair": "no"}}, {"type": "node", "id": 5577802431, "lat": 48.8841928, "lon": 2.3652175, "tags": {"STIF:zone": "1", "bench": "yes", "bin": "no", "bus": "yes", "check_date:shelter": "2023-04-16", "highway": "bus_stop", "lit": "yes", "name": "Ch\u00e2teau Landon", "public_transport": "platform", "ref:FR:STIF": "24815", "ref:FR:STIF:stop_id": "StopPoint:59:3749793", "route_ref": "48;45", "shelter": "yes", "source:wheelchair": "STIF 2019-01", "tactile_paving": "no", "wheelchair": "no"}}, {"type": "node", "id": 5577802432, "lat": 48.8842618, "lon": 2.3618139, "tags": {"STIF:zone": "1", "bench": "yes", "bin": "no", "bus": "yes", "highway": "bus_stop", "lit": "no", "name": "Philippe de Girard", "public_transport": "platform", "ref:FR:STIF": "24820", "ref:FR:STIF:stop_id": "StopPoint:59:3749792", "route_ref": "48;45", "shelter": "yes", "source:wheelchair": "STIF 2019-01", "tactile_paving": "no", "wheelchair": "no", "wikidata": "Q56858578"}}, {"type": "node", "id": 5577802434, "lat": 48.8759329, "lon": 2.3482547, "tags": {"STIF:zone": "1", "bench": "no", "bin": "no", "bus": "yes", "highway": "bus_stop", "lit": "yes", "name": "Paradis", "public_transport": "platform", "ref:FR:STIF": "24821", "ref:FR:STIF:stop_id": "StopPoint:59:7920893", "route_ref": "48;39", "shelter": "no", "source:wheelchair": "STIF 2019-01", "tactile_paving": "no", "wheelchair": "no", "wikidata": "Q56858935"}}, {"type": "node", "id": 5577802435, "lat": 48.877976, "lon": 2.3491203, "tags": {"STIF:zone": "1", "bench": "yes", "bin": "yes", "bus": "yes", "highway": "bus_stop", "lit": "yes", "name": "La Fayette - Poissonni\u00e8re", "public_transport": "platform", "ref:FR:STIF": "24814", "ref:FR:STIF:stop_id": "StopPoint:59:7920892", "route_ref": "48;39", "shelter": "yes", "source:wheelchair": "STIF 2019-01", "tactile_paving": "no", "wheelchair": "no", "wikidata": "Q56868668"}}, {"type": "node", "id": 5678184119, "lat": 48.8764158, "lon": 2.3469453, "tags": {"STIF:zone": "1", "bench": "no", "bin": "no", "bus": "yes", "highway": "bus_stop", "lit": "yes", "name": "Square Montholon", "public_transport": "platform", "ref:FR:STIF": "26568", "ref:FR:STIF:stop_id": "StopPoint:59:3740505", "route_ref": "32", "shelter": "no", "source:wheelchair": "STIF 2019-01", "tactile_paving": "no", "wheelchair": "yes"}}, {"type": "node", "id": 5979568509, "lat": 48.8782538, "lon": 2.3532766, "tags": {"STIF:zone": "1", "bench": "no", "bin": "no", "bus": "yes", "highway": "bus_stop", "lit": "yes", "name": "Place Franz Liszt", "public_transport": "platform", "ref:FR:STIF": "27215", "ref:FR:STIF:stop_id": "StopPoint:59:3749737", "route_ref": "26;32;42;43;48;45", "shelter": "no", "source:wheelchair": "STIF 2019-01", "tactile_paving": "no", "wheelchair": "no"}}, {"type": "node", "id": 6247477545, "lat": 48.8860473, "lon": 2.3438045, "tags": {"STIF:zone": "1", "bench": "no", "bin": "no", "bus": "yes", "highway": "bus_stop", "lit": "yes", "name": "Utrillo", "public_transport": "platform", "ref:FR:STIF": "9873", "ref:FR:STIF:stop_id": "StopPoint:59:3749649", "route_ref": "40", "shelter": "no", "tactile_paving": "no", "wikidata": "Q56858921"}}, {"type": "node", "id": 6247477547, "lat": 48.8884052, "lon": 2.3440399, "tags": {"STIF:zone": "1", "bench": "no", "bus": "yes", "highway": "bus_stop", "name": "Lamarck - Becquerel", "public_transport": "platform", "ref:FR:STIF": "24773", "ref:FR:STIF:stop_id": "StopPoint:59:3749647", "route_ref": "40", "shelter": "no", "tactile_paving": "no", "wikidata": "Q56858560"}}, {"type": "node", "id": 6281299064, "lat": 48.8790728, "lon": 2.3563916, "tags": {"STIF:zone": "1", "bench": "yes", "bin": "no", "bus": "yes", "highway": "bus_stop", "lit": "yes", "name": "La Fayette - Saint-Quentin - Gare du Nord", "public_transport": "platform", "ref:FR:STIF": "29412", "ref:FR:STIF:stop_id": "StopPoint:59:5657278", "route_ref": "26", "shelter": "yes", "source:wheelchair": "STIF 2019-01", "tactile_paving": "no", "wheelchair": "yes", "wikidata": "Q56870554"}}, {"type": "node", "id": 6283145690, "lat": 48.8809759, "lon": 2.3517242, "tags": {"STIF:zone": "1", "bench": "yes", "bin": "yes", "bus": "yes", "highway": "bus_stop", "lit": "yes", "name": "Magenta - Maubeuge - Gare du Nord", "public_transport": "platform", "ref:FR:STIF": "28247", "ref:FR:STIF:stop_id": "StopPoint:59:4045032", "route_ref": "N01;N14;56", "shelter": "yes", "source:wheelchair": "STIF 2019-01", "tactile_paving": "no", "wheelchair": "no"}}, {"type": "node", "id": 6283213062, "lat": 48.8754771, "lon": 2.35023, "tags": {"STIF:zone": "1", "bench": "no", "bin": "no", "bus": "yes", "highway": "bus_stop", "lit": "yes", "name": "Hauteville", "public_transport": "platform", "ref:FR:STIF": "26570", "ref:FR:STIF:stop_id": "StopPoint:59:3740504", "route_ref": "32", "shelter": "no", "source:wheelchair": "STIF 2019-01", "tactile_paving": "no", "wheelchair": "no", "wikidata": "Q56868534"}}, {"type": "node", "id": 6284054457, "lat": 48.8845941, "lon": 2.3695813, "tags": {"STIF:zone": "1", "bus": "yes", "highway": "bus_stop", "name": "Quai de la Seine - Stalingrad", "public_transport": "platform", "ref:FR:STIF": "24606", "ref:FR:STIF:stop_id": "StopPoint:59:4035809", "route_ref": "54;N42", "source:wheelchair": "STIF 2019-01", "wheelchair": "yes"}}, {"type": "node", "id": 6284054458, "lat": 48.8819912, "lon": 2.3663762, "tags": {"STIF:zone": "1", "bench": "no", "bin": "yes", "bus": "yes", "highway": "bus_stop", "lit": "yes", "name": "Louis Blanc", "public_transport": "platform", "ref:FR:STIF": "30092", "ref:FR:STIF:stop_id": "StopPoint:59:5761978", "route_ref": "54", "shelter": "no", "source:wheelchair": "STIF 2019-01", "tactile_paving": "no", "wheelchair": "yes"}}, {"type": "node", "id": 6284054460, "lat": 48.882278, "lon": 2.366476, "tags": {"STIF:zone": "1", "bench": "no", "bin": "yes", "bus": "yes", "highway": "bus_stop", "lit": "yes", "name": "Chaudron - Saint-Martin", "public_transport": "platform", "ref:FR:STIF": "24605", "ref:FR:STIF:stop_id": "StopPoint:59:5761976", "route_ref": "54", "shelter": "no", "source:wheelchair": "STIF 2019-01", "tactile_paving": "no", "wheelchair": "yes", "wikidata": "Q56870593"}}, {"type": "node", "id": 6284054462, "lat": 48.8861406, "lon": 2.3709404, "tags": {"STIF:zone": "1", "bench": "no", "bus": "yes", "highway": "bus_stop", "name": "Maroc - Flandre", "public_transport": "platform", "ref:FR:STIF": "24602", "ref:FR:STIF:stop_id": "StopPoint:59:4035806", "route_ref": "54;N42", "shelter": "no", "source:wheelchair": "STIF 2019-01", "tactile_paving": "no", "wheelchair": "yes"}}, {"type": "node", "id": 6293154965, "lat": 48.8827656, "lon": 2.3442342, "tags": {"bench": "yes", "bin": "no", "bus": "yes", "fixme": "v\u00e9rifier la position", "highway": "bus_stop", "lit": "yes", "name": "Sacr\u00e9-C\u0153ur", "public_transport": "platform", "ref:FR:BigBus": "52", "route_ref": "bleu", "shelter": "yes", "tactile_paving": "no", "website": "https://www.bigbustours.com"}}, {"type": "node", "id": 6301063871, "lat": 48.8861602, "lon": 2.3689343, "tags": {"STIF:zone": "1", "bench": "no", "bin": "no", "bus": "yes", "highway": "bus_stop", "lit": "no", "name": "Place du Maroc", "public_transport": "platform", "ref:FR:STIF": "464012", "ref:FR:STIF:stop_id": "StopPoint:59:7946231", "route_ref": "45", "shelter": "no", "tactile_paving": "no"}}, {"type": "node", "id": 6306353251, "lat": 48.8778512, "lon": 2.3564856, "tags": {"STIF:zone": "1", "bench": "yes", "bin": "no", "bus": "yes", "highway": "bus_stop", "lit": "yes", "name": "Valenciennes", "public_transport": "platform", "ref:FR:STIF": "39925", "ref:FR:STIF:stop_id": "StopPoint:59:4035732", "route_ref": "46;91", "shelter": "yes", "source:wheelchair": "STIF 2019-01", "tactile_paving": "no", "wheelchair": "no"}}, {"type": "node", "id": 6317081123, "lat": 48.8758905, "lon": 2.3562945, "tags": {"STIF:zone": "1", "bench": "yes", "bin": "no", "bus": "yes", "highway": "bus_stop", "lit": "yes", "name": "Magenta-Gare de l'Est", "public_transport": "platform", "ref:FR:STIF": "463551", "ref:FR:STIF:stop_id": "StopPoint:59:7899408", "route_ref": "56", "shelter": "yes", "source:wheelchair": "STIF 2019-01", "tactile_paving": "no", "wheelchair": "no"}}, {"type": "node", "id": 6317081124, "lat": 48.8769384, "lon": 2.3556575, "tags": {"STIF:zone": "1", "bench": "no", "bin": "yes", "bus": "yes", "highway": "bus_stop", "lit": "yes", "name": "Magenta-Gare de l'Est", "public_transport": "platform", "ref:FR:STIF": "463548", "ref:FR:STIF:stop_id": "StopPoint:59:7899409", "route_ref": "56", "shelter": "no", "source:wheelchair": "STIF 2019-01", "tactile_paving": "no", "wheelchair": "no"}}, {"type": "node", "id": 6432809481, "lat": 48.8776464, "lon": 2.356255, "tags": {"STIF:zone": "1", "bench": "yes", "bin": "no", "bus": "yes", "highway": "bus_stop", "lit": "yes", "name": "Valenciennes", "public_transport": "platform", "ref:FR:STIF": "463954", "ref:FR:STIF:stop_id": "StopPoint:59:7931517", "route_ref": "38;91", "shelter": "yes", "source:wheelchair": "STIF 2019-01", "tactile_paving": "no", "wheelchair": "no"}}, {"type": "node", "id": 6463009940, "lat": 48.8811013, "lon": 2.3574123, "tags": {"STIF:zone": "1", "bus": "yes", "covered": "yes", "highway": "bus_stop", "level": "1", "name": "Gare du Nord", "note": "Arr\u00eats repositionn\u00e9s dans la gare routi\u00e8re sans pouvoir lespositionner plus pr\u00e9cis\u00e9ment", "public_transport": "platform", "ref:FR:STIF": "8453", "ref:FR:STIF:stop_id": "StopPoint:59:7931516", "route_ref": "91", "wheelchair": "yes"}}, {"type": "node", "id": 6539363618, "lat": 48.8797422, "lon": 2.3551914, "tags": {"bench": "yes", "bin": "yes", "bus": "yes", "highway": "bus_stop", "lit": "yes", "name": "Gare du Nord", "public_transport": "platform", "ref:FR:Open_Tour": "33", "ref:FR:STIF": "no", "shelter": "yes", "tactile_paving": "no"}}, {"type": "node", "id": 6539363620, "lat": 48.8799113, "lon": 2.355401, "tags": {"bench": "yes", "bin": "yes", "bus": "yes", "highway": "bus_stop", "lit": "yes", "name": "Gare du Nord", "public_transport": "platform", "ref:FR:Open_Tour": "33", "ref:FR:STIF": "no", "shelter": "yes", "tactile_paving": "no"}}, {"type": "node", "id": 6539363621, "lat": 48.8827758, "lon": 2.3442687, "tags": {"bench": "yes", "bin": "no", "bus": "yes", "highway": "bus_stop", "lit": "yes", "name": "Montmartre - Sacr\u00e9-C\u0153ur", "public_transport": "platform", "ref:FR:Open_Tour": "32", "shelter": "yes", "tactile_paving": "no"}}, {"type": "node", "id": 8613562996, "lat": 48.8791275, "lon": 2.3557104, "tags": {"bench": "no", "bin": "yes", "bus": "yes", "highway": "bus_stop", "lit": "yes", "name": "Gare du Nord", "public_transport": "platform", "ref:FR:STIF": "470953", "route_ref": "91", "shelter": "no", "tactile_paving": "no"}}, {"type": "node", "id": 9550005354, "lat": 48.8790234, "lon": 2.3543596, "tags": {"STIF:zone": "1", "bench": "no", "bin": "no", "bus": "yes", "highway": "bus_stop", "lit": "yes", "name": "Gare du Nord", "note": "r\u00e9serv\u00e9 \u00e0 la descente", "public_transport": "platform", "ref:FR:STIF": "480832", "route_ref": "91", "shelter": "no", "tactile_paving": "no", "wheelchair": "yes"}}, {"type": "node", "id": 11132470208, "lat": 48.8759546, "lon": 2.3589612, "tags": {"bench": "no", "bin": "no", "bus": "yes", "highway": "bus_stop", "name": "Gare de l'Est", "public_transport": "platform", "route_ref": "38;54;91;N14", "shelter": "no", "survey:date": "2023-08-20"}}, {"type": "node", "id": 11134719905, "lat": 48.8759542, "lon": 2.3589511, "tags": {"bench": "no", "highway": "bus_stop", "public_transport": "platform", "shelter": "no", "survey:date": "2023-08-20"}}]}