{"version": 0.6, "generator": "Overpass API 0.7.61.5 4133829e", "osm3s": {"timestamp_osm_base": "2023-12-09T22:50:21Z", "copyright": "The data included in this document is from www.openstreetmap.org. The data is made available under ODbL."}, "elements": [{"type": "node", "id": 540661257, "lat": 48.8895461, "lon": 2.3352459, "tags": {"STIF:zone": "1", "bench": "yes", "bus": "yes", "highway": "bus_stop", "name": "Square Caulaincourt", "public_transport": "platform", "ref:FR:STIF": "26342", "ref:FR:STIF:stop_id": "StopPoint:59:3749927", "route_ref": "80", "shelter": "yes", "source:wheelchair": "STIF 2019-01", "tactile_paving": "no", "wheelchair": "no"}}, {"type": "node", "id": 540662545, "lat": 48.8894553, "lon": 2.3359673, "tags": {"STIF:zone": "1", "bench": "yes", "bin": "no", "bus": "yes", "highway": "bus_stop", "name": "Square Caulaincourt", "public_transport": "platform", "ref:FR:STIF": "26344", "ref:FR:STIF:stop_id": "StopPoint:59:3749926", "route_ref": "80", "shelter": "yes", "source:wheelchair": "STIF 2019-01", "tactile_paving": "no", "wheelchair": "no"}}, {"type": "node", "id": 827624440, "lat": 48.8786533, "lon": 2.3548092, "tags": {"STIF:zone": "1", "bench": "no", "bin": "no", "bus": "yes", "highway": "bus_stop", "lit": "yes", "name": "La Fayette - Magenta", "public_transport": "platform", "ref:FR:STIF": "22816", "ref:FR:STIF:stop_id": "StopPoint:59:3749738", "route_ref": "48;42;43;45", "shelter": "no", "source:wheelchair": "STIF 2019-01", "tactile_paving": "no", "wheelchair": "no"}}, {"type": "node", "id": 830583593, "lat": 48.8802871, "lon": 2.3513477, "tags": {"STIF:zone": "1", "bench": "no", "bin": "yes", "bus": "yes", "highway": "bus_stop", "lit": "yes", "name": "Magenta - Maubeuge", "public_transport": "platform", "ref:FR:STIF": "29789", "ref:FR:STIF:stop_id": "StopPoint:59:7899177", "route_ref": "26;42;43;48;45;39", "shelter": "no", "source:wheelchair": "STIF 2019-01", "tactile_paving": "no", "wheelchair": "no"}}, {"type": "node", "id": 830583622, "lat": 48.8781255, "lon": 2.3444446, "tags": {"STIF:zone": "1", "bench": "yes", "bin": "no", "bus": "yes", "highway": "bus_stop", "lit": "yes", "name": "Maubeuge - Rochechouart", "public_transport": "platform", "ref:FR:STIF": "28571", "ref:FR:STIF:stop_id": "StopPoint:59:3811227", "route_ref": "26;42;43;45", "shelter": "yes", "source:wheelchair": "STIF 2019-01", "tactile_paving": "no", "wheelchair": "no"}}, {"type": "node", "id": 830583624, "lat": 48.8792877, "lon": 2.3480192, "tags": {"STIF:zone": "1", "bench": "yes", "bin": "no", "bus": "yes", "highway": "bus_stop", "lit": "no", "name": "Condorcet", "public_transport": "platform", "ref:FR:STIF": "27335", "ref:FR:STIF:stop_id": "StopPoint:59:3811226", "route_ref": "26;42;43;45", "shelter": "yes", "source:wheelchair": "STIF 2019-01", "tactile_paving": "no", "wheelchair": "no"}}, {"type": "node", "id": 844531902, "lat": 48.8870177, "lon": 2.3323378, "tags": {"STIF:zone": "1", "bench": "no", "bus": "yes", "highway": "bus_stop", "name": "Damr\u00e9mont - Caulaincourt", "public_transport": "platform", "ref:FR:STIF": "24862", "ref:FR:STIF:stop_id": "StopPoint:59:3926224", "route_ref": "95", "shelter": "no", "source:wheelchair": "STIF 2019-01", "wheelchair": "yes"}}, {"type": "node", "id": 974091266, "lat": 48.8921211, "lon": 2.3353653, "tags": {"STIF:zone": "1", "bench": "no", "bin": "no", "bus": "yes", "highway": "bus_stop", "lit": "no", "name": "Damremont - Marcadet", "public_transport": "platform", "ref:FR:STIF": "22752", "ref:FR:STIF:stop_id": "StopPoint:59:3926228", "route_ref": "95", "shelter": "no", "source:wheelchair": "STIF 2019-01", "tactile_paving": "no", "wheelchair": "yes"}}, {"type": "node", "id": 974091280, "lat": 48.8917635, "lon": 2.3344328, "tags": {"STIF:zone": "1", "bench": "no", "bin": "no", "bus": "yes", "highway": "bus_stop", "name": "Damremont - Marcadet", "public_transport": "platform", "ref:FR:STIF": "24889", "ref:FR:STIF:stop_id": "StopPoint:59:3926229", "route_ref": "95", "shelter": "no", "source:wheelchair": "STIF 2019-01", "tactile_paving": "no", "wheelchair": "yes"}}, {"type": "node", "id": 974091292, "lat": 48.8957201, "lon": 2.3379375, "tags": {"STIF:zone": "1", "bus": "yes", "highway": "bus_stop", "name": "Damr\u00e9mont - Championnet", "public_transport": "platform", "ref:FR:STIF": "29282", "ref:FR:STIF:stop_id": "StopPoint:59:5770818", "route_ref": "60, 95;95;60", "shelter": "no", "source:wheelchair": "STIF 2019-01", "wheelchair": "no"}}, {"type": "node", "id": 974091335, "lat": 48.8939304, "lon": 2.3366547, "tags": {"STIF:zone": "1", "bench": "no", "bin": "no", "bus": "yes", "highway": "bus_stop", "lit": "no", "name": "Damr\u00e9mont - Ordener", "public_transport": "platform", "ref:FR:STIF": "29283", "ref:FR:STIF:stop_id": "StopPoint:59:5770816", "route_ref": "60, 95;95;60", "shelter": "yes", "source:wheelchair": "STIF 2019-01", "tactile_paving": "no", "wheelchair": "no"}}, {"type": "node", "id": 974091355, "lat": 48.8949691, "lon": 2.3372298, "tags": {"STIF:zone": "1", "bench": "no", "bin": "no", "bus": "yes", "highway": "bus_stop", "lit": "no", "name": "Damr\u00e9mont - Championnet", "public_transport": "platform", "ref:FR:STIF": "40777", "ref:FR:STIF:stop_id": "StopPoint:59:5770819", "route_ref": "60, 95;95;60", "shelter": "no", "source:wheelchair": "STIF 2019-01", "tactile_paving": "no", "wheelchair": "no"}}, {"type": "node", "id": 974091358, "lat": 48.8905519, "lon": 2.3340246, "tags": {"STIF:zone": "1", "bus": "yes", "highway": "bus_stop", "name": "Damremont - Lamarck", "public_transport": "platform", "ref:FR:STIF": "24886", "ref:FR:STIF:stop_id": "StopPoint:59:3926227", "route_ref": "95", "shelter": "no", "source:wheelchair": "STIF 2019-01", "wheelchair": "yes"}}, {"type": "node", "id": 974091370, "lat": 48.8908522, "lon": 2.3319023, "tags": {"STIF:zone": "1", "bus": "yes", "highway": "bus_stop", "name": "Place Jacques Froment", "public_transport": "platform", "ref:FR:STIF": "24888", "ref:FR:STIF:stop_id": "StopPoint:59:3926225", "route_ref": "95", "source:wheelchair": "STIF 2019-01", "wheelchair": "yes"}}, {"type": "node", "id": 974091390, "lat": 48.8932959, "lon": 2.3360594, "tags": {"STIF:zone": "1", "bench": "no", "bus": "yes", "highway": "bus_stop", "name": "Damremont - Ordener", "public_transport": "platform", "ref:FR:STIF": "24887", "ref:FR:STIF:stop_id": "StopPoint:59:3926231", "route_ref": "Line 95;95", "shelter": "no", "source:wheelchair": "STIF 2019-01", "tactile_paving": "no", "wheelchair": "yes"}}, {"type": "node", "id": 974091401, "lat": 48.8870447, "lon": 2.3326289, "tags": {"STIF:zone": "1", "bench": "no", "bus": "yes", "highway": "bus_stop", "name": "Damr\u00e9mont - Caulaincourt", "public_transport": "platform", "ref:FR:STIF": "22751", "ref:FR:STIF:stop_id": "StopPoint:59:3926223", "route_ref": "95", "shelter": "no", "source:wheelchair": "STIF 2019-01", "wheelchair": "yes"}}, {"type": "node", "id": 974091425, "lat": 48.8851547, "lon": 2.3304945, "tags": {"STIF:zone": "1", "bench": "yes", "bin": "no", "bus": "yes", "highway": "bus_stop", "mapillary": "1294362524292355", "name": "Clichy - Caulaincourt", "public_transport": "platform", "ref:FR:STIF": "22750", "ref:FR:STIF:stop_id": "StopPoint:59:3926222", "route_ref": "95", "shelter": "yes", "source:wheelchair": "STIF 2019-01", "survey:date": "2021-01-11", "tactile_paving": "no", "wheelchair": "yes"}}, {"type": "node", "id": 974091483, "lat": 48.8909507, "lon": 2.3312271, "tags": {"STIF:zone": "1", "bus": "yes", "highway": "bus_stop", "name": "Place Jacques Froment", "public_transport": "platform", "ref:FR:STIF": "24890", "ref:FR:STIF:stop_id": "StopPoint:59:3926226", "route_ref": "95", "source:wheelchair": "STIF 2019-01", "wheelchair": "yes"}}, {"type": "node", "id": 1236570996, "lat": 48.8827868, "lon": 2.3443446, "tags": {"STIF:zone": "1", "bench": "yes", "bin": "no", "bus": "yes", "highway": "bus_stop", "lit": "yes", "name": "Anvers - Sacre C\u0153ur", "public_transport": "platform", "ref:FR:STIF": "28244", "ref:FR:STIF:stop_id": "StopPoint:59:3740337", "route_ref": "30;N01", "shelter": "yes", "source:wheelchair": "STIF 2019-01", "tactile_paving": "no", "wheelchair": "yes"}}, {"type": "node", "id": 1236570997, "lat": 48.8834067, "lon": 2.3462776, "tags": {"STIF:zone": "1", "bench": "yes", "bin": "yes", "bus": "yes", "highway": "bus_stop", "lit": "yes", "name": "Rochechouart - Clignancourt", "public_transport": "platform", "ref:FR:STIF": "27969", "ref:FR:STIF:stop_id": "StopPoint:59:3740301", "route_ref": "30;N02", "shelter": "yes", "source:wheelchair": "STIF 2019-01", "tactile_paving": "no", "wheelchair": "yes"}}, {"type": "node", "id": 1236571082, "lat": 48.8832195, "lon": 2.3465319, "tags": {"STIF:zone": "1", "bench": "yes", "bin": "yes", "bus": "yes", "highway": "bus_stop", "lit": "yes", "name": "Rochechouart - Clignancourt", "public_transport": "platform", "ref:FR:STIF": "28246", "ref:FR:STIF:stop_id": "StopPoint:59:3740338", "route_ref": "30;N01", "shelter": "yes", "source:wheelchair": "STIF 2019-01", "tactile_paving": "yes", "wheelchair": "yes"}}, {"type": "node", "id": 1236630525, "lat": 48.8822878, "lon": 2.3405659, "tags": {"STIF:zone": "1", "bench": "yes", "bin": "no", "bus": "yes", "highway": "bus_stop", "lit": "no", "name": "Rochechouart - Martyrs", "public_transport": "platform", "ref:FR:STIF": "22804", "ref:FR:STIF:stop_id": "StopPoint:59:3740303", "route_ref": "N02;54", "shelter": "yes", "source:wheelchair": "STIF 2019-01", "tactile_paving": "no", "wheelchair": "yes"}}, {"type": "node", "id": 1236630566, "lat": 48.8829704, "lon": 2.3440536, "tags": {"STIF:zone": "1", "bench": "yes", "bin": "yes", "bus": "yes", "highway": "bus_stop", "lit": "yes", "name": "Anvers - Sacre C\u0153ur", "public_transport": "platform", "ref:FR:STIF": "34160", "ref:FR:STIF:stop_id": "StopPoint:59:3740302", "route_ref": "30;N02", "shelter": "yes", "source:wheelchair": "STIF 2019-01", "tactile_paving": "no", "wheelchair": "yes"}}, {"type": "node", "id": 1236682726, "lat": 48.8819819, "lon": 2.3401989, "tags": {"STIF:zone": "1", "bench": "yes", "bin": "yes", "bus": "yes", "highway": "bus_stop", "lit": "yes", "name": "Rochechouart - Martyrs", "public_transport": "platform", "ref:FR:STIF": "26561", "ref:FR:STIF:stop_id": "StopPoint:59:3740336", "route_ref": "30;N01", "shelter": "yes", "source:wheelchair": "STIF 2019-01", "tactile_paving": "no", "wheelchair": "yes"}}, {"type": "node", "id": 1236682807, "lat": 48.8822716, "lon": 2.3374743, "tags": {"STIF:zone": "1", "bench": "yes", "bin": "yes", "bus": "yes", "highway": "bus_stop", "lit": "yes", "name": "Pigalle", "name:fr": "Pigalle 13", "public_transport": "platform", "ref:FR:STIF": "24700", "ref:FR:STIF:stop_id": "StopPoint:59:3740335", "route_ref": "Montmartrobus;30;N01", "shelter": "yes", "source:wheelchair": "STIF 2019-01", "tactile_paving": "no", "wheelchair": "yes"}}, {"type": "node", "id": 1241390897, "lat": 48.883786, "lon": 2.3330036, "tags": {"STIF:zone": "1", "bench": "yes", "bin": "no", "bus": "yes", "highway": "bus_stop", "lit": "yes", "name": "Blanche", "public_transport": "platform", "ref:FR:STIF": "39762", "ref:FR:STIF:stop_id": "StopPoint:59:4037278", "route_ref": "N02;30", "shelter": "yes", "source:wheelchair": "STIF 2019-01", "tactile_paving": "no", "wheelchair": "no"}}, {"type": "node", "id": 1241390914, "lat": 48.883515, "lon": 2.3330746, "tags": {"STIF:zone": "1", "bench": "yes", "bin": "no", "bus": "yes", "highway": "bus_stop", "lit": "yes", "name": "Blanche", "public_transport": "platform", "ref:FR:STIF": "20420", "ref:FR:STIF:stop_id": "StopPoint:59:3740334", "route_ref": "30;N01", "shelter": "yes", "source:wheelchair": "STIF 2019-01", "tactile_paving": "no", "wheelchair": "no"}}, {"type": "node", "id": 1361000501, "lat": 48.8897173, "lon": 2.3394547, "tags": {"STIF:zone": "1", "bus": "yes", "highway": "bus_stop", "name": "Lamarck - Caulaincourt", "public_transport": "platform", "ref:FR:STIF": "25943", "ref:FR:STIF:stop_id": "StopPoint:59:3749929", "route_ref": "80", "source:wheelchair": "STIF 2019-01", "wheelchair": "no"}}, {"type": "node", "id": 1509815555, "lat": 48.8781963, "lon": 2.3378153, "tags": {"STIF:zone": "1", "bench": "no", "bin": "no", "bus": "yes", "highway": "bus_stop", "lit": "yes", "name": "Saint-Georges", "public_transport": "platform", "ref:FR:STIF": "25762", "ref:FR:STIF:stop_id": "StopPoint:59:4016280", "route_ref": "40;74", "shelter": "no", "source:wheelchair": "STIF 2019-01", "tactile_paving": "no", "wheelchair": "no"}}, {"type": "node", "id": 1509815570, "lat": 48.8785791, "lon": 2.3372731, "tags": {"STIF:zone": "1", "bench": "no", "bin": "yes", "bus": "yes", "highway": "bus_stop", "lit": "no", "name": "Saint-Georges", "public_transport": "platform", "ref:FR:STIF": "25761", "ref:FR:STIF:stop_id": "StopPoint:59:3764498", "route_ref": "67;40", "shelter": "no", "source:wheelchair": "STIF 2019-01", "tactile_paving": "no", "wheelchair": "no"}}, {"type": "node", "id": 1657988058, "lat": 48.8904618, "lon": 2.3454775, "tags": {"STIF:zone": "1", "bench": "no", "bus": "yes", "highway": "bus_stop", "name": "Marcadet", "public_transport": "platform", "ref:FR:STIF": "25942", "ref:FR:STIF:stop_id": "StopPoint:59:3749934", "route_ref": "Montmartrobus;80;85", "shelter": "no", "source:wheelchair": "STIF 2019-01", "wheelchair": "no"}}, {"type": "node", "id": 1657992650, "lat": 48.8912147, "lon": 2.348694, "tags": {"STIF:zone": "1", "bench": "no", "bin": "yes", "bus": "yes", "highway": "bus_stop", "lit": "no", "name": "Eug\u00e8ne Sue", "public_transport": "platform", "ref:FR:STIF": "23004", "ref:FR:STIF:stop_id": "StopPoint:59:5709997", "route_ref": "85", "shelter": "no", "source:wheelchair": "STIF 2019-01", "tactile_paving": "no", "wheelchair": "yes"}}, {"type": "node", "id": 1657998340, "lat": 48.8910471, "lon": 2.3494998, "tags": {"STIF:zone": "1", "bench": "yes", "bus": "yes", "highway": "bus_stop", "name": "Marcadet - Poissonniers", "public_transport": "platform", "ref:FR:STIF": "36543", "ref:FR:STIF:stop_id": "StopPoint:59:4211797", "route_ref": "31;56;N14;N44", "shelter": "yes", "source:wheelchair": "STIF 2019-01", "tactile_paving": "no", "wheelchair": "no"}}, {"type": "node", "id": 1658001713, "lat": 48.8912368, "lon": 2.3497072, "tags": {"STIF:zone": "1", "bench": "yes", "bin": "yes", "bus": "yes", "highway": "bus_stop", "lit": "yes", "name": "Marcadet - Poissonniers", "public_transport": "platform", "ref:FR:STIF": "27024", "ref:FR:STIF:stop_id": "StopPoint:59:4211798", "route_ref": "31;56;N14;N44", "shelter": "yes", "source:wheelchair": "STIF 2019-01", "tactile_paving": "no", "wheelchair": "no"}}, {"type": "node", "id": 1658007202, "lat": 48.8913695, "lon": 2.350257, "tags": {"STIF:zone": "1", "bench": "yes", "bin": "no", "bus": "yes", "highway": "bus_stop", "lit": "yes", "name": "Marcadet - Poissonniers", "public_transport": "platform", "ref:FR:STIF": "36667", "ref:FR:STIF:stop_id": "StopPoint:59:5770811", "route_ref": "60", "shelter": "yes", "source:wheelchair": "STIF 2019-01", "tactile_paving": "no", "wheelchair": "no"}}, {"type": "node", "id": 1896107551, "lat": 48.894094, "lon": 2.3319275, "tags": {"STIF:zone": "1", "bench": "yes", "bin": "no", "bus": "yes", "bus_stop:type": "Abri autobus 3,35x1,40", "check_date:shelter": "2023-07-14", "highway": "bus_stop", "lit": "yes", "name": "Vauvenargues", "public_transport": "platform", "ref:FR:STIF": "26564", "ref:FR:STIF:stop_id": "StopPoint:59:5018158", "route_ref": "31", "shelter": "yes", "source": "survey 06/2017", "source:position": "opendata.paris.fr - 04/2011", "tactile_paving": "no"}}, {"type": "node", "id": 1896120163, "lat": 48.8940074, "lon": 2.3332141, "tags": {"STIF:zone": "1", "bench": "yes", "bin": "no", "bus": "yes", "bus_stop:type": "Abri autobus 3,35x1,40", "highway": "bus_stop", "lit": "yes", "name": "Vauvenargues", "public_transport": "platform", "ref:FR:STIF": "26565", "ref:FR:STIF:stop_id": "StopPoint:59:5018159", "route_ref": "Line 31", "shelter": "yes", "source": "survey 06/2017", "source:position": "opendata.paris.fr - 04/2011", "tactile_paving": "no"}}, {"type": "node", "id": 1896375681, "lat": 48.8934301, "lon": 2.3373685, "tags": {"STIF:zone": "1", "bench": "yes", "bin": "no", "bus": "yes", "highway": "bus_stop", "name": "Damr\u00e9mont - Ordener", "public_transport": "platform", "ref:FR:STIF": "27480", "ref:FR:STIF:stop_id": "StopPoint:59:5018157", "route_ref": "Line 60, 95;60", "shelter": "yes", "source:wheelchair": "STIF 2019-01", "tactile_paving": "no", "wheelchair": "no"}}, {"type": "node", "id": 1904540726, "lat": 48.8880881, "lon": 2.33981, "tags": {"STIF:zone": "1", "bus": "yes", "highway": "bus_stop", "name": "Les Vignes", "public_transport": "platform", "ref:FR:STIF": "9895", "ref:FR:STIF:stop_id": "StopPoint:59:3749672", "route_ref": "40", "shelter": "no", "source:wheelchair": "STIF 2018-07", "tactile_paving": "yes", "wheelchair": "no", "wikidata": "Q56858927"}}, {"type": "node", "id": 2042462336, "lat": 48.8842675, "lon": 2.3496004, "tags": {"STIF:zone": "1", "bench": "yes", "bus": "yes", "highway": "bus_stop", "name": "Barb\u00e8s - Rochechouart", "public_transport": "platform", "ref:FR:STIF": "28253", "ref:FR:STIF:stop_id": "StopPoint:59:5018146", "route_ref": "56", "shelter": "yes", "source:wheelchair": "STIF 2019-01", "tactile_paving": "no", "wheelchair": "no"}}, {"type": "node", "id": 2042462337, "lat": 48.8843157, "lon": 2.3493326, "tags": {"STIF:zone": "1", "bench": "yes", "bin": "yes", "bus": "yes", "highway": "bus_stop", "lit": "yes", "name": "Barb\u00e8s - Rochechouart", "public_transport": "platform", "ref:FR:STIF": "22808", "ref:FR:STIF:stop_id": "StopPoint:59:4211801", "route_ref": "N44;85;N14;56", "shelter": "yes", "source:wheelchair": "STIF 2019-01", "tactile_paving": "no", "wheelchair": "no"}}, {"type": "node", "id": 2042462341, "lat": 48.8848775, "lon": 2.3376178, "tags": {"STIF:zone": "1", "bench": "yes", "bin": "yes", "bus": "yes", "bus_stop:type": "Abri autobus T\u00e9l\u00e9com petit mod\u00e8le", "highway": "bus_stop", "lit": "yes", "name": "Abbesses", "public_transport": "platform", "ref:FR:RATP": "11335907", "ref:FR:STIF": "24790", "ref:FR:STIF:stop_id": "StopPoint:59:3749662", "route_ref": "40", "shelter": "yes", "source:name": "opendata RATP - navitia.io", "source:position": "opendata.paris.fr - 04/2011", "source:wheelchair": "STIF 2018-07", "tactile_paving": "no", "type:RATP": "bus", "wheelchair": "no"}}, {"type": "node", "id": 2042462344, "lat": 48.8851933, "lon": 2.3305556, "tags": {"STIF:zone": "1", "bench": "yes", "bus": "yes", "highway": "bus_stop", "name": "Clichy - Caulaincourt", "public_transport": "platform", "ref:FR:STIF": "22756", "ref:FR:STIF:stop_id": "StopPoint:59:3749923", "route_ref": "80", "shelter": "yes", "source:wheelchair": "STIF 2019-01", "tactile_paving": "no", "wheelchair": "no"}}, {"type": "node", "id": 2042462356, "lat": 48.8861454, "lon": 2.3565194, "tags": {"STIF:zone": "1", "bench": "yes", "bus": "yes", "bus_stop:type": "Abri autobus 4x1,60", "highway": "bus_stop", "name": "Saint-Bruno", "name:RATP": "SAINT-BRUNO", "public_transport": "platform", "ref:FR:RATP": "11344254", "ref:FR:STIF": "24694", "ref:FR:STIF:stop_id": "StopPoint:59:3741058", "route_ref": "302", "shelter": "yes", "source:wheelchair": "STIF 2019-01", "tactile_paving": "no", "type:RATP": "bus", "wheelchair": "yes"}}, {"type": "node", "id": 2042462359, "lat": 48.8864793, "lon": 2.341464, "tags": {"STIF:zone": "1", "bench": "yes", "bin": "yes", "bus": "yes", "bus_stop:type": "Abri autobus 4x1,60", "description": "vu sur place a cette emplacement en juillet 2023 et pas la meme position que sur bd ortho ign", "highway": "bus_stop", "lit": "yes", "name": "Place du Tertre - Norvins", "public_transport": "platform", "ref:FR:RATP": "11335893", "ref:FR:STIF": "24775", "ref:FR:STIF:stop_id": "StopPoint:59:3749651", "route_ref": "40", "shelter": "yes", "source:name": "opendata RATP - navitia.io", "source:position": "opendata.paris.fr - 04/2011", "tactile_paving": "no", "type:RATP": "bus"}}, {"type": "node", "id": 2042462361, "lat": 48.8869231, "lon": 2.3393476, "tags": {"STIF:zone": "1", "bench": "yes", "bin": "yes", "bus": "yes", "bus_stop:type": "Abri autobus 3,35x1,40", "highway": "bus_stop", "lit": "yes", "name": "Place du Tertre - Norvins", "public_transport": "platform", "ref:FR:RATP": "11335913", "ref:FR:STIF": "22799", "ref:FR:STIF:stop_id": "StopPoint:59:3749652", "route_ref": "40", "shelter": "yes", "tactile_paving": "no", "type:RATP": "bus"}}, {"type": "node", "id": 2042462372, "lat": 48.8878917, "lon": 2.3496722, "tags": {"STIF:zone": "1", "bench": "yes", "bin": "no", "bus": "yes", "highway": "bus_stop", "name": "Ch\u00e2teau Rouge", "public_transport": "platform", "ref:FR:STIF": "34166", "ref:FR:STIF:stop_id": "StopPoint:59:4211800", "route_ref": "N44;N14;56", "shelter": "yes", "source:wheelchair": "STIF 2019-01", "tactile_paving": "no", "wheelchair": "no"}}, {"type": "node", "id": 2042462377, "lat": 48.8905179, "lon": 2.3549233, "tags": {"STIF:zone": "1", "bench": "yes", "bus": "yes", "highway": "bus_stop", "name": "Pont Marcadet", "public_transport": "platform", "ref:FR:STIF": "27484", "ref:FR:STIF:stop_id": "StopPoint:59:3741062", "route_ref": "302;60", "shelter": "yes", "source:wheelchair": "STIF 2019-01", "tactile_paving": "no", "wheelchair": "no"}}, {"type": "node", "id": 2042462378, "lat": 48.8906424, "lon": 2.3549067, "tags": {"STIF:zone": "1", "bench": "yes", "bin": "no", "bus": "yes", "highway": "bus_stop", "lit": "yes", "name": "Pont Marcadet", "public_transport": "platform", "ref:FR:STIF": "36679", "ref:FR:STIF:stop_id": "StopPoint:59:5770808", "route_ref": "60", "shelter": "yes", "source:wheelchair": "STIF 2019-01", "tactile_paving": "no", "wheelchair": "no"}}, {"type": "node", "id": 2042462382, "lat": 48.8927034, "lon": 2.3445226, "tags": {"STIF:zone": "1", "bench": "yes", "bin": "no", "bus": "yes", "highway": "bus_stop", "lit": "yes", "name": "Mairie du 18e - Jules Joffrin", "public_transport": "platform", "ref:FR:STIF": "420413", "ref:FR:STIF:stop_id": "StopPoint:59:5709998", "route_ref": "85", "shelter": "yes", "source:wheelchair": "STIF 2019-01", "tactile_paving": "no", "wheelchair": "yes"}}, {"type": "node", "id": 2042462383, "lat": 48.8929178, "lon": 2.3410633, "tags": {"STIF:zone": "1", "bench": "yes", "bin": "no", "bus": "yes", "highway": "bus_stop", "lit": "yes", "name": "Duhesme - Le Ruisseau", "public_transport": "platform", "ref:FR:STIF": "27486", "ref:FR:STIF:stop_id": "StopPoint:59:5018155", "route_ref": "60", "shelter": "yes", "source:wheelchair": "STIF 2019-01", "tactile_paving": "no", "wheelchair": "no"}}, {"type": "node", "id": 2042462384, "lat": 48.8932282, "lon": 2.3397473, "tags": {"STIF:zone": "1", "bench": "yes", "bin": "no", "bus": "yes", "highway": "bus_stop", "name": "Duhesme - Le Ruisseau", "public_transport": "platform", "ref:FR:STIF": "27483", "ref:FR:STIF:stop_id": "StopPoint:59:5018154", "route_ref": "31;60", "shelter": "yes", "source:wheelchair": "STIF 2019-01", "tactile_paving": "no", "wheelchair": "no"}}, {"type": "node", "id": 2043864963, "lat": 48.879927, "lon": 2.3552862, "tags": {"STIF:zone": "1", "bench": "yes", "bin": "yes", "bus": "yes", "highway": "bus_stop", "lit": "yes", "name": "Gare du Nord - Dunkerque", "public_transport": "platform", "ref:FR:STIF": "39806", "ref:FR:STIF:stop_id": "StopPoint:59:7899176", "route_ref": "26;39;43;48;54;45", "shelter": "yes", "source:wheelchair": "STIF 2019-01", "tactile_paving": "no", "wheelchair": "no", "wikidata": "Q56716370"}}, {"type": "node", "id": 2078331472, "lat": 48.8950538, "lon": 2.3463649, "tags": {"STIF:zone": "1", "bench": "no", "bin": "yes", "bus": "yes", "check_date:bin": "2023-05-11", "highway": "bus_stop", "lit": "no", "name": "Albert Kahn", "public_transport": "platform", "ref:FR:STIF": "36490", "ref:FR:STIF:stop_id": "StopPoint:59:5710001", "route_ref": "85", "shelter": "no", "source:wheelchair": "STIF 2019-01", "tactile_paving": "no", "wheelchair": "yes"}}, {"type": "node", "id": 2078331473, "lat": 48.888449, "lon": 2.3466872, "tags": {"STIF:zone": "1", "bench": "no", "bin": "no", "bus": "yes", "highway": "bus_stop", "lit": "yes", "name": "Custine - Ramey", "public_transport": "platform", "ref:FR:STIF": "27346", "ref:FR:STIF:stop_id": "StopPoint:59:5710021", "shelter": "no", "source": "survey 02/2018", "source:ref:FR:STIF": "opendata STIF - 03/2017", "tactile_paving": "no"}}, {"type": "node", "id": 2078331474, "lat": 48.8793765, "lon": 2.3432244, "tags": {"STIF:zone": "1", "bench": "no", "bin": "no", "bus": "yes", "highway": "bus_stop", "lit": "yes", "name": "La Tour d'Auvergne", "public_transport": "platform", "ref:FR:STIF": "37382", "ref:FR:STIF:stop_id": "StopPoint:59:5710083", "route_ref": "85", "shelter": "no", "source:wheelchair": "STIF 2019-01", "tactile_paving": "yes", "wheelchair": "yes"}}, {"type": "node", "id": 2078331475, "lat": 48.8926964, "lon": 2.3450772, "tags": {"STIF:zone": "1", "bench": "no", "bin": "yes", "bus": "yes", "highway": "bus_stop", "lit": "yes", "name": "Mairie du 18e - Jules Joffrin", "public_transport": "platform", "ref:FR:STIF": "420414", "ref:FR:STIF:stop_id": "StopPoint:59:5709999", "route_ref": "85", "shelter": "yes", "source:wheelchair": "STIF 2019-01", "tactile_paving": "no", "wheelchair": "yes"}}, {"type": "node", "id": 2078331476, "lat": 48.8867411, "lon": 2.3475484, "tags": {"STIF:zone": "1", "bench": "no", "bin": "no", "bus": "yes", "highway": "bus_stop", "lit": "no", "name": "Muller", "public_transport": "platform", "ref:FR:STIF": "23002", "ref:FR:STIF:stop_id": "StopPoint:59:5709995", "route_ref": "85", "shelter": "no", "source:wheelchair": "STIF 2019-01", "tactile_paving": "no", "wheelchair": "yes"}}, {"type": "node", "id": 2078331479, "lat": 48.8830125, "lon": 2.3464904, "tags": {"STIF:zone": "1", "bench": "no", "bin": "no", "bus": "yes", "highway": "bus_stop", "lit": "yes", "name": "Rochechouart - Clignancourt", "public_transport": "platform", "ref:FR:STIF": "37385", "ref:FR:STIF:stop_id": "StopPoint:59:5710023", "route_ref": "85", "shelter": "no", "source:wheelchair": "STIF 2019-01", "tactile_paving": "no", "wheelchair": "yes"}}, {"type": "node", "id": 2078331480, "lat": 48.8813226, "lon": 2.3442929, "tags": {"STIF:zone": "1", "bench": "no", "bin": "yes", "bus": "yes", "highway": "bus_stop", "lit": "yes", "name": "Trudaine", "public_transport": "platform", "ref:FR:STIF": "37384", "ref:FR:STIF:stop_id": "StopPoint:59:5710082", "route_ref": "85", "shelter": "no", "source:wheelchair": "STIF 2019-01", "tactile_paving": "no", "wheelchair": "yes"}}, {"type": "node", "id": 2078420354, "lat": 48.8810811, "lon": 2.3465233, "tags": {"STIF:zone": "1", "bench": "no", "bin": "yes", "bus": "yes", "highway": "bus_stop", "lit": "yes", "name": "Condorcet - Trudaine", "public_transport": "platform", "ref:FR:STIF": "23000", "ref:FR:STIF:stop_id": "StopPoint:59:5709992", "route_ref": "85", "shelter": "no", "source:wheelchair": "STIF 2019-01", "tactile_paving": "no", "wheelchair": "yes"}}, {"type": "node", "id": 2078420359, "lat": 48.878855, "lon": 2.3454642, "tags": {"STIF:zone": "1", "bench": "no", "bin": "no", "bus": "yes", "highway": "bus_stop", "lit": "yes", "name": "Maubeuge - Rochechouart", "public_transport": "platform", "ref:FR:STIF": "24796", "ref:FR:STIF:stop_id": "StopPoint:59:5709991", "route_ref": "85", "shelter": "no", "source": "survey", "tactile_paving": "no", "wheelchair": "yes"}}, {"type": "node", "id": 2078420364, "lat": 48.8874135, "lon": 2.3478481, "tags": {"STIF:zone": "1", "bench": "no", "bin": "no", "bus": "yes", "highway": "bus_stop", "lit": "no", "name": "Muller", "public_transport": "platform", "ref:FR:STIF": "23001", "ref:FR:STIF:stop_id": "StopPoint:59:5709994", "route_ref": "85", "shelter": "no", "source:wheelchair": "STIF 2019-01", "tactile_paving": "no", "wheelchair": "yes"}}, {"type": "node", "id": 2078420378, "lat": 48.8838003, "lon": 2.3470916, "tags": {"STIF:zone": "1", "bench": "no", "bin": "no", "bus": "yes", "highway": "bus_stop", "lit": "no", "name": "Rochechouart - Clignancourt", "public_transport": "platform", "ref:FR:STIF": "37383", "ref:FR:STIF:stop_id": "StopPoint:59:5709993", "route_ref": "85", "shelter": "no", "source:wheelchair": "STIF 2019-01", "tactile_paving": "no", "wheelchair": "yes"}}, {"type": "node", "id": 2078906749, "lat": 48.8953932, "lon": 2.3460017, "tags": {"STIF:zone": "1", "bus": "yes", "highway": "bus_stop", "name": "Albert Kahn", "public_transport": "platform", "ref:FR:STIF": "23005", "ref:FR:STIF:stop_id": "StopPoint:59:5710000", "route_ref": "85", "shelter": "no", "source:wheelchair": "STIF 2019-01", "wheelchair": "yes"}}, {"type": "node", "id": 2078906754, "lat": 48.8892307, "lon": 2.3482522, "tags": {"STIF:zone": "1", "bench": "no", "bin": "no", "bus": "yes", "highway": "bus_stop", "lit": "yes", "name": "Labat", "public_transport": "platform", "ref:FR:STIF": "23003", "ref:FR:STIF:stop_id": "StopPoint:59:5709996", "route_ref": "85", "shelter": "no", "source:wheelchair": "STIF 2019-01", "tactile_paving": "no", "wheelchair": "yes"}}, {"type": "node", "id": 2078906757, "lat": 48.8922647, "lon": 2.345409, "tags": {"STIF:zone": "1", "bench": "yes", "bin": "yes", "bus": "yes", "highway": "bus_stop", "lit": "yes", "name": "Mairie du 18e - Jules Joffrin", "public_transport": "platform", "ref:FR:STIF": "27469", "ref:FR:STIF:stop_id": "StopPoint:59:5018153", "route_ref": "60", "shelter": "yes", "source:wheelchair": "STIF 2019-01", "tactile_paving": "no", "wheelchair": "no"}}, {"type": "node", "id": 2078906761, "lat": 48.8926591, "lon": 2.3439454, "tags": {"STIF:zone": "1", "bench": "yes", "bin": "yes", "bus": "yes", "highway": "bus_stop", "lit": "yes", "name": "Mairie du 18e - Jules Joffrin", "public_transport": "platform", "ref:FR:STIF": "27468", "ref:FR:STIF:stop_id": "StopPoint:59:5018152", "route_ref": "31;60", "shelter": "no", "source:wheelchair": "STIF 2019-01", "tactile_paving": "no", "wheelchair": "no"}}, {"type": "node", "id": 2271679232, "lat": 48.8834236, "lon": 2.3497662, "tags": {"STIF:zone": "1", "bench": "yes", "bus": "yes", "highway": "bus_stop", "name": "Barb\u00e8s - Rochechouart", "name:fr": "Barb\u00e8s - Rochechouart", "public_transport": "platform", "ref:FR:STIF": "36542", "ref:FR:STIF:stop_id": "StopPoint:59:3740300", "route_ref": "30;N02", "shelter": "yes", "source": "survey 07/2017", "survey:date": "2017-07-04", "tactile_paving": "no"}}, {"type": "node", "id": 2337276302, "lat": 48.8862829, "lon": 2.3566228, "tags": {"STIF:zone": "1", "bench": "no", "bus": "yes", "highway": "bus_stop", "name": "Saint-Bruno", "name:RATP": "SAINT-BRUNO", "public_transport": "platform", "ref:FR:STIF": "24697", "ref:FR:STIF:stop_id": "StopPoint:59:3741057", "route_ref": "302", "shelter": "no", "source:wheelchair": "STIF 2019-01", "tactile_paving": "no", "type:RATP": "bus", "wheelchair": "yes"}}, {"type": "node", "id": 2406781871, "lat": 48.893616, "lon": 2.3368475, "tags": {"STIF:zone": "1", "bench": "yes", "bin": "no", "direction": "E", "highway": "bus_stop", "name": "Damr\u00e9mont - Ordener", "public_transport": "platform", "ref:FR:STIF": "27487", "ref:FR:STIF:stop_id": "StopPoint:59:5018156", "route_ref": "31", "shelter": "yes", "source:position": "Bing 2013", "tactile_paving": "no"}}, {"type": "node", "id": 2459537090, "lat": 48.8888757, "lon": 2.3560908, "tags": {"STIF:zone": "1", "bench": "no", "bin": "no", "bus": "yes", "highway": "bus_stop", "lit": "no", "name": "Doudeauville", "public_transport": "platform", "ref:FR:STIF": "17568", "ref:FR:STIF:stop_id": "StopPoint:59:3741059", "route_ref": "302", "shelter": "no", "source:wheelchair": "STIF 2019-01", "tactile_paving": "no", "wheelchair": "yes"}}, {"type": "node", "id": 2494555640, "lat": 48.8914951, "lon": 2.3502715, "tags": {"STIF:zone": "1", "bench": "yes", "bin": "no", "bus": "yes", "highway": "bus_stop", "lit": "yes", "name": "Marcadet - Poissonniers", "public_transport": "platform", "ref:FR:STIF": "36666", "ref:FR:STIF:stop_id": "StopPoint:59:5770810", "route_ref": "60", "shelter": "yes", "source:wheelchair": "STIF 2019-01", "tactile_paving": "no", "wheelchair": "no"}}, {"type": "node", "id": 2571435789, "lat": 48.8818632, "lon": 2.331658, "tags": {"STIF:zone": "1", "bench": "no", "bin": "no", "bus": "yes", "check_date:shelter": "2022-12-17", "highway": "bus_stop", "lit": "yes", "name": "Blanche - Calais", "public_transport": "platform", "ref:FR:STIF": "42073", "ref:FR:STIF:stop_id": "StopPoint:59:6904252", "shelter": "no", "source": "survey 01/2018", "source:ref:FR:STIF": "opendata STIF - 03/2017", "tactile_paving": "no"}}, {"type": "node", "id": 2571437068, "lat": 48.8797237, "lon": 2.3313543, "tags": {"STIF:zone": "1", "bench": "yes", "bin": "no", "bus": "yes", "covered": "yes", "highway": "bus_stop", "lit": "yes", "name": "Moncey", "public_transport": "platform", "ref:FR:STIF": "28024", "ref:FR:STIF:stop_id": "StopPoint:59:5138028", "shelter": "yes", "source": "survey", "source:position": "BDOrtho IGN", "source:ref:FR:STIF": "opendata STIF - 03/2017", "tactile_paving": "no"}}, {"type": "node", "id": 2572004615, "lat": 48.8830236, "lon": 2.3321212, "tags": {"STIF:zone": "1", "bench": "no", "bin": "no", "bus": "yes", "highway": "bus_stop", "lit": "yes", "name": "Blanche", "public_transport": "platform", "ref:FR:STIF": "8418", "ref:FR:STIF:stop_id": "StopPoint:59:4016284", "shelter": "yes", "source": "survey 01/2018", "source:ref:FR:STIF": "STIF - 12/2016", "tactile_paving": "no"}}, {"type": "node", "id": 2889523045, "lat": 48.8877968, "lon": 2.3495029, "tags": {"STIF:zone": "1", "bench": "no", "bin": "no", "bus": "yes", "highway": "bus_stop", "name": "Ch\u00e2teau Rouge", "public_transport": "platform", "ref:FR:STIF": "22809", "ref:FR:STIF:stop_id": "StopPoint:59:4211799", "route_ref": "N44;N14;31;56", "shelter": "yes", "source:wheelchair": "STIF 2019-01", "wheelchair": "no"}}, {"type": "node", "id": 2889523054, "lat": 48.8788493, "lon": 2.3536485, "tags": {"STIF:zone": "1", "bench": "yes", "bin": "no", "bus": "yes", "highway": "bus_stop", "lit": "yes", "name": "La Fayette - Magenta - Gare du Nord", "public_transport": "platform", "ref:FR:STIF": "26658", "ref:FR:STIF:stop_id": "StopPoint:59:6423458", "route_ref": "30;31;56;N01;N14;N44", "shelter": "yes", "source:wheelchair": "STIF 2019-01", "tactile_paving": "no", "wheelchair": "no"}}, {"type": "node", "id": 2889523056, "lat": 48.8808819, "lon": 2.3518157, "tags": {"STIF:zone": "1", "bench": "yes", "bin": "yes", "bus": "yes", "highway": "bus_stop", "lit": "yes", "name": "Magenta - Maubeuge - Gare du Nord", "public_transport": "platform", "ref:FR:STIF": "28247", "ref:FR:STIF:stop_id": "StopPoint:59:3740299", "route_ref": "N44;30;31;54", "shelter": "yes", "source": "survey 06/2017", "tactile_paving": "no"}}, {"type": "node", "id": 3042998488, "lat": 48.8883829, "lon": 2.3560631, "tags": {"STIF:zone": "1", "bench": "no", "bin": "no", "bus": "yes", "highway": "bus_stop", "lit": "yes", "name": "Doudeauville", "public_transport": "platform", "ref:FR:STIF": "24696", "ref:FR:STIF:stop_id": "StopPoint:59:3741060", "route_ref": "302", "shelter": "no", "source:wheelchair": "STIF 2019-01", "tactile_paving": "no", "wheelchair": "yes"}}, {"type": "node", "id": 3211540612, "lat": 48.8843175, "lon": 2.3388571, "tags": {"STIF:zone": "1", "bench": "no", "bin": "no", "bus": "yes", "highway": "bus_stop", "lit": "yes", "name": "Abbesses", "public_transport": "platform", "ref:FR:STIF": "24781", "ref:FR:STIF:stop_id": "StopPoint:59:3749661", "route_ref": "40", "shelter": "no", "tactile_paving": "no"}}, {"type": "node", "id": 3830556678, "lat": 48.8912969, "lon": 2.3308528, "tags": {"STIF:zone": "1", "bench": "no", "bin": "no", "bus": "yes", "highway": "bus_stop", "lit": "yes", "name": "H\u00f4pital Bretonneau", "public_transport": "platform", "ref:FR:STIF": "26201", "ref:FR:STIF:stop_id": "StopPoint:59:7137424", "route_ref": "La Traverse", "shelter": "no", "source:wheelchair": "STIF 2019-01", "tactile_paving": "no", "wheelchair": "yes"}}, {"type": "node", "id": 3830556679, "lat": 48.8924149, "lon": 2.3304075, "tags": {"STIF:zone": "1", "bench": "yes", "bin": "no", "bus": "yes", "highway": "bus_stop", "lit": "yes", "name": "Coysevox", "public_transport": "platform", "ref:FR:STIF": "26200", "ref:FR:STIF:stop_id": "StopPoint:59:7137423", "route_ref": "La Traverse", "shelter": "yes", "source:wheelchair": "STIF 2019-01", "tactile_paving": "no", "wheelchair": "yes"}}, {"type": "node", "id": 3830556683, "lat": 48.8942172, "lon": 2.3297799, "tags": {"STIF:zone": "1", "bus": "yes", "highway": "bus_stop", "name": "Jacques Cartier", "public_transport": "platform", "ref:FR:STIF": "34211", "ref:FR:STIF:stop_id": "StopPoint:59:7137421", "route_ref": "La Traverse", "source:wheelchair": "STIF 2019-01", "wheelchair": "yes"}}, {"type": "node", "id": 3830556686, "lat": 48.8956332, "lon": 2.3308876, "tags": {"STIF:zone": "1", "bench": "no", "bin": "no", "bus": "yes", "highway": "bus_stop", "lit": "yes", "name": "Firmin Gemier", "public_transport": "platform", "ref:FR:STIF": "36632", "ref:FR:STIF:stop_id": "StopPoint:59:7137420", "route_ref": "La Traverse", "shelter": "no", "source:wheelchair": "STIF 2019-01", "tactile_paving": "no", "wheelchair": "yes"}}, {"type": "node", "id": 4318162594, "lat": 48.8945146, "lon": 2.3529473, "tags": {"STIF:zone": "1", "bench": "yes", "bin": "no", "bus": "yes", "highway": "bus_stop", "lit": "yes", "name": "Championnet", "public_transport": "platform", "ref:FR:STIF": "35193", "ref:FR:STIF:stop_id": "StopPoint:59:3741065", "route_ref": "302", "shelter": "yes", "source:wheelchair": "STIF 2019-01", "tactile_paving": "no", "wheelchair": "yes"}}, {"type": "node", "id": 4321206361, "lat": 48.8873364, "lon": 2.3444776, "tags": {"STIF:zone": "1", "bench": "no", "bin": "yes", "bus": "yes", "highway": "bus_stop", "lit": "yes", "name": "Chevalier de la Barre", "public_transport": "platform", "ref:FR:STIF": "24785", "ref:FR:STIF:stop_id": "StopPoint:59:3749648", "route_ref": "40", "shelter": "no", "tactile_paving": "no", "wikidata": "Q56715286"}}, {"type": "node", "id": 4323306124, "lat": 48.8807154, "lon": 2.3349167, "tags": {"STIF:zone": "1", "bench": "no", "bin": "no", "bus": "yes", "check_date:shelter": "2021-11-06", "highway": "bus_stop", "lit": "yes", "name": "Pigalle - Chaptal", "public_transport": "platform", "ref:FR:STIF": "25765", "ref:FR:STIF:stop_id": "StopPoint:59:4016282", "shelter": "no", "source": "survey 01/2018", "tactile_paving": "no"}}, {"type": "node", "id": 4437489871, "lat": 48.8913545, "lon": 2.351587, "tags": {"STIF:zone": "1", "bench": "no", "bin": "no", "bus": "yes", "covered": "no", "highway": "bus_stop", "lit": "no", "name": "Marcadet - Poissonniers", "public_transport": "platform", "ref:FR:STIF": "29801", "ref:FR:STIF:stop_id": "StopPoint:59:3741064", "route_ref": "302", "shelter": "no", "tactile_paving": "no", "type:RATP": "bus", "wheelchair": "yes"}}, {"type": "node", "id": 4437489872, "lat": 48.8916159, "lon": 2.3518653, "tags": {"STIF:zone": "1", "bench": "no", "bin": "yes", "bus": "yes", "covered": "no", "highway": "bus_stop", "lit": "no", "name": "Marcadet - Poissonniers", "public_transport": "platform", "ref:FR:STIF": "22932", "ref:FR:STIF:stop_id": "StopPoint:59:3741063", "route_ref": "302", "shelter": "no", "tactile_paving": "no", "type:RATP": "bus", "wheelchair": "yes"}}, {"type": "node", "id": 4437572479, "lat": 48.8947057, "lon": 2.3528428, "tags": {"STIF:zone": "1", "bench": "yes", "bin": "yes", "bus": "yes", "highway": "bus_stop", "lit": "yes", "name": "Championnet", "public_transport": "platform", "ref:FR:STIF": "24698", "ref:FR:STIF:stop_id": "StopPoint:59:3741066", "route_ref": "302", "shelter": "yes", "source:wheelchair": "STIF 2019-01", "tactile_paving": "no", "wheelchair": "yes"}}, {"type": "node", "id": 4886220022, "lat": 48.8781895, "lon": 2.3544902, "tags": {"STIF:zone": "1", "bench": "yes", "bin": "yes", "bus": "yes", "highway": "bus_stop", "lit": "yes", "name": "La Fayette - Magenta - Gare du Nord", "public_transport": "platform", "ref:FR:STIF": "28251", "ref:FR:STIF:stop_id": "StopPoint:59:6423459", "route_ref": "56;N02;N14;N44", "shelter": "yes", "source:wheelchair": "STIF 2019-01", "tactile_paving": "no", "wheelchair": "no"}}, {"type": "node", "id": 4913326022, "lat": 48.8812369, "lon": 2.3517574, "tags": {"STIF:zone": "1", "bench": "yes", "bin": "no", "bus": "yes", "highway": "bus_stop", "lit": "yes", "name": "Magenta - Maubeuge \u2013 Gare du Nord", "public_transport": "platform", "ref:FR:STIF": "28252", "ref:FR:STIF:stop_id": "StopPoint:59:3740298", "route_ref": "56;N14;N44", "shelter": "yes", "tactile_paving": "no"}}, {"type": "node", "id": 4913326023, "lat": 48.8812348, "lon": 2.3517236, "tags": {"STIF:zone": "1", "bench": "yes", "bin": "no", "bus": "yes", "highway": "bus_stop", "lit": "yes", "name": "Magenta - Maubeuge - Gare du Nord", "public_transport": "platform", "ref:FR:STIF": "28252", "ref:FR:STIF:stop_id": "StopPoint:59:3740298", "route_ref": "N02;30;31;54", "shelter": "yes", "source:wheelchair": "STIF 2019-01", "tactile_paving": "no", "wheelchair": "yes"}}, {"type": "node", "id": 4913326221, "lat": 48.8833293, "lon": 2.3498596, "tags": {"STIF:zone": "1", "bench": "yes", "bus": "yes", "highway": "bus_stop", "name": "Barb\u00e8s - Rochechouart", "public_transport": "platform", "ref:FR:STIF": "36542", "ref:FR:STIF:stop_id": "StopPoint:59:3740300", "route_ref": "54;N14;N44", "shelter": "yes", "source:wheelchair": "STIF 2019-01", "tactile_paving": "no", "wheelchair": "yes"}}, {"type": "node", "id": 4942810074, "lat": 48.8834916, "lon": 2.348903, "tags": {"STIF:zone": "1", "bench": "no", "bin": "yes", "bus": "yes", "highway": "bus_stop", "lit": "yes", "name": "Barb\u00e8s - Rochechouart", "public_transport": "platform", "ref:FR:STIF": "28243", "ref:FR:STIF:stop_id": "StopPoint:59:3740339", "route_ref": "54;N01", "shelter": "no", "source:wheelchair": "STIF 2019-01", "tactile_paving": "no", "wheelchair": "yes"}}, {"type": "node", "id": 4949576926, "lat": 48.8825194, "lon": 2.3373426, "tags": {"STIF:zone": "1", "bench": "yes", "bin": "yes", "bus": "yes", "highway": "bus_stop", "lit": "no", "name": "Pigalle", "public_transport": "platform", "ref:FR:STIF": "24692", "ref:FR:STIF:stop_id": "StopPoint:59:3740304", "route_ref": "N02;30;54;40", "shelter": "yes", "source": "survey 07/2017", "tactile_paving": "no"}}, {"type": "node", "id": 5078322420, "lat": 48.8813359, "lon": 2.3400088, "tags": {"STIF:zone": "1", "bench": "no", "bin": "yes", "bus": "yes", "highway": "bus_stop", "lit": "yes", "name": "Rochechouart - Martyrs", "public_transport": "platform", "ref:FR:STIF": "28019", "ref:FR:STIF:stop_id": "StopPoint:59:7931952", "route_ref": "67;40", "shelter": "no", "source:wheelchair": "STIF 2019-01", "tactile_paving": "no", "wheelchair": "no"}}, {"type": "node", "id": 5078322422, "lat": 48.8792717, "lon": 2.3400088, "tags": {"STIF:zone": "1", "bench": "no", "bin": "no", "bus": "yes", "highway": "bus_stop", "name": "Navarin", "public_transport": "platform", "ref:FR:STIF": "28014", "ref:FR:STIF:stop_id": "StopPoint:59:3764497", "route_ref": "67;40", "shelter": "no", "source:wheelchair": "STIF 2019-01", "tactile_paving": "no", "wheelchair": "no"}}, {"type": "node", "id": 5084495757, "lat": 48.8801774, "lon": 2.3373681, "tags": {"STIF:zone": "1", "bench": "no", "bin": "no", "bus": "yes", "highway": "bus_stop", "lit": "yes", "name": "Navarin", "public_transport": "platform", "ref:FR:STIF": "28010", "ref:FR:STIF:stop_id": "StopPoint:59:3764496", "route_ref": "67;40", "shelter": "no", "source:wheelchair": "STIF 2019-01", "tactile_paving": "no", "wheelchair": "no"}}, {"type": "node", "id": 5137405224, "lat": 48.8794559, "lon": 2.3557946, "tags": {"bench": "no", "bin": "no", "bus": "yes", "highway": "bus_stop", "lit": "yes", "name": "Gare du Nord", "public_transport": "platform", "ref:FR:STIF": "no", "route_ref": "Les Cars rouges, arr\u00eat 11", "shelter": "no", "tactile_paving": "no"}}, {"type": "node", "id": 5137405225, "lat": 48.87928, "lon": 2.3557433, "tags": {"STIF:zone": "1", "alt_ref:FR:STIF": "411257", "alt_ref:FR:STIF:stop_id": "StopPoint:800:8759492R", "bench": "yes", "bin": "no", "bus": "yes", "highway": "bus_stop", "lit": "yes", "name": "La Fayette - Dunkerque", "public_transport": "platform", "ref:FR:STIF": "39804", "ref:FR:STIF:stop_id": "StopPoint:59:4035729", "route_ref": "N43;N140;N143", "shelter": "yes", "source:wheelchair": "STIF 2019-01", "tactile_paving": "no", "wheelchair": "yes"}}, {"type": "node", "id": 5338835735, "lat": 48.8832937, "lon": 2.3328801, "tags": {"STIF:zone": "1", "bench": "no", "bin": "no", "bus": "yes", "check_date:shelter": "2023-02-18", "highway": "bus_stop", "lit": "yes", "name": "Blanche", "public_transport": "platform", "ref:FR:STIF": "25750", "ref:FR:STIF:stop_id": "StopPoint:59:4016283", "shelter": "no", "source": "survey 01/2018", "tactile_paving": "no"}}, {"type": "node", "id": 5352260822, "lat": 48.8797916, "lon": 2.3324228, "tags": {"STIF:zone": "1", "bench": "no", "bin": "no", "bus": "yes", "highway": "bus_stop", "lit": "no", "name": "La Bruy\u00e8re", "public_transport": "platform", "ref:FR:STIF": "25764", "ref:FR:STIF:stop_id": "StopPoint:59:4016316", "shelter": "no", "source": "survey 01/2018", "tactile_paving": "no"}}, {"type": "node", "id": 5447400928, "lat": 48.8889852, "lon": 2.3460974, "tags": {"STIF:zone": "1", "bench": "yes", "bin": "no", "bus": "yes", "highway": "bus_stop", "lit": "yes", "name": "Custine - Ramey", "public_transport": "platform", "ref:FR:STIF": "25941", "ref:FR:STIF:stop_id": "StopPoint:59:3749935", "route_ref": "Montmartrobus;80", "shelter": "yes", "source:wheelchair": "STIF 2019-01", "tactile_paving": "no", "wheelchair": "no"}}, {"type": "node", "id": 5447400930, "lat": 48.889737, "lon": 2.3433622, "tags": {"STIF:zone": "1", "bench": "yes", "bin": "no", "bus": "yes", "highway": "bus_stop", "lit": "yes", "name": "Custine - Mont-Cenis", "public_transport": "platform", "ref:FR:STIF": "25940", "ref:FR:STIF:stop_id": "StopPoint:59:3749642", "route_ref": "40;80", "shelter": "yes", "source:wheelchair": "STIF 2019-01", "tactile_paving": "no", "wheelchair": "no"}}, {"type": "node", "id": 5447400934, "lat": 48.8870091, "lon": 2.3328714, "tags": {"STIF:zone": "1", "bench": "yes", "bus": "yes", "highway": "bus_stop", "name": "Damr\u00e9mont - Caulaincourt", "public_transport": "platform", "ref:FR:STIF": "22757", "ref:FR:STIF:stop_id": "StopPoint:59:3749925", "route_ref": "80", "shelter": "yes", "source:wheelchair": "STIF 2019-01", "tactile_paving": "no", "wheelchair": "no"}}, {"type": "node", "id": 5448914296, "lat": 48.8928888, "lon": 2.3451787, "tags": {"STIF:zone": "1", "bench": "no", "bin": "no", "bus": "yes", "highway": "bus_stop", "lit": "no", "name": "Mairie du 18e - Jules Joffrin", "public_transport": "platform", "ref:FR:STIF": "426972", "ref:FR:STIF:stop_id": "StopPoint:59:3749933", "route_ref": "80", "shelter": "no", "source:wheelchair": "STIF 2019-01", "tactile_paving": "no", "wheelchair": "no"}}, {"type": "node", "id": 5448914298, "lat": 48.8925613, "lon": 2.3449722, "tags": {"STIF:zone": "1", "bench": "yes", "bin": "no", "bus": "yes", "highway": "bus_stop", "lit": "yes", "name": "Mairie du 18e - Jules Joffrin", "public_transport": "platform", "ref:FR:STIF": "22776", "ref:FR:STIF:stop_id": "StopPoint:59:3749638", "route_ref": "40", "shelter": "yes", "source": "survey 03/2018", "source:position": "BDOrtho IGN 2018", "tactile_paving": "no"}}, {"type": "node", "id": 5448974943, "lat": 48.8931097, "lon": 2.3447402, "tags": {"STIF:zone": "1", "bench": "no", "bin": "no", "bus": "yes", "highway": "bus_stop", "lit": "no", "name": "Mairie du 18e - Jules Joffrin", "public_transport": "platform", "ref:FR:STIF": "22774", "ref:FR:STIF:stop_id": "StopPoint:59:3749639", "route_ref": "80;MONTMAR;Montmartrobus", "shelter": "no", "source:wheelchair": "STIF 2019-01", "tactile_paving": "no", "wheelchair": "no"}}, {"type": "node", "id": 5448974945, "lat": 48.8901135, "lon": 2.3432448, "tags": {"STIF:zone": "1", "bench": "no", "bin": "no", "bus": "yes", "highway": "bus_stop", "lit": "no", "name": "Custine - Mont-Cenis", "public_transport": "platform", "ref:FR:STIF": "22773", "ref:FR:STIF:stop_id": "StopPoint:59:3749643", "route_ref": "40;80", "shelter": "no", "source:wheelchair": "STIF 2019-01", "tactile_paving": "no", "wheelchair": "no"}}, {"type": "node", "id": 5448974946, "lat": 48.8895918, "lon": 2.3393875, "tags": {"STIF:zone": "1", "bus": "yes", "highway": "bus_stop", "name": "Lamarck - Caulaincourt", "public_transport": "platform", "ref:FR:STIF": "25939", "ref:FR:STIF:stop_id": "StopPoint:59:3749645", "route_ref": "80;40", "shelter": "no", "source:wheelchair": "STIF 2019-01", "wheelchair": "no"}}, {"type": "node", "id": 5577802435, "lat": 48.877976, "lon": 2.3491203, "tags": {"STIF:zone": "1", "bench": "yes", "bin": "yes", "bus": "yes", "highway": "bus_stop", "lit": "yes", "name": "La Fayette - Poissonni\u00e8re", "public_transport": "platform", "ref:FR:STIF": "24814", "ref:FR:STIF:stop_id": "StopPoint:59:7920892", "route_ref": "48;39", "shelter": "yes", "source:wheelchair": "STIF 2019-01", "tactile_paving": "no", "wheelchair": "no", "wikidata": "Q56868668"}}, {"type": "node", "id": 5590981855, "lat": 48.8877128, "lon": 2.3336513, "tags": {"STIF:zone": "1", "bench": "yes", "bin": "no", "bus": "yes", "highway": "bus_stop", "name": "Damr\u00e9mont - Caulaincourt", "public_transport": "platform", "ref:FR:STIF": "26343", "ref:FR:STIF:stop_id": "StopPoint:59:3749924", "route_ref": "80", "shelter": "yes", "source:wheelchair": "STIF 2019-01", "tactile_paving": "no", "wheelchair": "no"}}, {"type": "node", "id": 5678447407, "lat": 48.8874183, "lon": 2.3372632, "tags": {"STIF:zone": "1", "bench": "no", "bin": "yes", "bus": "yes", "highway": "bus_stop", "lit": "yes", "name": "Moulin de la Galette", "public_transport": "platform", "ref:FR:STIF": "22800", "ref:FR:STIF:stop_id": "StopPoint:59:5144685", "route_ref": "40", "shelter": "no", "tactile_paving": "no"}}, {"type": "node", "id": 5979568509, "lat": 48.8782538, "lon": 2.3532766, "tags": {"STIF:zone": "1", "bench": "no", "bin": "no", "bus": "yes", "highway": "bus_stop", "lit": "yes", "name": "Place Franz Liszt", "public_transport": "platform", "ref:FR:STIF": "27215", "ref:FR:STIF:stop_id": "StopPoint:59:3749737", "route_ref": "26;32;42;43;48;45", "shelter": "no", "source:wheelchair": "STIF 2019-01", "tactile_paving": "no", "wheelchair": "no"}}, {"type": "node", "id": 6109665885, "lat": 48.8873084, "lon": 2.3341302, "tags": {"STIF:zone": "1", "bench": "yes", "bin": "no", "bus": "yes", "highway": "bus_stop", "lit": "yes", "mapillary": "215558433400514", "name": "Tourlaque", "pole": "yes", "public_transport": "platform", "ref:FR:STIF": "24776", "ref:FR:STIF:stop_id": "StopPoint:59:3749669", "route_ref": "40", "shelter": "no", "source:wheelchair": "STIF 2018-07", "survey:date": "2017-08-14", "tactile_paving": "no", "wheelchair": "no", "wikidata": "Q56868663"}}, {"type": "node", "id": 6247477526, "lat": 48.8871697, "lon": 2.3375168, "tags": {"STIF:zone": "1", "bench": "no", "bin": "no", "bus": "yes", "highway": "bus_stop", "lit": "yes", "name": "Moulin de la Galette", "public_transport": "platform", "ref:FR:STIF": "24788", "ref:FR:STIF:stop_id": "StopPoint:59:3749671", "route_ref": "40", "shelter": "no", "source:wheelchair": "STIF 2018-07", "tactile_paving": "no", "wheelchair": "no"}}, {"type": "node", "id": 6247477527, "lat": 48.8873137, "lon": 2.3362993, "tags": {"STIF:zone": "1", "bench": "no", "bin": "no", "bus": "yes", "highway": "bus_stop", "lit": "yes", "name": "No. 88 Rue Lepic", "public_transport": "platform", "ref:FR:STIF": "24771", "ref:FR:STIF:stop_id": "StopPoint:59:3749670", "route_ref": "40", "shelter": "no", "source:wheelchair": "STIF 2018-07", "tactile_paving": "no", "wheelchair": "no"}}, {"type": "node", "id": 6247477529, "lat": 48.8859255, "lon": 2.3347428, "tags": {"STIF:zone": "1", "bench": "no", "bin": "yes", "bus": "yes", "highway": "bus_stop", "name": "Tholoze", "public_transport": "platform", "ref:FR:STIF": "24780", "ref:FR:STIF:stop_id": "StopPoint:59:3749668", "route_ref": "40", "shelter": "no", "source:wheelchair": "STIF 2018-07", "tactile_paving": "no", "wheelchair": "no", "wikidata": "Q56868662"}}, {"type": "node", "id": 6247477530, "lat": 48.8862244, "lon": 2.3364568, "tags": {"STIF:zone": "1", "bench": "no", "bin": "no", "bus": "yes", "highway": "bus_stop", "lit": "no", "name": "Durantin - Burq", "public_transport": "platform", "ref:FR:STIF": "24779", "ref:FR:STIF:stop_id": "StopPoint:59:3749667", "route_ref": "40", "shelter": "no", "source:wheelchair": "STIF 2018-07", "tactile_paving": "no", "wheelchair": "no", "wikidata": "Q56868661"}}, {"type": "node", "id": 6247477532, "lat": 48.8834752, "lon": 2.3397796, "tags": {"STIF:zone": "1", "bench": "no", "bin": "no", "bus": "yes", "highway": "bus_stop", "lit": "yes", "name": "Orsel", "public_transport": "platform", "ref:FR:STIF": "24774", "ref:FR:STIF:stop_id": "StopPoint:59:3749666", "route_ref": "40", "shelter": "no", "source:wheelchair": "STIF 2018-07", "tactile_paving": "no", "wheelchair": "no", "wikidata": "Q56858925"}}, {"type": "node", "id": 6247477533, "lat": 48.8823455, "lon": 2.3396858, "tags": {"STIF:zone": "1", "bench": "no", "bin": "no", "bus": "yes", "highway": "bus_stop", "lit": "yes", "name": "Martyrs", "public_transport": "platform", "ref:FR:STIF": "24784", "ref:FR:STIF:stop_id": "StopPoint:59:3749665", "route_ref": "40", "shelter": "no", "source:wheelchair": "STIF 2018-07", "tactile_paving": "no", "wheelchair": "no", "wikidata": "Q56715391"}}, {"type": "node", "id": 6247477535, "lat": 48.8840492, "lon": 2.3411932, "tags": {"STIF:zone": "1", "bench": "no", "bin": "no", "bus": "yes", "highway": "bus_stop", "lit": "yes", "name": "Yvonne Le Tac", "public_transport": "platform", "ref:FR:STIF": "24786", "ref:FR:STIF:stop_id": "StopPoint:59:3749660", "route_ref": "40", "shelter": "no", "tactile_paving": "no", "wikidata": "Q56868660"}}, {"type": "node", "id": 6247477536, "lat": 48.8850099, "lon": 2.3416278, "tags": {"STIF:zone": "1", "bench": "no", "bus": "yes", "highway": "bus_stop", "name": "Chappe", "public_transport": "platform", "ref:FR:STIF": "24772", "ref:FR:STIF:stop_id": "StopPoint:59:3749659", "route_ref": "40", "shelter": "no", "tactile_paving": "no", "wikidata": "Q56858922"}}, {"type": "node", "id": 6247477537, "lat": 48.8855849, "lon": 2.3405789, "tags": {"STIF:zone": "1", "bench": "no", "bin": "no", "bus": "yes", "highway": "bus_stop", "lit": "no", "name": "Drevet", "public_transport": "platform", "ref:FR:STIF": "24789", "ref:FR:STIF:stop_id": "StopPoint:59:3749658", "route_ref": "40", "shelter": "no", "tactile_paving": "no", "wikidata": "Q56858565"}}, {"type": "node", "id": 6247477538, "lat": 48.8863999, "lon": 2.3387316, "tags": {"STIF:zone": "1", "bench": "no", "bus": "yes", "highway": "bus_stop", "name": "Gabrielle", "public_transport": "platform", "ref:FR:STIF": "24783", "ref:FR:STIF:stop_id": "StopPoint:59:3749657", "route_ref": "40", "shelter": "no", "tactile_paving": "no", "wheelchair": "no", "wikidata": "Q56868659"}}, {"type": "node", "id": 6247477541, "lat": 48.8877857, "lon": 2.3399305, "tags": {"STIF:zone": "1", "bench": "no", "bin": "yes", "bus": "yes", "highway": "bus_stop", "lit": "yes", "name": "Saules - Cortot", "public_transport": "platform", "ref:FR:STIF": "24778", "ref:FR:STIF:stop_id": "StopPoint:59:3749654", "route_ref": "40", "shelter": "no", "tactile_paving": "no", "wikidata": "Q56858562"}}, {"type": "node", "id": 6247477542, "lat": 48.8873165, "lon": 2.3415357, "tags": {"STIF:zone": "1", "bench": "no", "bin": "yes", "bus": "yes", "highway": "bus_stop", "lit": "no", "name": "Mont-Cenis - Cortot", "public_transport": "platform", "ref:FR:STIF": "24770", "ref:FR:STIF:stop_id": "StopPoint:59:3749653", "route_ref": "40", "shelter": "no", "tactile_paving": "no", "wikidata": "Q56858339"}}, {"type": "node", "id": 6247477544, "lat": 48.8857954, "lon": 2.3425196, "tags": {"STIF:zone": "1", "bench": "no", "bin": "no", "bus": "yes", "highway": "bus_stop", "lit": "yes", "name": "Funiculaire", "public_transport": "platform", "ref:FR:STIF": "24787", "ref:FR:STIF:stop_id": "StopPoint:59:3749650", "route_ref": "40", "shelter": "no", "tactile_paving": "no", "wikidata": "Q56858336"}}, {"type": "node", "id": 6247477545, "lat": 48.8860473, "lon": 2.3438045, "tags": {"STIF:zone": "1", "bench": "no", "bin": "no", "bus": "yes", "highway": "bus_stop", "lit": "yes", "name": "Utrillo", "public_transport": "platform", "ref:FR:STIF": "9873", "ref:FR:STIF:stop_id": "StopPoint:59:3749649", "route_ref": "40", "shelter": "no", "tactile_paving": "no", "wikidata": "Q56858921"}}, {"type": "node", "id": 6247477547, "lat": 48.8884052, "lon": 2.3440399, "tags": {"STIF:zone": "1", "bench": "no", "bus": "yes", "highway": "bus_stop", "name": "Lamarck - Becquerel", "public_transport": "platform", "ref:FR:STIF": "24773", "ref:FR:STIF:stop_id": "StopPoint:59:3749647", "route_ref": "40", "shelter": "no", "tactile_paving": "no", "wikidata": "Q56858560"}}, {"type": "node", "id": 6247477548, "lat": 48.8890874, "lon": 2.3427734, "tags": {"STIF:zone": "1", "bench": "no", "bin": "yes", "bus": "yes", "highway": "bus_stop", "lit": "no", "name": "Lamarck - Mont Cenis", "public_transport": "platform", "ref:FR:STIF": "24777", "ref:FR:STIF:stop_id": "StopPoint:59:3749646", "route_ref": "40", "shelter": "no", "tactile_paving": "no", "wikidata": "Q56858556"}}, {"type": "node", "id": 6247544602, "lat": 48.8894258, "lon": 2.3409771, "tags": {"STIF:zone": "1", "bench": "no", "bin": "yes", "bus": "yes", "highway": "bus_stop", "lit": "no", "name": "Lamarck - Caulaincourt", "public_transport": "platform", "ref:FR:STIF": "24769", "ref:FR:STIF:stop_id": "StopPoint:59:3749644", "route_ref": "40", "shelter": "no", "tactile_paving": "no", "wheelchair": "yes"}}, {"type": "node", "id": 6281299064, "lat": 48.8790728, "lon": 2.3563916, "tags": {"STIF:zone": "1", "bench": "yes", "bin": "no", "bus": "yes", "highway": "bus_stop", "lit": "yes", "name": "La Fayette - Saint-Quentin - Gare du Nord", "public_transport": "platform", "ref:FR:STIF": "29412", "ref:FR:STIF:stop_id": "StopPoint:59:5657278", "route_ref": "26", "shelter": "yes", "source:wheelchair": "STIF 2019-01", "tactile_paving": "no", "wheelchair": "yes", "wikidata": "Q56870554"}}, {"type": "node", "id": 6283145690, "lat": 48.8809759, "lon": 2.3517242, "tags": {"STIF:zone": "1", "bench": "yes", "bin": "yes", "bus": "yes", "highway": "bus_stop", "lit": "yes", "name": "Magenta - Maubeuge - Gare du Nord", "public_transport": "platform", "ref:FR:STIF": "28247", "ref:FR:STIF:stop_id": "StopPoint:59:4045032", "route_ref": "N01;N14;56", "shelter": "yes", "source:wheelchair": "STIF 2019-01", "tactile_paving": "no", "wheelchair": "no"}}, {"type": "node", "id": 6284311459, "lat": 48.8948563, "lon": 2.3471409, "tags": {"STIF:zone": "1", "bus": "yes", "highway": "bus_stop", "name": "Simplon", "public_transport": "platform", "ref:FR:STIF": "27021", "ref:FR:STIF:stop_id": "StopPoint:59:4211796", "route_ref": "56;N44;N14", "source:wheelchair": "STIF 2019-01", "wheelchair": "no"}}, {"type": "node", "id": 6284311476, "lat": 48.894225, "lon": 2.347291, "tags": {"STIF:zone": "1", "bus": "yes", "highway": "bus_stop", "name": "Simplon", "public_transport": "platform", "ref:FR:STIF": "27022", "ref:FR:STIF:stop_id": "StopPoint:59:4211795", "route_ref": "56;N44;N14", "source:wheelchair": "STIF 2019-01", "wheelchair": "no"}}, {"type": "node", "id": 6293154965, "lat": 48.8827656, "lon": 2.3442342, "tags": {"bench": "yes", "bin": "no", "bus": "yes", "fixme": "v\u00e9rifier la position", "highway": "bus_stop", "lit": "yes", "name": "Sacr\u00e9-C\u0153ur", "public_transport": "platform", "ref:FR:BigBus": "52", "route_ref": "bleu", "shelter": "yes", "tactile_paving": "no", "website": "https://www.bigbustours.com"}}, {"type": "node", "id": 6306353251, "lat": 48.8778512, "lon": 2.3564856, "tags": {"STIF:zone": "1", "bench": "yes", "bin": "no", "bus": "yes", "highway": "bus_stop", "lit": "yes", "name": "Valenciennes", "public_transport": "platform", "ref:FR:STIF": "39925", "ref:FR:STIF:stop_id": "StopPoint:59:4035732", "route_ref": "46;91", "shelter": "yes", "source:wheelchair": "STIF 2019-01", "tactile_paving": "no", "wheelchair": "no"}}, {"type": "node", "id": 6344421450, "lat": 48.879241, "lon": 2.337684, "tags": {"STIF:zone": "1", "bench": "no", "bin": "no", "bus": "yes", "highway": "bus_stop", "lit": "no", "name": "Gustave Toudouze", "public_transport": "platform", "ref:FR:STIF": "463962", "ref:FR:STIF:stop_id": "StopPoint:59:7931951", "route_ref": "40", "shelter": "no", "source:wheelchair": "STIF 2019-01", "tactile_paving": "no", "wheelchair": "no"}}, {"type": "node", "id": 6351281616, "lat": 48.8821768, "lon": 2.337424, "tags": {"STIF:zone": "1", "bench": "yes", "bin": "yes", "bus": "yes", "highway": "bus_stop", "lit": "yes", "name": "Pigalle", "public_transport": "platform", "ref:FR:STIF": "39794", "ref:FR:STIF:stop_id": "StopPoint:59:3764494", "route_ref": "30;67", "shelter": "yes", "source:wheelchair": "STIF 2019-01", "tactile_paving": "no", "wheelchair": "yes"}}, {"type": "node", "id": 6539363618, "lat": 48.8797422, "lon": 2.3551914, "tags": {"bench": "yes", "bin": "yes", "bus": "yes", "highway": "bus_stop", "lit": "yes", "name": "Gare du Nord", "public_transport": "platform", "ref:FR:Open_Tour": "33", "ref:FR:STIF": "no", "shelter": "yes", "tactile_paving": "no"}}, {"type": "node", "id": 6539363620, "lat": 48.8799113, "lon": 2.355401, "tags": {"bench": "yes", "bin": "yes", "bus": "yes", "highway": "bus_stop", "lit": "yes", "name": "Gare du Nord", "public_transport": "platform", "ref:FR:Open_Tour": "33", "ref:FR:STIF": "no", "shelter": "yes", "tactile_paving": "no"}}, {"type": "node", "id": 6539363621, "lat": 48.8827758, "lon": 2.3442687, "tags": {"bench": "yes", "bin": "no", "bus": "yes", "highway": "bus_stop", "lit": "yes", "name": "Montmartre - Sacr\u00e9-C\u0153ur", "public_transport": "platform", "ref:FR:Open_Tour": "32", "shelter": "yes", "tactile_paving": "no"}}, {"type": "node", "id": 6539363622, "lat": 48.8835241, "lon": 2.3330358, "tags": {"bench": "yes", "bin": "no", "bus": "yes", "highway": "bus_stop", "lit": "yes", "name": "Moulin Rouge - Pigalle", "public_transport": "platform", "ref:FR:Open_Tour": "31", "shelter": "yes", "tactile_paving": "no"}}, {"type": "node", "id": 8613562996, "lat": 48.8791275, "lon": 2.3557104, "tags": {"bench": "no", "bin": "yes", "bus": "yes", "highway": "bus_stop", "lit": "yes", "name": "Gare du Nord", "public_transport": "platform", "ref:FR:STIF": "470953", "route_ref": "91", "shelter": "no", "tactile_paving": "no"}}, {"type": "node", "id": 9550005354, "lat": 48.8790234, "lon": 2.3543596, "tags": {"STIF:zone": "1", "bench": "no", "bin": "no", "bus": "yes", "highway": "bus_stop", "lit": "yes", "name": "Gare du Nord", "note": "r\u00e9serv\u00e9 \u00e0 la descente", "public_transport": "platform", "ref:FR:STIF": "480832", "route_ref": "91", "shelter": "no", "tactile_paving": "no", "wheelchair": "yes"}}]}