{"version": 0.6, "generator": "Overpass API 0.7.61.5 4133829e", "osm3s": {"timestamp_osm_base": "2023-12-10T00:25:03Z", "copyright": "The data included in this document is from www.openstreetmap.org. The data is made available under ODbL."}, "elements": [{"type": "node", "id": 249335596, "lat": 48.8905061, "lon": 2.3599967, "tags": {"STIF:zone": "1", "name": "Marx Dormoy", "old_name": "Torcy", "public_transport": "stop_position", "railway": "station", "ref:FR:FANTOIR": "75118S324G", "ref:FR:RATP": "1831", "ref:FR:STIF": "22053", "source": "STIF - 12/2016", "station": "subway", "subway": "yes", "type:RATP": "metro", "wheelchair": "no", "wikidata": "Q1622759", "wikipedia": "fr:Marx Dormoy (m\u00e9tro de Paris)"}}, {"type": "node", "id": 264505930, "lat": 48.8977035, "lon": 2.3594563, "tags": {"STIF:zone": "1", "layer": "-4", "name": "Porte de la Chapelle", "public_transport": "stop_position", "railway": "station", "ref:FR:RATP": "1734", "ref:FR:STIF": "22041", "source": "STIF - 12/2016", "station": "subway", "subway": "yes", "type:RATP": "metro", "wheelchair": "limited", "wikidata": "Q382659", "wikipedia": "fr:Porte de la Chapelle (m\u00e9tro de Paris)"}}, {"type": "node", "id": 264505993, "lat": 48.8938481, "lon": 2.3478412, "tags": {"STIF:zone": "1", "name": "Simplon", "operator": "RATP", "public_transport": "stop_position", "railway": "station", "ref:FR:FANTOIR": "75118S534K", "ref:FR:RATP": "1621", "ref:FR:STIF": "22133", "source": "STIF - 12/2016", "station": "subway", "subway": "yes", "type:RATP": "metro", "wheelchair": "no", "wikidata": "Q163879", "wikipedia": "fr:Simplon (m\u00e9tro de Paris)"}}, {"type": "node", "id": 1481147746, "lat": 48.8914837, "lon": 2.3497296, "tags": {"STIF:zone": "1", "name": "Marcadet - Poissonniers", "operator": "RATP", "public_transport": "stop_position", "railway": "station", "ref:FR:RATP": "1828", "ref:FR:STIF": "22052", "source": "STIF - 12/2016", "station": "subway", "subway": "yes", "type:RATP": "metro", "wheelchair": "no", "wikidata": "Q1892927", "wikipedia": "fr:Marcadet - Poissonniers (m\u00e9tro de Paris)"}}, {"type": "node", "id": 2799009811, "lat": 48.8985815, "lon": 2.3690525, "tags": {"name": "Porte d'Aubervilliers", "operator": "RATP", "public_transport": "stop_position", "railway": "tram_stop", "ref:FR:STIF": "24407", "source": "STIF - 02/2020", "tram": "yes", "type:RATP": "tram", "wheelchair": "yes"}}, {"type": "node", "id": 2799009812, "lat": 48.8986117, "lon": 2.3690483, "tags": {"name": "Porte d'Aubervilliers", "operator": "RATP", "public_transport": "stop_position", "railway": "tram_stop", "ref:FR:STIF": "24407", "source": "STIF - 02/2020", "tram": "yes", "type:RATP": "tram", "wheelchair": "yes"}}, {"type": "node", "id": 2799009822, "lat": 48.8984725, "lon": 2.3636402, "tags": {"name": "Colette Besson", "operator": "RATP", "public_transport": "stop_position", "railway": "tram_stop", "tram": "yes", "type:RATP": "tram", "wheelchair": "yes"}}, {"type": "node", "id": 2799009824, "lat": 48.8985034, "lon": 2.3636368, "tags": {"name": "Colette Besson", "operator": "RATP", "public_transport": "stop_position", "railway": "tram_stop", "tram": "yes", "type:RATP": "tram", "wheelchair": "yes"}}, {"type": "node", "id": 2799009868, "lat": 48.8983713, "lon": 2.3584392, "tags": {"name": "Porte de la Chapelle", "operator": "RATP", "public_transport": "stop_position", "railway": "tram_stop", "tram": "yes", "type:RATP": "tram", "wheelchair": "yes"}}, {"type": "node", "id": 5106253752, "lat": 48.8983196, "lon": 2.3520202, "tags": {"name": "Diane Arbus", "operator": "RATP", "public_transport": "stop_position", "railway": "tram_stop", "tram": "yes", "type:RATP": "tram", "wheelchair": "yes"}}, {"type": "node", "id": 5726284556, "lat": 48.9064513, "lon": 2.3659403, "tags": {"STIF:zone": "2", "name": "Front Populaire", "public_transport": "station", "railway": "station", "ref:FR:STIF": "24679", "source": "STIF - 12/2016", "start_date": "2012-12-18", "station": "subway", "subway": "yes", "type:RATP": "metro", "wheelchair": "yes", "wikidata": "Q1185683", "wikipedia": "fr:Front Populaire (m\u00e9tro de Paris)"}}, {"type": "node", "id": 6069212623, "lat": 48.8983415, "lon": 2.3514018, "tags": {"name": "Diane Arbus", "operator": "RATP", "public_transport": "stop_position", "railway": "tram_stop", "tram": "yes", "type:RATP": "tram", "wheelchair": "yes"}}, {"type": "node", "id": 6594654113, "lat": 48.8984009, "lon": 2.3584366, "tags": {"name": "Porte de la Chapelle", "operator": "RATP", "public_transport": "stop_position", "railway": "tram_stop", "tram": "yes", "type:RATP": "tram", "wheelchair": "yes"}}]}