{"version": 0.6, "generator": "Overpass API 0.7.61.5 4133829e", "osm3s": {"timestamp_osm_base": "2023-12-09T23:17:48Z", "copyright": "The data included in this document is from www.openstreetmap.org. The data is made available under ODbL."}, "elements": [{"type": "node", "id": 36600643, "lat": 48.8370025, "lon": 2.3365485, "tags": {"access": "private", "barrier": "gate"}}, {"type": "node", "id": 202822347, "lat": 48.875847, "lon": 2.3239479}, {"type": "node", "id": 202822348, "lat": 48.8762015, "lon": 2.3267852}, {"type": "node", "id": 247439149, "lat": 48.8687856, "lon": 2.3275106, "tags": {"amenity": "bar", "check_date": "2023-09-02", "name": "Bar Hemingway", "wheelchair": "yes"}}, {"type": "node", "id": 247455913, "lat": 48.8663165, "lon": 2.3370822, "tags": {"amenity": "bar", "name": "Juv\u00e9nile's", "opening_hours": "Tu-Sa 12:00-23:00"}}, {"type": "node", "id": 247455916, "lat": 48.8672925, "lon": 2.3255509, "tags": {"amenity": "restaurant", "name": "La Crypte Polska", "source": "survey"}}, {"type": "node", "id": 247455920, "lat": 48.8659, "lon": 2.337242, "tags": {"amenity": "restaurant", "contact:city": "Paris", "contact:housenumber": "37bis", "contact:phone": "+33 1 40 20 03 02", "contact:postcode": "75001", "contact:street": "Rue de Montpensier", "name": "Mystery Cuisine"}}, {"type": "node", "id": 247467737, "lat": 48.8663449, "lon": 2.3382902, "tags": {"amenity": "bar", "name": "Willi's Wine Bar", "wheelchair": "limited"}}, {"type": "node", "id": 247467738, "lat": 48.8663903, "lon": 2.3380844, "tags": {"amenity": "restaurant", "diet:vegan": "yes", "diet:vegetarian": "yes", "name": "Mac\u00e9o", "wheelchair": "limited"}}, {"type": "node", "id": 247589882, "lat": 48.86534, "lon": 2.3308795, "tags": {"alt_name": "Yves Saint Laurent", "brand": "Saint Laurent", "brand:wikidata": "Q2282172", "name": "Saint Laurent", "shop": "clothes", "short_name": "YSL"}}, {"type": "node", "id": 247920880, "lat": 48.83473, "lon": 2.3356839}, {"type": "node", "id": 250549576, "lat": 48.8229266, "lon": 2.3322685}, {"type": "node", "id": 250553303, "lat": 48.8232285, "lon": 2.3309447}, {"type": "node", "id": 250553304, "lat": 48.8220269, "lon": 2.3318206}, {"type": "node", "id": 250553339, "lat": 48.8223397, "lon": 2.3306227}, {"type": "node", "id": 250657148, "lat": 48.8648091, "lon": 2.3411291, "tags": {"amenity": "restaurant", "delivery:covid19": "yes", "name": "L\u00e9moni Caf\u00e9", "opening_hours": "Mo-Fr 11:30-15:00", "takeaway:covid19": "yes"}}, {"type": "node", "id": 250861677, "lat": 48.8687993, "lon": 2.3373273, "tags": {"amenity": "restaurant", "check_date": "2023-03-19", "cuisine": "indian", "diet:vegetarian": "yes", "name": "Rani Mahal"}}, {"type": "node", "id": 250861680, "lat": 48.8689038, "lon": 2.3422059, "tags": {"amenity": "restaurant", "contact:city": "Paris", "contact:housenumber": "40", "contact:postcode": "75002", "contact:street": "Rue Notre-Dame-des-Victoires", "cuisine": "french", "name": "Caf\u00e9 Moderne", "toilets:wheelchair": "yes", "wheelchair": "no"}}, {"type": "node", "id": 251023849, "lat": 48.8692089, "lon": 2.3321714, "tags": {"amenity": "bar", "contact:city": "Paris", "contact:housenumber": "5", "contact:postcode": "75002", "contact:street": "Rue Daunou", "name": "Harry's Bar", "outdoor_seating": "no", "source": "www.harrysbar.fr", "toilets:wheelchair": "no", "wheelchair": "no", "wheelchair:description": "marche \u00e0 l'entr\u00e9e, beaucoup de monde donc impossible de faire passer un fauteuil roulant et toilettes \u00e0 l'\u00e9tage.", "wikidata": "Q1334247", "wikipedia": "fr:Harry's New York Bar"}}, {"type": "node", "id": 251758249, "lat": 48.8680799, "lon": 2.3215688, "tags": {"addr:city": "Paris", "addr:housenumber": "8-12", "addr:postcode": "75008", "addr:street": "Rue Boissy d'Anglas", "amenity": "restaurant", "bar": "yes", "cuisine": "fusion_asiatique", "facebook": "https://www.facebook.com/BuddhaBarParis", "instagram": "https://www.instagram.com/buddhabarparis/", "min_age": "18", "name": "Buddha-Bar Paris", "phone": "+33 1 53 05 90 00", "website": "https://www.buddhabar.com/", "wikidata": "Q851372"}}, {"type": "node", "id": 251758260, "lat": 48.8702443, "lon": 2.3283595, "tags": {"alt_name": "Olympia Bruno Coquatrix", "amenity": "theatre", "contact:city": "Paris", "contact:housenumber": "28", "contact:phone": "+33 1 55 27 10 00", "contact:postcode": "75009", "contact:street": "Boulevard des Capucines", "contact:website": "https://www.olympiahall.com/", "heritage": "3", "heritage:operator": "mhs", "mhs:inscription_date": "1991-05-23", "name": "Th\u00e9\u00e2tre de l'Olympia", "name:he": "\u05d0\u05d5\u05dc\u05d9\u05de\u05e4\u05d9\u05d4", "name:uk": "\u041e\u043b\u0456\u043c\u043f\u0456\u044f", "operator": "Vivendi", "ref:mhs": "PA00089012", "source:heritage": "data.gouv.fr, Minist\u00e8re de la Culture - 2016", "start_date": "C19", "wheelchair": "yes", "wikidata": "Q915451", "wikipedia": "fr:Olympia (Paris)"}}, {"type": "node", "id": 251851354, "lat": 48.8714582, "lon": 2.3357136, "tags": {"addr:street": "Boulevard des Italiens", "amenity": "restaurant", "check_date": "2023-06-19", "contact:city": "Paris 9eme Arrondissement", "contact:housenumber": "30", "contact:phone": "+33 1 48 78 03 61", "contact:postcode": "75009", "contact:street": "Boulevard Des Italiens", "cuisine": "vietnamese", "email": "restaurant@hanoi-caphe.com", "name": "Hanoi C\u00e0 Ph\u00ea Op\u00e9ra", "opening_hours": "Mo-Su 12:00-02:00", "phone": "+33 1 48 78 03 61", "website": "https://www.hanoi-caphe.com/", "wheelchair": "yes"}}, {"type": "node", "id": 251851356, "lat": 48.8719858, "lon": 2.3427378, "tags": {"addr:city": "Paris", "addr:country": "FR", "addr:housenumber": "7", "addr:postcode": "75009", "addr:street": "Rue du Faubourg Montmartre", "amenity": "restaurant", "check_date:opening_hours": "2021-05-29", "cuisine": "french", "email": "restaurant@bouillon-chartier.com", "name": "Bouillon Chartier", "old_name": "Le Bouillon Chartier", "opening_hours": "Mo-Su 11:30-24:00", "phone": "+33 1 47 70 86 29", "toilets:wheelchair": "yes", "website": "https://www.bouillon-chartier.com/", "wheelchair": "yes", "wikidata": "Q1071456"}}, {"type": "node", "id": 251851364, "lat": 48.8718728, "lon": 2.3418493, "tags": {"amenity": "restaurant", "cuisine": "french", "name": "Le Caf\u00e9 Z\u00e9phyr", "outdoor_seating": "yes", "smoking": "outside", "wheelchair": "yes"}}, {"type": "node", "id": 253963375, "lat": 48.8670343, "lon": 2.3399053, "tags": {"name": "Galerie Vivienne", "name:ru": "\u0413\u0430\u043b\u0435\u0440\u0435\u044f \u0412\u0438\u0432\u044c\u0435\u043d", "opening_hours": "Mo-Sa 08:30-20:30", "shop": "mall"}}, {"type": "node", "id": 253966979, "lat": 48.8713563, "lon": 2.3389691, "tags": {"name": "Passages des Princes", "shop": "mall"}}, {"type": "node", "id": 253969193, "lat": 48.8700157, "lon": 2.3323221, "tags": {"name": "Brentano's", "shop": "books"}}, {"type": "node", "id": 280075914, "lat": 48.8751368, "lon": 2.3392269}, {"type": "node", "id": 280181365, "lat": 48.8681494, "lon": 2.3331115, "tags": {"contact:city": "Paris", "contact:housenumber": "37", "contact:phone": "+33 1 42 60 87 37", "contact:postcode": "75002", "contact:street": "Avenue de l'Op\u00e9ra", "contact:website": "http://www.librairie-brentanos-paris.com/", "name": "Brentano's", "shop": "books"}}, {"type": "node", "id": 282490354, "lat": 48.8761363, "lon": 2.3377084, "tags": {"amenity": "bar", "contact:city": "Paris 9eme Arrondissement", "contact:housenumber": "26", "contact:phone": "+33 1 48 78 46 45", "contact:postcode": "75009", "contact:street": "Rue De Ch\u00e2teaudun", "name": "Le Syphax", "source": "survey"}}, {"type": "node", "id": 287612106, "lat": 48.8773406, "lon": 2.3373832, "tags": {"amenity": "restaurant", "name": "Vadrouille"}}, {"type": "node", "id": 295494073, "lat": 48.8213864, "lon": 2.3145933, "tags": {"alt_name": "\u00c9cole normale sup\u00e9rieure;Ulm;ENS Ulm;Normale sup';Normale sup' Ulm;ENS Campus Montrouge;ENS Campus de Montrouge;Campus Montrouge;Campus de Montrouge", "amenity": "college", "name": "\u00c9cole normale sup\u00e9rieure \u2013 Campus de Montrouge", "short_name": "ENS", "website": "https://www.ens.fr/des-campus-au-coeur-de-paris/les-lieux-de-vie/montrouge"}}, {"type": "node", "id": 299728241, "lat": 48.8721672, "lon": 2.326644, "tags": {"amenity": "restaurant", "cuisine": "french", "name": "Le Roi du Pot-au-Feu", "phone": "+33147423710", "ref:FR:SIRET": "484 893 593 00023", "toilets:wheelchair": "no", "wheelchair": "limited"}}, {"type": "node", "id": 428141439, "lat": 48.8739244, "lon": 2.3454201, "tags": {"amenity": "restaurant", "contact:city": "Paris", "contact:housenumber": "22", "contact:phone": "+33 1 48 00 07 73", "contact:postcode": "75009", "contact:street": "Rue de Tr\u00e9vise", "cuisine": "chinese", "description": "Sp\u00e9cialit\u00e9s du Hunan", "indoor_seating": "yes", "name": "L'Orient d'Or", "name:fr": "L'Orient d'Or", "name:zh": "\u798f\u6e90\u4e30", "opening_hours": "Tu-Su 12:00-14:30,19:00-22:30; Mo off", "outdoor_seating": "no"}}, {"type": "node", "id": 447022193, "lat": 48.8492752, "lon": 2.3448482}, {"type": "node", "id": 447022198, "lat": 48.8489532, "lon": 2.3460905}, {"type": "node", "id": 447022201, "lat": 48.8486597, "lon": 2.3462428}, {"type": "node", "id": 447022205, "lat": 48.8483199, "lon": 2.3460725}, {"type": "node", "id": 447022208, "lat": 48.8486798, "lon": 2.3445221}, {"type": "node", "id": 499980286, "lat": 48.8663999, "lon": 2.3328148, "tags": {"amenity": "restaurant", "contact:city": "Paris", "contact:housenumber": "41", "contact:phone": "+33 9 83 96 77 55", "contact:postcode": "75001", "contact:street": "Rue Saint-Roch", "cuisine": "sushi;japanese", "name": "Foujita", "opening_hours": "Tu-Su 12:00-14:15,19:00-22:00", "reservation": "no", "toilets:wheelchair": "no", "wheelchair": "limited"}}, {"type": "node", "id": 546475275, "lat": 48.8752261, "lon": 2.3252146, "tags": {"amenity": "fast_food", "check_date": "2023-07-25", "cuisine": "sandwich", "name": "Pomme de Pain", "operator": "Pomme de Pain"}}, {"type": "node", "id": 546475280, "lat": 48.8769023, "lon": 2.3218472, "tags": {"brand": "Franprix", "brand:wikidata": "Q2420096", "brand:wikipedia": "fr:Franprix", "name": "Franprix", "shop": "convenience", "wheelchair": "limited"}}, {"type": "node", "id": 546475287, "lat": 48.8744523, "lon": 2.3285538, "tags": {"brand": "Monoprix", "brand:wikidata": "Q3321241", "brand:wikipedia": "en:Monoprix", "layer": "-1", "level": "-1", "name": "Monoprix", "opening_hours": "Mo-Sa 08:00-22:00; Su 10:00-20:50", "operator": "Groupe Casino", "payment:cash": "yes", "payment:coins": "yes", "payment:credit_cards": "yes", "phone": "+33 1 44 53 79 79", "shop": "supermarket", "website": "https://www.monoprix.fr/monoprix-caumartin-paris-75009-s", "wheelchair": "yes"}}, {"type": "node", "id": 546475291, "lat": 48.875671, "lon": 2.326107, "tags": {"addr:city": "Paris", "addr:housenumber": "106 bis", "addr:postcode": "75008", "addr:street": "Rue Saint-Lazare", "amenity": "bar", "contact:city": "Paris 8eme Arrondissement", "contact:housenumber": "106", "contact:postcode": "75008", "contact:street": "Bis Rue Saint-Lazare", "name": "Drinks&Co"}}, {"type": "node", "id": 546475298, "lat": 48.8752761, "lon": 2.3255792, "tags": {"amenity": "fast_food", "brand": "McDonald's", "brand:wikidata": "Q38076", "brand:wikipedia": "fr:McDonald's", "check_date": "2023-07-25", "cuisine": "burger", "name": "McDonald's", "operator": "McDonald's", "takeaway": "yes", "wheelchair": "limited"}}, {"type": "node", "id": 546475300, "lat": 48.875212, "lon": 2.3251191, "tags": {"brand": "Brioche Dor\u00e9e", "brand:website": "https://www.briochedoree.fr", "brand:wikidata": "Q2925606", "brand:wikipedia": "fr:Brioche Dor\u00e9e", "check_date": "2023-07-25", "contact:phone": "+33 1 44 69 32 70", "name": "Brioche Dor\u00e9e", "opening_hours": "Mo-Sa 07:30-20:30", "operator": "Groupe Le Duff", "ref:FR:SIRET": "31890659102310", "shop": "bakery", "toilets:wheelchair": "yes", "website": "https://www.briochedoree.fr/restaurants/45-paris-123-rue-st-lazare", "wheelchair": "yes"}}, {"type": "node", "id": 546475313, "lat": 48.8757173, "lon": 2.326991, "tags": {"addr:city": "Paris", "addr:housenumber": "2", "addr:postcode": "75009", "addr:street": "Rue d'Amsterdam", "amenity": "fast_food", "brand": "Burger King", "brand:wikidata": "Q177054", "brand:wikipedia": "en:Burger King", "cuisine": "burger", "level": "0", "name": "Burger King", "opening_hours": "PH,Mo-Su 10:00-02:00", "takeaway": "yes"}}, {"type": "node", "id": 620845423, "lat": 48.8703234, "lon": 2.342446, "tags": {"amenity": "cafe", "brewery": "Pelforth", "name": "La Java", "name:fr": "La Java"}}, {"type": "node", "id": 620845441, "lat": 48.8709577, "lon": 2.3417482, "tags": {"addr:city": "Paris", "addr:postcode": "75002", "addr:street": "Passage des Panoramas", "name": "Passage des Panoramas", "opening_hours": "Mo-Su 06:00-00:00", "shop": "mall", "source": "cadastre-dgi-fr source : Direction G\u00e9n\u00e9rale des Imp\u00f4ts - Cadastre;mise \u00e0 jour : 2010", "toilets": "no", "wikidata": "Q3141829"}}, {"type": "node", "id": 620845622, "lat": 48.8716033, "lon": 2.3417839}, {"type": "node", "id": 620845623, "lat": 48.8716081, "lon": 2.3417869}, {"type": "node", "id": 620845624, "lat": 48.8716071, "lon": 2.3417899}, {"type": "node", "id": 620845625, "lat": 48.8716097, "lon": 2.341799}, {"type": "node", "id": 620845626, "lat": 48.8715965, "lon": 2.3417924}, {"type": "node", "id": 620845627, "lat": 48.8716016, "lon": 2.3417888}, {"type": "node", "id": 620845637, "lat": 48.8716068, "lon": 2.3418143}, {"type": "node", "id": 620845638, "lat": 48.8716005, "lon": 2.3418206}, {"type": "node", "id": 620845639, "lat": 48.8715995, "lon": 2.3418246}, {"type": "node", "id": 620845640, "lat": 48.8715948, "lon": 2.3418215}, {"type": "node", "id": 620845641, "lat": 48.8715958, "lon": 2.3418177}, {"type": "node", "id": 620845642, "lat": 48.8715931, "lon": 2.3418079}, {"type": "node", "id": 620894706, "lat": 48.870767, "lon": 2.3412257, "tags": {"addr:housenumber": "36", "addr:street": "Rue Vivienne", "amenity": "restaurant", "cuisine": "american", "name": "Lefty", "ref:FR:SIRET": "753 152 487", "source": "http://gouessej.wordpress.com/2014/04/11/lefty-restaurant-americain-a-paris-lefty-american-restaurant-in-paris/%2036%20rue%20Vivienne,%20Paris"}}, {"type": "node", "id": 620894713, "lat": 48.8709509, "lon": 2.3414589, "tags": {"addr:housenumber": "7", "addr:street": "Galerie des Vari\u00e9t\u00e9s", "amenity": "restaurant", "cuisine": "asian", "email": "tenzintsundu@rocketmail.com", "name": "Tenzin Cuisine Tib\u00e9taine", "name:fr": "Tenzin Cuisine Tib\u00e9taine", "phone": "+33171508369"}}, {"type": "node", "id": 620894718, "lat": 48.870606, "lon": 2.3417628, "tags": {"addr:city": "Paris", "addr:housenumber": "26", "addr:postcode": "75002", "addr:street": "Galerie Montmartre", "air_conditioning": "yes", "amenity": "cafe", "capacity": "30", "check_date": "2023-07-16", "cuisine": "coffee_shop;french", "internet_access": "wlan", "internet_access:fee": "no", "name": "Culott\u00e9e Caf\u00e9", "name:fr": "Culott\u00e9e Caf\u00e9", "opening_hours": "Mo-Sa 09:00-18:00", "outdoor_seating": "yes", "phone": "+33 1 40 28 40 53", "source": "cadastre-dgi-fr source : Direction G\u00e9n\u00e9rale des Imp\u00f4ts - Cadastre;mise \u00e0 jour : 2010", "takeaway": "yes", "website": "https://www.culotteecafe.fr"}}, {"type": "node", "id": 620894739, "lat": 48.8705891, "lon": 2.3420918, "tags": {"addr:housenumber": "16", "addr:street": "Galerie Montmartre", "amenity": "restaurant", "cuisine": "chinese", "name": "Aux Bon Petit Plats", "source": "cadastre-dgi-fr source : Direction G\u00e9n\u00e9rale des Imp\u00f4ts - Cadastre ; mise \u00e0 jour : 2010"}}, {"type": "node", "id": 620894789, "lat": 48.8708081, "lon": 2.3416384, "tags": {"addr:housenumber": "22", "addr:street": "Passage des Panoramas", "amenity": "bar", "check_date": "2023-07-16", "contact:city": "Paris 2eme Arrondissement", "contact:housenumber": "22", "contact:phone": "+33 6 44 60 90 07", "contact:postcode": "75002", "contact:street": "Passage Des Panoramas", "name": "Lombem", "name:de": "LOMBEM", "name:en": "LOMBEM", "source": "cadastre-dgi-fr source : Direction G\u00e9n\u00e9rale des Imp\u00f4ts - Cadastre ; mise \u00e0 jour : 2010"}}, {"type": "node", "id": 620894893, "lat": 48.8706568, "lon": 2.3426032, "tags": {"amenity": "theatre", "contact:city": "Paris", "contact:housenumber": "155", "contact:postcode": "75002", "contact:street": "Rue Montmartre", "name": "Caf\u00e9 Oscar", "source": "cadastre-dgi-fr source : Direction G\u00e9n\u00e9rale des Imp\u00f4ts - Cadastre ; mise \u00e0 jour : 2010"}}, {"type": "node", "id": 626614315, "lat": 48.8661465, "lon": 2.3353287, "tags": {"amenity": "restaurant", "contact:city": "Paris", "contact:housenumber": "11 bis", "contact:phone": "+33 1 42 97 54 27", "contact:postcode": "75001", "contact:street": "Rue Sainte-Anne", "cuisine": "japanese", "name": "Aki", "opening_hours": "Mo-sa 11:30-22:45", "speciality": "Japonais - Osaka"}}, {"type": "node", "id": 639179767, "lat": 48.8796077, "lon": 2.333602}, {"type": "node", "id": 639179770, "lat": 48.8795734, "lon": 2.3337522}, {"type": "node", "id": 639179773, "lat": 48.8795787, "lon": 2.3337868}, {"type": "node", "id": 639179775, "lat": 48.8797174, "lon": 2.3337754}, {"type": "node", "id": 639179776, "lat": 48.8796866, "lon": 2.3337385}, {"type": "node", "id": 639179778, "lat": 48.8796827, "lon": 2.3337108}, {"type": "node", "id": 639179781, "lat": 48.8796914, "lon": 2.3336732}, {"type": "node", "id": 639179783, "lat": 48.8797367, "lon": 2.3336949}, {"type": "node", "id": 639179784, "lat": 48.8797427, "lon": 2.3336697}, {"type": "node", "id": 639179840, "lat": 48.879682, "lon": 2.3339181}, {"type": "node", "id": 641195555, "lat": 48.8222794, "lon": 2.3306771}, {"type": "node", "id": 658960147, "lat": 48.8763021, "lon": 2.3355074, "tags": {"brand": "Franprix", "brand:wikidata": "Q2420096", "brand:wikipedia": "fr:Franprix", "name": "Franprix", "operator": "Groupe Casino", "shop": "convenience", "wheelchair": "limited"}}, {"type": "node", "id": 663314810, "lat": 48.8768016, "lon": 2.3394255, "tags": {"amenity": "restaurant", "name": "La Rimaudi\u00e8re", "source": "survey"}}, {"type": "node", "id": 669855124, "lat": 48.8425239, "lon": 2.3452703}, {"type": "node", "id": 669855134, "lat": 48.8429789, "lon": 2.3455208}, {"type": "node", "id": 669855137, "lat": 48.8431104, "lon": 2.3449809}, {"type": "node", "id": 669855141, "lat": 48.843169, "lon": 2.3447103}, {"type": "node", "id": 669855142, "lat": 48.8427674, "lon": 2.3445081}, {"type": "node", "id": 669855143, "lat": 48.8426965, "lon": 2.3445454}, {"type": "node", "id": 672842496, "lat": 48.8794178, "lon": 2.3338248, "tags": {"addr:city": "Paris", "addr:postcode": "75009", "amenity": "restaurant", "cuisine": "japanese", "name": "One More Sushi", "opening_hours": "Mo-Sa 11:00-15:00, 18:00-23:00; Su 18:00-23:00", "source": "cadastre-dgi-fr source : Direction G\u00e9n\u00e9rale des Imp\u00f4ts - Cadastre. Mise \u00e0 jour : 2010"}}, {"type": "node", "id": 672842501, "lat": 48.8793624, "lon": 2.3337517, "tags": {"addr:city": "Paris", "addr:postcode": "75009", "name": "Mini Market", "shop": "convenience", "source": "cadastre-dgi-fr source : Direction G\u00e9n\u00e9rale des Imp\u00f4ts - Cadastre. Mise \u00e0 jour : 2010"}}, {"type": "node", "id": 672956184, "lat": 48.875499, "lon": 2.3390854}, {"type": "node", "id": 672956197, "lat": 48.8753085, "lon": 2.3392082}, {"type": "node", "id": 672956202, "lat": 48.875566, "lon": 2.3390499}, {"type": "node", "id": 672956208, "lat": 48.8751459, "lon": 2.3390089}, {"type": "node", "id": 672956216, "lat": 48.8754511, "lon": 2.3390807}, {"type": "node", "id": 672956229, "lat": 48.8754748, "lon": 2.3392221}, {"type": "node", "id": 672956242, "lat": 48.8753145, "lon": 2.3390248}, {"type": "node", "id": 672956251, "lat": 48.8754521, "lon": 2.3390591}, {"type": "node", "id": 672956264, "lat": 48.8754764, "lon": 2.3392028}, {"type": "node", "id": 672956277, "lat": 48.8753133, "lon": 2.339074}, {"type": "node", "id": 672956282, "lat": 48.8752626, "lon": 2.339186}, {"type": "node", "id": 672956291, "lat": 48.8753645, "lon": 2.3390519}, {"type": "node", "id": 672956302, "lat": 48.8754942, "lon": 2.3392036}, {"type": "node", "id": 672956311, "lat": 48.8752668, "lon": 2.3390696}, {"type": "node", "id": 672956315, "lat": 48.8753092, "lon": 2.3391907}, {"type": "node", "id": 672956321, "lat": 48.875365, "lon": 2.3390297}, {"type": "node", "id": 672973035, "lat": 48.8782, "lon": 2.33235, "tags": {"addr:city": "Paris", "addr:housenumber": "8", "addr:postcode": "75009", "addr:street": "Rue Jean-Baptiste Pigalle", "brand": "Franprix", "brand:wikidata": "Q2420096", "brand:wikipedia": "fr:Franprix", "name": "Franprix", "opening_hours": "Mo-Sa 07:30-21:30", "operator": "Groupe Casino", "payment:cash": "yes", "payment:credit_cards": "yes", "phone": "+33 1 40 16 98 97", "shop": "convenience", "source": "cadastre-dgi-fr source : Direction G\u00e9n\u00e9rale des Imp\u00f4ts - Cadastre. Mise \u00e0 jour : 2010", "wheelchair": "yes"}}, {"type": "node", "id": 679398831, "lat": 48.863747, "lon": 2.3337333}, {"type": "node", "id": 679398837, "lat": 48.8637489, "lon": 2.3338191}, {"type": "node", "id": 679398839, "lat": 48.8636759, "lon": 2.3339538}, {"type": "node", "id": 679398844, "lat": 48.8637421, "lon": 2.3340035, "tags": {"addr:housenumber": "5"}}, {"type": "node", "id": 679398875, "lat": 48.8638348, "lon": 2.3338837}, {"type": "node", "id": 679398876, "lat": 48.8637826, "lon": 2.3338282}, {"type": "node", "id": 679398877, "lat": 48.863802, "lon": 2.3337571}, {"type": "node", "id": 679398879, "lat": 48.863797, "lon": 2.3337754}, {"type": "node", "id": 679398880, "lat": 48.8637781, "lon": 2.3337645}, {"type": "node", "id": 679398881, "lat": 48.8637668, "lon": 2.3337956}, {"type": "node", "id": 679398882, "lat": 48.8637555, "lon": 2.3338015}, {"type": "node", "id": 679398883, "lat": 48.8637784, "lon": 2.3338419}, {"type": "node", "id": 679398884, "lat": 48.8638448, "lon": 2.3338596}, {"type": "node", "id": 679398897, "lat": 48.8639022, "lon": 2.3339144}, {"type": "node", "id": 679398898, "lat": 48.863842, "lon": 2.3340327}, {"type": "node", "id": 679398899, "lat": 48.8638019, "lon": 2.3340484}, {"type": "node", "id": 679398900, "lat": 48.8637984, "lon": 2.3340457}, {"type": "node", "id": 679466892, "lat": 48.8632802, "lon": 2.3340434, "tags": {"contact:phone": "+33 1 40 15 06 71", "name": "Alpha", "opening_hours": "Mo-Sa 09:00-19:30, Su 10:00-17:00", "shop": "pet_grooming", "website": "https://www.alphadogshouse.com/"}}, {"type": "node", "id": 679466975, "lat": 48.8638661, "lon": 2.3339855, "tags": {"addr:housenumber": "169", "source": "cadastre-dgi-fr source : Direction G\u00e9n\u00e9rale des Imp\u00f4ts - Cadastre. Mise \u00e0 jour : 2010"}}, {"type": "node", "id": 679467050, "lat": 48.8631557, "lon": 2.3352468, "tags": {"amenity": "cafe", "indoor_seating": "yes", "name": "Caf\u00e9 Ruc", "name:fr": "Caf\u00e9 Ruc", "outdoor_seating": "yes", "source": "cadastre-dgi-fr source : Direction G\u00e9n\u00e9rale des Imp\u00f4ts - Cadastre. Mise \u00e0 jour : 2010", "wheelchair": "yes"}}, {"type": "node", "id": 681479162, "lat": 48.8647612, "lon": 2.3406523, "tags": {"amenity": "restaurant", "indoor_seating": "yes", "name": "Basilic Tha\u00ef", "outdoor_seating": "yes", "source": "cadastre-dgi-fr source : Direction G\u00e9n\u00e9rale des Imp\u00f4ts - Cadastre. Mise \u00e0 jour : 2010"}}, {"type": "node", "id": 681479170, "lat": 48.8646538, "lon": 2.3408552, "tags": {"addr:housenumber": "44", "addr:street": "Rue Coquilli\u00e8re", "amenity": "restaurant", "description": "Restaurant uruguayen", "indoor_seating": "yes", "name": "Comptoir Montevideo", "outdoor_seating": "yes", "phone": "+33 6 82 25 74 82", "source": "cadastre-dgi-fr source : Direction G\u00e9n\u00e9rale des Imp\u00f4ts - Cadastre. Mise \u00e0 jour : 2010", "website": "https://www.comptoirmontevideo.fr/"}}, {"type": "node", "id": 681534776, "lat": 48.8647057, "lon": 2.340287}, {"type": "node", "id": 681534778, "lat": 48.8647034, "lon": 2.3402942}, {"type": "node", "id": 681534779, "lat": 48.8646915, "lon": 2.3403092}, {"type": "node", "id": 681534782, "lat": 48.8646689, "lon": 2.340295}, {"type": "node", "id": 681534786, "lat": 48.8646675, "lon": 2.3402734}, {"type": "node", "id": 681534789, "lat": 48.8646697, "lon": 2.3402638}, {"type": "node", "id": 681534794, "lat": 48.864489, "lon": 2.3404697, "tags": {"amenity": "restaurant", "name": "Au Cabanon", "source": "cadastre-dgi-fr source : Direction G\u00e9n\u00e9rale des Imp\u00f4ts - Cadastre. Mise \u00e0 jour : 2010"}}, {"type": "node", "id": 681534864, "lat": 48.8655554, "lon": 2.3403846, "tags": {"amenity": "restaurant", "name": "Bistrot Victoires", "name:fr": "Bistrot Victoires", "opening_hours": "Mo-Su 10:00-15:00, 19:00-23:30"}}, {"type": "node", "id": 681555427, "lat": 48.8660743, "lon": 2.3390538, "tags": {"amenity": "restaurant", "contact:city": "Paris", "contact:email": "acasaluna@noos.fr", "contact:housenumber": "6", "contact:phone": "+33 1 42 60 05 11", "contact:postcode": "75001", "contact:street": "Rue de Beaujolais", "contact:website": "https://www.acasaluna.com", "cuisine": "corsican", "name": "A Casaluna", "opening_hours": "Mo-Su,PH 12:00-14:00+,19:00-22:00+", "smoking": "no", "source": "cadastre-dgi-fr source : Direction G\u00e9n\u00e9rale des Imp\u00f4ts - Cadastre. Mise \u00e0 jour : 2010"}}, {"type": "node", "id": 681555435, "lat": 48.8661019, "lon": 2.3389239, "tags": {"amenity": "restaurant", "name": "Table d'H\u00f4te du Palais Royal", "source": "cadastre-dgi-fr source : Direction G\u00e9n\u00e9rale des Imp\u00f4ts - Cadastre. Mise \u00e0 jour : 2010", "wifi": "no"}}, {"type": "node", "id": 681677109, "lat": 48.8629745, "lon": 2.3357764, "tags": {"amenity": "cafe", "contact:city": "Paris", "contact:housenumber": "157", "contact:phone": "+33 1 42 61 40 01", "contact:postcode": "75001", "contact:street": "Rue Saint-Honor\u00e9", "indoor_seating": "yes", "name": "Caf\u00e9 de la Com\u00e9die", "name:fr": "Caf\u00e9 de la Com\u00e9die", "opening_hours": "Mo-Su 07:00-02:00", "outdoor_seating": "yes", "source": "cadastre-dgi-fr source : Direction G\u00e9n\u00e9rale des Imp\u00f4ts - Cadastre. Mise \u00e0 jour : 2010", "wheelchair": "no"}}, {"type": "node", "id": 681677240, "lat": 48.8631159, "lon": 2.3359632}, {"type": "node", "id": 681677241, "lat": 48.8631168, "lon": 2.335958}, {"type": "node", "id": 681677243, "lat": 48.8631143, "lon": 2.3359511}, {"type": "node", "id": 681677245, "lat": 48.8631188, "lon": 2.3359336}, {"type": "node", "id": 681677247, "lat": 48.8631234, "lon": 2.3359322}, {"type": "node", "id": 681677249, "lat": 48.863126, "lon": 2.3359265}, {"type": "node", "id": 681677250, "lat": 48.8631302, "lon": 2.3359295}, {"type": "node", "id": 681677252, "lat": 48.8631284, "lon": 2.3359349}, {"type": "node", "id": 681677254, "lat": 48.8631311, "lon": 2.3359411}, {"type": "node", "id": 681677255, "lat": 48.8631265, "lon": 2.3359594}, {"type": "node", "id": 681677256, "lat": 48.8631214, "lon": 2.3359614}, {"type": "node", "id": 681677258, "lat": 48.8631198, "lon": 2.3359657}, {"type": "node", "id": 681677262, "lat": 48.8633914, "lon": 2.3358663}, {"type": "node", "id": 681677314, "lat": 48.8634538, "lon": 2.3358995}, {"type": "node", "id": 681677316, "lat": 48.8634553, "lon": 2.3358903}, {"type": "node", "id": 681677317, "lat": 48.8634598, "lon": 2.3358889}, {"type": "node", "id": 681677318, "lat": 48.863476, "lon": 2.3358169}, {"type": "node", "id": 681677355, "lat": 48.8633757, "lon": 2.3362909}, {"type": "node", "id": 681677356, "lat": 48.8633023, "lon": 2.3362513}, {"type": "node", "id": 681677364, "lat": 48.8633485, "lon": 2.3364126}, {"type": "node", "id": 681677384, "lat": 48.8636389, "lon": 2.336569}, {"type": "node", "id": 681677434, "lat": 48.8637726, "lon": 2.3359758}, {"type": "node", "id": 681742562, "lat": 48.8661059, "lon": 2.3377114}, {"type": "node", "id": 681742564, "lat": 48.8660125, "lon": 2.3374716}, {"type": "node", "id": 681742571, "lat": 48.8661064, "lon": 2.3377095}, {"type": "node", "id": 681742573, "lat": 48.8659724, "lon": 2.3376391}, {"type": "node", "id": 681742574, "lat": 48.8662864, "lon": 2.3376127}, {"type": "node", "id": 681742577, "lat": 48.8663043, "lon": 2.3376507}, {"type": "node", "id": 681742578, "lat": 48.8662694, "lon": 2.3377965}, {"type": "node", "id": 681742579, "lat": 48.8662747, "lon": 2.3377745}, {"type": "node", "id": 681818224, "lat": 48.86502, "lon": 2.3366293, "tags": {"amenity": "restaurant", "name": "L'Incroyable", "source": "cadastre-dgi-fr source : Direction G\u00e9n\u00e9rale des Imp\u00f4ts - Cadastre. Mise \u00e0 jour : 2010"}}, {"type": "node", "id": 681818309, "lat": 48.8656093, "lon": 2.3369261, "tags": {"amenity": "restaurant", "cuisine": "pizza", "name": "Le Festival", "source": "cadastre-dgi-fr source : Direction G\u00e9n\u00e9rale des Imp\u00f4ts - Cadastre. Mise \u00e0 jour : 2010", "wheelchair": "yes"}}, {"type": "node", "id": 681818407, "lat": 48.8661609, "lon": 2.3375481, "tags": {"addr:housenumber": "38", "source": "cadastre-dgi-fr source : Direction G\u00e9n\u00e9rale des Imp\u00f4ts - Cadastre. Mise \u00e0 jour : 2010"}}, {"type": "node", "id": 681818414, "lat": 48.8663099, "lon": 2.3374684, "tags": {"amenity": "restaurant", "check_date": "2023-04-23", "name": "Bar de l'Entracte", "source": "cadastre-dgi-fr source : Direction G\u00e9n\u00e9rale des Imp\u00f4ts - Cadastre. Mise \u00e0 jour : 2010", "wheelchair": "limited"}}, {"type": "node", "id": 681818452, "lat": 48.866293, "lon": 2.3376978, "tags": {"addr:housenumber": "21", "source": "cadastre-dgi-fr source : Direction G\u00e9n\u00e9rale des Imp\u00f4ts - Cadastre. Mise \u00e0 jour : 2010"}}, {"type": "node", "id": 681841712, "lat": 48.8635183, "lon": 2.3358395, "tags": {"addr:housenumber": "2", "source": "cadastre-dgi-fr source : Direction G\u00e9n\u00e9rale des Imp\u00f4ts - Cadastre. Mise \u00e0 jour : 2010"}}, {"type": "node", "id": 681841729, "lat": 48.8637105, "lon": 2.3359425, "tags": {"addr:housenumber": "6", "source": "cadastre-dgi-fr source : Direction G\u00e9n\u00e9rale des Imp\u00f4ts - Cadastre. Mise \u00e0 jour : 2010"}}, {"type": "node", "id": 681841740, "lat": 48.8636265, "lon": 2.3358975, "tags": {"addr:housenumber": "4", "source": "cadastre-dgi-fr source : Direction G\u00e9n\u00e9rale des Imp\u00f4ts - Cadastre. Mise \u00e0 jour : 2010"}}, {"type": "node", "id": 682258926, "lat": 48.8648371, "lon": 2.335091, "tags": {"contact:city": "Paris", "contact:email": "contact@antoine1745.com", "contact:housenumber": "10", "contact:phone": "+33 1 42 96 01 80;+33 6 59 05 89 01", "contact:postcode": "75001", "contact:street": "Avenue de l'Op\u00e9ra", "contact:website": "https://www.antoine1745.com", "name": "Antoine", "opening_hours": "Tu-Sa 10:30-13:00,14:00-18:30", "shop": "clothes", "source": "cadastre-dgi-fr source : Direction G\u00e9n\u00e9rale des Imp\u00f4ts - Cadastre. Mise \u00e0 jour : 2010"}}, {"type": "node", "id": 682258935, "lat": 48.8651133, "lon": 2.3358787, "tags": {"name": "Mara Paris", "opening_hours": "\"by appointment\"", "payment:american_express": "yes", "payment:cash": "yes", "payment:contactless": "yes", "payment:credit_cards": "yes", "payment:debit_cards": "yes", "payment:maestro": "yes", "payment:mastercard": "yes", "payment:visa": "yes", "shop": "jewelry", "website": "https://mara.paris"}}, {"type": "node", "id": 682258941, "lat": 48.8652957, "lon": 2.3360734, "tags": {"addr:housenumber": "17", "addr:postcode": "75001", "addr:street": "Rue Moli\u00e8re", "amenity": "restaurant", "name": "Pho 14", "name:en": "pho 14", "opening_hours": "Mo-Sa 11:00-22:30", "source": "cadastre-dgi-fr source : Direction G\u00e9n\u00e9rale des Imp\u00f4ts - Cadastre. Mise \u00e0 jour : 2010"}}, {"type": "node", "id": 682294048, "lat": 48.8660278, "lon": 2.3340077, "tags": {"amenity": "restaurant", "indoor_seating": "yes", "name": "Le Royal Op\u00e9ra", "opening_hours": "Mo-Sa 06:00-02:00", "outdoor_seating": "yes", "source": "cadastre-dgi-fr source : Direction G\u00e9n\u00e9rale des Imp\u00f4ts - Cadastre. Mise \u00e0 jour : 2010", "wheelchair": "yes"}}, {"type": "node", "id": 682294265, "lat": 48.8662823, "lon": 2.3370766, "tags": {"amenity": "cafe", "contact:city": "Paris", "contact:housenumber": "47", "contact:postcode": "75001", "contact:street": "Rue de Richelieu", "name": "Salon du Fromage Hisada", "name:en": "Salon du fromage Hisada- cheese shop", "name:fr": "Salon du Fromage Hisada", "source": "cadastre-dgi-fr source : Direction G\u00e9n\u00e9rale des Imp\u00f4ts - Cadastre. Mise \u00e0 jour : 2010"}}, {"type": "node", "id": 682302337, "lat": 48.8653027, "lon": 2.3348485, "tags": {"branch": "Pyramides Palais Royal", "brand": "Copy-Top", "brand:wikidata": "Q101281603", "contact:city": "Paris", "contact:housenumber": "14", "contact:phone": "+33 1 42 96 83 88", "contact:postcode": "75001", "contact:street": "Avenue de l'Op\u00e9ra", "contact:website": "https://www.copytop.com/agence-pyramides-palais-royal", "name": "Copy-Top", "opening_hours": "09:00-19:00", "operator": "COPY-TOP", "shop": "copyshop", "source": "http://www.copytop.com/"}}, {"type": "node", "id": 682302355, "lat": 48.8663406, "lon": 2.3354494, "tags": {"amenity": "restaurant", "contact:city": "Paris", "contact:housenumber": "37", "contact:phone": "+33 1 42 60 60 98", "contact:postcode": "75001", "contact:street": "Rue Sainte-Anne", "cuisine": "japanese", "name": "Sapporo", "opening_hours": "Mo-Su,PH 11:30-22:00", "source": "survey"}}, {"type": "node", "id": 682302359, "lat": 48.8666007, "lon": 2.3357728, "tags": {"amenity": "restaurant", "contact:city": "Paris", "contact:housenumber": "32 bis", "contact:postcode": "75001", "contact:street": "Rue Sainte-Anne", "contact:website": "http://higuma.fr", "cuisine": "japanese", "name": "Higuma", "source": "cadastre-dgi-fr source : Direction G\u00e9n\u00e9rale des Imp\u00f4ts - Cadastre. Mise \u00e0 jour : 2010"}}, {"type": "node", "id": 682305773, "lat": 48.866459, "lon": 2.3355096, "tags": {"amenity": "restaurant", "contact:city": "Paris", "contact:housenumber": "39", "contact:postcode": "75001", "contact:street": "Rue Sainte-Anne", "name": "Udon Jubey", "opening_hours": "Mo-Sa 11:30-22:30", "source": "cadastre-dgi-fr source : Direction G\u00e9n\u00e9rale des Imp\u00f4ts - Cadastre. Mise \u00e0 jour : 2010"}}, {"type": "node", "id": 682316108, "lat": 48.8671492, "lon": 2.3349258, "tags": {"amenity": "restaurant", "contact:housenumber": "53", "contact:postcode": "75001", "contact:street": "Rue des Petits Champs", "cuisine": "japanese", "name": "Hakata", "name:fr": "Hakata choten", "source": "cadastre-dgi-fr source : Direction G\u00e9n\u00e9rale des Imp\u00f4ts - Cadastre. Mise \u00e0 jour : 2010"}}, {"type": "node", "id": 682316112, "lat": 48.8669848, "lon": 2.3350615, "tags": {"amenity": "restaurant", "contact:city": "Paris", "contact:housenumber": "7", "contact:postcode": "75001", "contact:street": "Rue des Moulins", "name": "Ryo", "source": "cadastre-dgi-fr source : Direction G\u00e9n\u00e9rale des Imp\u00f4ts - Cadastre. Mise \u00e0 jour : 2010"}}, {"type": "node", "id": 682316156, "lat": 48.867186, "lon": 2.3347705, "tags": {"amenity": "cafe", "contact:city": "Paris", "contact:housenumber": "55", "contact:phone": "+33 9 86 62 68 80", "contact:postcode": "75001", "contact:street": "Rue des Petits Champs", "contact:website": "http://thealley.fr", "cuisine": "coffee_shop", "diet:vegan": "yes", "diet:vegetarian": "only", "name": "The alley", "name:fr": "The alley", "opening_hours": "Mo-Sa 12:00-21:00; Su 12:00-22:30", "source": "cadastre-dgi-fr source : Direction G\u00e9n\u00e9rale des Imp\u00f4ts - Cadastre. Mise \u00e0 jour : 2010"}}, {"type": "node", "id": 682316160, "lat": 48.8672037, "lon": 2.3346634, "tags": {"amenity": "fast_food", "brand": "Pret A Manger", "brand:wikidata": "Q2109109", "brand:wikipedia": "en:Pret a Manger", "contact:city": "Paris", "contact:housenumber": "57", "contact:postcode": "75001", "contact:street": "Rue des Petits Champs", "cuisine": "sandwich", "name": "Pret A Manger", "short_name": "Pret", "source": "cadastre-dgi-fr source : Direction G\u00e9n\u00e9rale des Imp\u00f4ts - Cadastre. Mise \u00e0 jour : 2010", "takeaway": "yes", "toilets:wheelchair": "no", "wheelchair": "no"}}, {"type": "node", "id": 682340282, "lat": 48.8647146, "lon": 2.3333433}, {"type": "node", "id": 682340284, "lat": 48.8646793, "lon": 2.3334013}, {"type": "node", "id": 682340293, "lat": 48.8647653, "lon": 2.3333254}, {"type": "node", "id": 682340296, "lat": 48.8647433, "lon": 2.3333006}, {"type": "node", "id": 682340347, "lat": 48.8647475, "lon": 2.3336903}, {"type": "node", "id": 682340348, "lat": 48.8647384, "lon": 2.3336519}, {"type": "node", "id": 682340351, "lat": 48.8646927, "lon": 2.3338041, "tags": {"addr:housenumber": "9", "addr:street": "Rue d'Argenteuil", "amenity": "restaurant", "changing_table": "no", "cuisine": "japanese;udon", "internet_access": "no", "level": "0", "microbrewery": "no", "name": "Sanukiya", "opening_hours": "Mo-Su 11:30-22:30", "outdoor_seating": "yes", "self_service": "no", "smoking": "outside", "source": "cadastre-dgi-fr source : Direction G\u00e9n\u00e9rale des Imp\u00f4ts - Cadastre. Mise \u00e0 jour : 2010", "toilets": "yes", "toilets:access": "customers", "toilets:wheelchair": "no"}}, {"type": "node", "id": 682340356, "lat": 48.8647504, "lon": 2.3338346}, {"type": "node", "id": 682340360, "lat": 48.8649083, "lon": 2.3333587}, {"type": "node", "id": 682340362, "lat": 48.8648494, "lon": 2.3334238}, {"type": "node", "id": 682340375, "lat": 48.8649996, "lon": 2.3334147}, {"type": "node", "id": 682340377, "lat": 48.8649592, "lon": 2.3334131}, {"type": "node", "id": 682340386, "lat": 48.8649695, "lon": 2.3334135}, {"type": "node", "id": 682340403, "lat": 48.8648884, "lon": 2.3338359, "tags": {"addr:housenumber": "11", "source": "cadastre-dgi-fr source : Direction G\u00e9n\u00e9rale des Imp\u00f4ts - Cadastre. Mise \u00e0 jour : 2010"}}, {"type": "node", "id": 682340407, "lat": 48.8650013, "lon": 2.333837}, {"type": "node", "id": 682356619, "lat": 48.8662406, "lon": 2.3337899, "tags": {"addr:housenumber": "29", "addr:street": "Rue des Pyramides", "name": "Takumi (boulangerie japonaise)", "shop": "bakery", "source": "cadastre-dgi-fr source : Direction G\u00e9n\u00e9rale des Imp\u00f4ts - Cadastre. Mise \u00e0 jour : 2010"}}, {"type": "node", "id": 682364951, "lat": 48.8660599, "lon": 2.3312884, "tags": {"amenity": "restaurant", "name": "Au Bistro", "source": "cadastre-dgi-fr source : Direction G\u00e9n\u00e9rale des Imp\u00f4ts - Cadastre. Mise \u00e0 jour : 2010", "toilets:wheelchair": "no", "wheelchair": "limited", "wheelchair:description": "pas de marche \u00e0 l'entr\u00e9e et \u00e0 l'int\u00e9rieur mais toilettes turques!"}}, {"type": "node", "id": 682364953, "lat": 48.8663061, "lon": 2.3318256, "tags": {"name": "My Auchan", "opening_hours": "Mo-Sa 08:15-22:00; Su 09:00-22:00", "shop": "supermarket", "source": "cadastre-dgi-fr source : Direction G\u00e9n\u00e9rale des Imp\u00f4ts - Cadastre. Mise \u00e0 jour : 2010", "wheelchair": "yes"}}, {"type": "node", "id": 682364955, "lat": 48.8648359, "lon": 2.3323354}, {"type": "node", "id": 682364956, "lat": 48.8648487, "lon": 2.332348}, {"type": "node", "id": 682364960, "lat": 48.8648207, "lon": 2.3323712}, {"type": "node", "id": 682364961, "lat": 48.864833, "lon": 2.3323842}, {"type": "node", "id": 683094599, "lat": 48.8644291, "lon": 2.3303145, "tags": {"contact:city": "Paris", "contact:housenumber": "208", "contact:postcode": "75001", "contact:street": "Rue de Rivoli", "name": "Paris", "shop": "travel_agency", "source": "cadastre-dgi-fr source : Direction G\u00e9n\u00e9rale des Imp\u00f4ts - Cadastre. Mise \u00e0 jour : 2010"}}, {"type": "node", "id": 683094611, "lat": 48.8643536, "lon": 2.3306728, "tags": {"contact:city": "Paris", "contact:housenumber": "204", "contact:postcode": "75001", "contact:street": "Rue de Rivoli", "name": "Carty", "opening_hours": "Mo-Sa 10:30-19:00; Su off", "shop": "gift", "source": "cadastre-dgi-fr source : Direction G\u00e9n\u00e9rale des Imp\u00f4ts - Cadastre. Mise \u00e0 jour : 2010"}}, {"type": "node", "id": 683094829, "lat": 48.8649568, "lon": 2.3316438, "tags": {"contact:city": "Paris", "contact:housenumber": "203", "contact:postcode": "75001", "contact:street": "Rue Saint-Honor\u00e9", "name": "Le Labo", "shop": "perfumery"}}, {"type": "node", "id": 683095024, "lat": 48.86593, "lon": 2.3325216, "tags": {"amenity": "restaurant", "contact:city": "Paris", "contact:housenumber": "33", "contact:postcode": "75001", "contact:street": "Rue Saint-Roch", "cuisine": "japanese", "name": "Echizen Soba Togo", "opening_hours": "Mo-Tu,Th-Sa 12:00-14:30,19:00-22:00"}}, {"type": "node", "id": 683133864, "lat": 48.8663779, "lon": 2.3317318, "tags": {"amenity": "cafe", "brand": "Le Pain Quotidien", "brand:wikidata": "Q2046903", "brand:wikipedia": "en:Le Pain Quotidien", "cuisine": "coffee_shop", "diet:vegetarian": "yes", "name": "Le Pain Quotidien", "name:fr": "Le Pain Quotidien", "opening_hours": "Mo-Su 08:00-20:00", "source": "cadastre-dgi-fr source : Direction G\u00e9n\u00e9rale des Imp\u00f4ts - Cadastre. Mise \u00e0 jour : 2010", "takeaway": "yes", "wheelchair": "yes"}}, {"type": "node", "id": 683133865, "lat": 48.8665377, "lon": 2.3318339}, {"type": "node", "id": 683133866, "lat": 48.8667039, "lon": 2.3312397}, {"type": "node", "id": 683133867, "lat": 48.8667857, "lon": 2.3312912}, {"type": "node", "id": 683133868, "lat": 48.8667818, "lon": 2.3313054, "tags": {"addr:housenumber": "47"}}, {"type": "node", "id": 683133890, "lat": 48.8667091, "lon": 2.3319292}, {"type": "node", "id": 683133891, "lat": 48.8667056, "lon": 2.3319419}, {"type": "node", "id": 683133892, "lat": 48.8671312, "lon": 2.3322114}, {"type": "node", "id": 683133893, "lat": 48.8671339, "lon": 2.3321996}, {"type": "node", "id": 683133894, "lat": 48.8669595, "lon": 2.3323778, "tags": {"amenity": "bar", "contact:city": "Paris 1er Arrondissement", "contact:housenumber": "34", "contact:phone": "+33 1 42 96 10 18", "contact:postcode": "75001", "contact:street": "Place Du March\u00e9 Saint-Honor\u00e9", "name": "L'ecluse Saint-Honor\u00e9", "source": "cadastre-dgi-fr source : Direction G\u00e9n\u00e9rale des Imp\u00f4ts - Cadastre. Mise \u00e0 jour : 2010", "toilets:wheelchair": "no", "wheelchair": "no", "wheelchair:description": "2 grandes marches \u00e0 l'entr\u00e9e et pas d'accessibilit\u00e9 aux fauteuils roulants dans les toilettes (pas de barre pour se tenir etc) mais la dame a dit que c'\u00e9tait spacieux."}}, {"type": "node", "id": 683133895, "lat": 48.8671049, "lon": 2.3324513, "tags": {"amenity": "cafe", "name": "Le Zinc d'Honor\u00e9", "name:fr": "Le Zinc d'Honor\u00e9", "source": "cadastre-dgi-fr source : Direction G\u00e9n\u00e9rale des Imp\u00f4ts - Cadastre. Mise \u00e0 jour : 2010"}}, {"type": "node", "id": 683133896, "lat": 48.8670401, "lon": 2.3324272, "tags": {"amenity": "restaurant", "name": "Maison Popeille", "source": "cadastre-dgi-fr source : Direction G\u00e9n\u00e9rale des Imp\u00f4ts - Cadastre. Mise \u00e0 jour : 2010", "toilets:wheelchair": "no", "wheelchair": "no"}}, {"type": "node", "id": 683133897, "lat": 48.8673747, "lon": 2.3316844, "tags": {"addr:housenumber": "39"}}, {"type": "node", "id": 683133898, "lat": 48.8673786, "lon": 2.3316708}, {"type": "node", "id": 683133899, "lat": 48.8674634, "lon": 2.3317261}, {"type": "node", "id": 683133900, "lat": 48.8674363, "lon": 2.3318265}, {"type": "node", "id": 683133901, "lat": 48.8674368, "lon": 2.3318382}, {"type": "node", "id": 683133904, "lat": 48.8676684, "lon": 2.331687, "tags": {"amenity": "restaurant", "contact:city": "Paris 1er Arrondissement", "contact:housenumber": "33", "contact:phone": "+33 1 42 96 31 34", "contact:postcode": "75001", "contact:street": "Place Du March\u00e9 Saint-Honor\u00e9", "name": "Le Passage Saint Honor\u00e9", "opening_hours": "Mo-Su 00:00-02:00, 07:00-23:59", "source": "survey 2023", "website": "https://www.privateaser.com/lieu/47701-le-passage-saint-honore"}}, {"type": "node", "id": 683133905, "lat": 48.8674263, "lon": 2.3318711}, {"type": "node", "id": 683133906, "lat": 48.8674217, "lon": 2.3318785, "tags": {"addr:housenumber": "37"}}, {"type": "node", "id": 683133907, "lat": 48.8673417, "lon": 2.3321665}, {"type": "node", "id": 683133908, "lat": 48.8673413, "lon": 2.33218}, {"type": "node", "id": 683133909, "lat": 48.8673317, "lon": 2.3322158}, {"type": "node", "id": 683133910, "lat": 48.8673255, "lon": 2.3322263}, {"type": "node", "id": 683133911, "lat": 48.867299, "lon": 2.3323173}, {"type": "node", "id": 683133912, "lat": 48.8673997, "lon": 2.3319574}, {"type": "node", "id": 683133914, "lat": 48.8671718, "lon": 2.3324983, "tags": {"amenity": "restaurant", "cuisine": "burger", "name": "Charly Bun's", "source": "cadastre-dgi-fr source : Direction G\u00e9n\u00e9rale des Imp\u00f4ts - Cadastre. Mise \u00e0 jour : 2010", "toilets:wheelchair": "no", "wheelchair": "no"}}, {"type": "node", "id": 683133917, "lat": 48.8675155, "lon": 2.3322637, "tags": {"amenity": "restaurant", "name": "Fuxia", "source": "survey 2015", "wheelchair": "limited"}}, {"type": "node", "id": 683133918, "lat": 48.8672699, "lon": 2.3325679, "tags": {"amenity": "cafe", "name": "Razowski's", "name:fr": "Razowski's", "source": "cadastre-dgi-fr source : Direction G\u00e9n\u00e9rale des Imp\u00f4ts - Cadastre. Mise \u00e0 jour : 2010", "toilets:wheelchair": "no", "wheelchair": "no", "wheelchair:description": "Marche de 10cm \u00e0 l'entr\u00e9e et pas de toilettes conforme et m\u00eame la porte des toilettes serait trop petite pour faire passer un fauteuil roulant."}}, {"type": "node", "id": 683133919, "lat": 48.8674622, "lon": 2.3325601, "tags": {"amenity": "fast_food", "brand": "Big Fernand", "brand:wikidata": "Q19521346", "brand:wikipedia": "fr:Big Fernand", "contact:city": "Paris", "contact:housenumber": "40", "contact:phone": "+33 1 85 15 23 68", "contact:postcode": "75001", "contact:street": "Place du March\u00e9 Saint-Honor\u00e9", "cuisine": "burger", "drive_through": "no", "name": "Big Fernand", "opening_hours": "Mo-Su 11:45-22:30", "takeaway": "yes", "toilets:wheelchair": "no", "website": "https://bigfernand.com/", "wheelchair": "no", "wheelchair:description": "marche \u00e0 l'entr\u00e9e et toilettes \u00e0 l'\u00e9tage sans disposition pour les fauteuils roulants."}}, {"type": "node", "id": 683216892, "lat": 48.8665709, "lon": 2.331715, "tags": {"addr:housenumber": "58", "source": "cadastre-dgi-fr source : Direction G\u00e9n\u00e9rale des Imp\u00f4ts - Cadastre. Mise \u00e0 jour : 2010"}}, {"type": "node", "id": 683216975, "lat": 48.8666292, "lon": 2.3318411, "tags": {"check_date:opening_hours": "2023-08-25", "contact:city": "Paris", "contact:housenumber": "56", "contact:phone": "+33 1 47 03 49 71", "contact:postcode": "75001", "contact:street": "Place du March\u00e9 Saint-Honor\u00e9", "contact:website": "https://fr.abpconcept.paris", "craft": "leather", "name": "Atelier du Bracelet Parisien", "opening_hours:signed": "no", "shop": "leather", "short_name": "ABP", "source": "cadastre-dgi-fr source : Direction G\u00e9n\u00e9rale des Imp\u00f4ts - Cadastre. Mise \u00e0 jour : 2010"}}, {"type": "node", "id": 683216979, "lat": 48.8667424, "lon": 2.3319504, "tags": {"addr:housenumber": "54", "source": "cadastre-dgi-fr source : Direction G\u00e9n\u00e9rale des Imp\u00f4ts - Cadastre. Mise \u00e0 jour : 2010"}}, {"type": "node", "id": 683217026, "lat": 48.8668658, "lon": 2.332029, "tags": {"addr:housenumber": "52", "source": "cadastre-dgi-fr source : Direction G\u00e9n\u00e9rale des Imp\u00f4ts - Cadastre. Mise \u00e0 jour : 2010"}}, {"type": "node", "id": 683217027, "lat": 48.8669698, "lon": 2.3320952, "tags": {"addr:housenumber": "50", "source": "cadastre-dgi-fr source : Direction G\u00e9n\u00e9rale des Imp\u00f4ts - Cadastre. Mise \u00e0 jour : 2010"}}, {"type": "node", "id": 683217028, "lat": 48.867093, "lon": 2.3321736, "tags": {"addr:housenumber": "48", "source": "cadastre-dgi-fr source : Direction G\u00e9n\u00e9rale des Imp\u00f4ts - Cadastre. Mise \u00e0 jour : 2010"}}, {"type": "node", "id": 683217083, "lat": 48.8672247, "lon": 2.3322704, "tags": {"addr:housenumber": "46", "source": "cadastre-dgi-fr source : Direction G\u00e9n\u00e9rale des Imp\u00f4ts - Cadastre. Mise \u00e0 jour : 2010"}}, {"type": "node", "id": 683255626, "lat": 48.864623, "lon": 2.3298305, "tags": {"contact:city": "Paris", "contact:housenumber": "212", "contact:postcode": "75001", "contact:street": "Rue de Rivoli", "name": "Clart\u00e9", "shop": "cosmetics", "source": "cadastre-dgi-fr source : Direction G\u00e9n\u00e9rale des Imp\u00f4ts - Cadastre. Mise \u00e0 jour : 2010"}}, {"type": "node", "id": 683255643, "lat": 48.8647018, "lon": 2.329587, "tags": {"contact:city": "Paris", "contact:housenumber": "214", "contact:postcode": "75001", "contact:street": "Rue de Rivoli", "name": "Cityrama", "shop": "travel_agency", "source": "cadastre-dgi-fr source : Direction G\u00e9n\u00e9rale des Imp\u00f4ts - Cadastre. Mise \u00e0 jour : 2010"}}, {"type": "node", "id": 683255898, "lat": 48.8666552, "lon": 2.3314139, "tags": {"addr:housenumber": "51", "source": "cadastre-dgi-fr source : Direction G\u00e9n\u00e9rale des Imp\u00f4ts - Cadastre. Mise \u00e0 jour : 2010"}}, {"type": "node", "id": 683255899, "lat": 48.8666845, "lon": 2.331309, "tags": {"addr:housenumber": "49", "source": "cadastre-dgi-fr source : Direction G\u00e9n\u00e9rale des Imp\u00f4ts - Cadastre. Mise \u00e0 jour : 2010"}}, {"type": "node", "id": 683255900, "lat": 48.8669344, "lon": 2.331403, "tags": {"addr:housenumber": "45", "source": "cadastre-dgi-fr source : Direction G\u00e9n\u00e9rale des Imp\u00f4ts - Cadastre. Mise \u00e0 jour : 2010"}}, {"type": "node", "id": 683255901, "lat": 48.8670889, "lon": 2.3315017, "tags": {"addr:housenumber": "43", "source": "cadastre-dgi-fr source : Direction G\u00e9n\u00e9rale des Imp\u00f4ts - Cadastre. Mise \u00e0 jour : 2010"}}, {"type": "node", "id": 683255903, "lat": 48.8667074, "lon": 2.3326398, "tags": {"amenity": "school", "name": "\u00c9cole maternelle", "operator:type": "public", "ref:UAI": "0751396K", "school:FR": "maternelle", "source": "cadastre-dgi-fr source : Direction G\u00e9n\u00e9rale des Imp\u00f4ts - Cadastre. Mise \u00e0 jour : 2010;data.gouv.fr:Minist\u00e8re de l'\u00c9ducation nationale, de la Jeunesse et de la Vie associative - 05/2012"}}, {"type": "node", "id": 683255909, "lat": 48.8673945, "lon": 2.3252526}, {"type": "node", "id": 683255911, "lat": 48.8676072, "lon": 2.325415}, {"type": "node", "id": 683255917, "lat": 48.8678727, "lon": 2.3316533, "tags": {"amenity": "restaurant", "name": "Le Terroir", "source": "cadastre-dgi-fr source : Direction G\u00e9n\u00e9rale des Imp\u00f4ts - Cadastre. Mise \u00e0 jour : 2010"}}, {"type": "node", "id": 683255918, "lat": 48.8672316, "lon": 2.3315929, "tags": {"addr:housenumber": "41", "source": "cadastre-dgi-fr source : Direction G\u00e9n\u00e9rale des Imp\u00f4ts - Cadastre. Mise \u00e0 jour : 2010"}}, {"type": "node", "id": 683259993, "lat": 48.8653114, "lon": 2.3276833, "tags": {"contact:city": "Paris", "contact:housenumber": "232", "contact:postcode": "75001", "contact:street": "Rue de Rivoli", "name": "Jade et Julie", "shop": "gift", "source": "cadastre-dgi-fr source : Direction G\u00e9n\u00e9rale des Imp\u00f4ts - Cadastre. Mise \u00e0 jour : 2010"}}, {"type": "node", "id": 683260122, "lat": 48.8655217, "lon": 2.3289587, "tags": {"amenity": "restaurant", "contact:city": "Paris", "contact:housenumber": "9", "contact:postcode": "75001", "contact:street": "Rue du Mont Thabor", "cuisine": "japanese", "name": "Kinugawa Vend\u00f4me", "name:en": "Kinugawa Vend\u00f4me", "source": "cadastre-dgi-fr source : Direction G\u00e9n\u00e9rale des Imp\u00f4ts - Cadastre. Mise \u00e0 jour : 2010"}}, {"type": "node", "id": 683260127, "lat": 48.864819, "lon": 2.3292321, "tags": {"amenity": "restaurant", "contact:city": "Paris", "contact:housenumber": "216", "contact:postcode": "75001", "contact:street": "Rue de Rivoli", "cuisine": "french", "name": "Rivoli Park", "source": "cadastre-dgi-fr source : Direction G\u00e9n\u00e9rale des Imp\u00f4ts - Cadastre. Mise \u00e0 jour : 2010"}}, {"type": "node", "id": 683264837, "lat": 48.8658771, "lon": 2.3297926, "tags": {"contact:city": "Paris", "contact:housenumber": "223", "contact:postcode": "75001", "contact:street": "Rue Saint-Honor\u00e9", "name": "Paul Smith", "second_hand": "no", "shop": "clothes", "source": "cadastre-dgi-fr source : Direction G\u00e9n\u00e9rale des Imp\u00f4ts - Cadastre. Mise \u00e0 jour : 2010", "wheelchair": "yes"}}, {"type": "node", "id": 683283114, "lat": 48.8661799, "lon": 2.3313738, "tags": {"addr:housenumber": "10", "addr:street": "Rue du March\u00e9 Saint-Honor\u00e9", "amenity": "bar", "name": "Le Rubis", "name:fr": "Le Rubis", "opening_hours": "Mo-Sa 09:00-16:00,18:00-24:00", "outdoor_seating": "no", "source": "cadastre-dgi-fr source : Direction G\u00e9n\u00e9rale des Imp\u00f4ts - Cadastre. Mise \u00e0 jour : 2010"}}, {"type": "node", "id": 683328227, "lat": 48.8659791, "lon": 2.3256368, "tags": {"contact:city": "Paris", "contact:housenumber": "242", "contact:postcode": "75001", "contact:street": "Rue de Rivoli", "name": "Sagil", "shop": "jewelry", "source": "cadastre-dgi-fr source : Direction G\u00e9n\u00e9rale des Imp\u00f4ts - Cadastre. Mise \u00e0 jour : 2010", "wheelchair": "yes"}}, {"type": "node", "id": 683328230, "lat": 48.8660781, "lon": 2.3253453, "tags": {"contact:city": "Paris", "contact:housenumber": "244", "contact:postcode": "75001", "contact:street": "Rue de Rivoli", "name": "51 Montaigne", "shop": "clothes", "wheelchair": "limited"}}, {"type": "node", "id": 683328243, "lat": 48.8664895, "lon": 2.3255262, "tags": {"contact:city": "Paris", "contact:housenumber": "4", "contact:postcode": "75001", "contact:street": "Rue Cambon", "name": "Yohji Yamamoto", "opening_hours": "24/7", "shop": "clothes", "source": "cadastre-dgi-fr source : Direction G\u00e9n\u00e9rale des Imp\u00f4ts - Cadastre. Mise \u00e0 jour : 2010"}}, {"type": "node", "id": 683328247, "lat": 48.8658638, "lon": 2.3260108, "tags": {"name": "D'Orly", "shop": "clothes"}}, {"type": "node", "id": 683328251, "lat": 48.865892, "lon": 2.3259244, "tags": {"contact:city": "Paris", "contact:housenumber": "240", "contact:postcode": "75001", "contact:street": "Rue de Rivoli", "name": "La Suite 240", "shop": "jewelry", "source": "cadastre-dgi-fr source : Direction G\u00e9n\u00e9rale des Imp\u00f4ts - Cadastre. Mise \u00e0 jour : 2010", "wheelchair": "limited"}}, {"type": "node", "id": 683328423, "lat": 48.8655768, "lon": 2.3268063, "tags": {"contact:city": "Paris", "contact:housenumber": "236", "contact:postcode": "75001", "contact:street": "Rue de Rivoli", "name": "Theo Fil", "shop": "clothes", "source": "cadastre-dgi-fr source : Direction G\u00e9n\u00e9rale des Imp\u00f4ts - Cadastre. Mise \u00e0 jour : 2010"}}, {"type": "node", "id": 683361900, "lat": 48.867807, "lon": 2.3272876}, {"type": "node", "id": 683361901, "lat": 48.8677672, "lon": 2.3273783}, {"type": "node", "id": 683361939, "lat": 48.8680754, "lon": 2.3268101}, {"type": "node", "id": 683361941, "lat": 48.8681579, "lon": 2.3268791}, {"type": "node", "id": 683361950, "lat": 48.8679687, "lon": 2.3274478}, {"type": "node", "id": 683361951, "lat": 48.8679294, "lon": 2.3275378}, {"type": "node", "id": 683361954, "lat": 48.8679307, "lon": 2.327402}, {"type": "node", "id": 683370075, "lat": 48.8669886, "lon": 2.3279636, "tags": {"contact:city": "Paris", "contact:housenumber": "362", "contact:postcode": "75001", "contact:street": "Rue Saint-Honor\u00e9", "name": "Dary's - Jewelry Designer", "shop": "jewelry", "source": "cadastre-dgi-fr source : Direction G\u00e9n\u00e9rale des Imp\u00f4ts - Cadastre. Mise \u00e0 jour : 2010", "wheelchair": "no"}}, {"type": "node", "id": 683370198, "lat": 48.8682068, "lon": 2.3295296, "tags": {"contact:city": "Paris", "contact:housenumber": "21", "contact:postcode": "75001", "contact:street": "Place Vend\u00f4me", "name": "Dubail", "shop": "jewelry", "source": "cadastre-dgi-fr source : Direction G\u00e9n\u00e9rale des Imp\u00f4ts - Cadastre. Mise \u00e0 jour : 2010", "wheelchair": "yes"}}, {"type": "node", "id": 683386801, "lat": 48.8663767, "lon": 2.3244052, "tags": {"contact:city": "Paris", "contact:housenumber": "252", "contact:postcode": "75001", "contact:street": "Rue de Rivoli", "name": "Hilditch and Key", "shop": "clothes", "source": "cadastre-dgi-fr source : Direction G\u00e9n\u00e9rale des Imp\u00f4ts - Cadastre. Mise \u00e0 jour : 2010"}}, {"type": "node", "id": 683386954, "lat": 48.8671492, "lon": 2.3245898}, {"type": "node", "id": 683386956, "lat": 48.8671784, "lon": 2.3246154}, {"type": "node", "id": 683386958, "lat": 48.8671636, "lon": 2.3246024}, {"type": "node", "id": 683387110, "lat": 48.8673093, "lon": 2.3245785}, {"type": "node", "id": 683387111, "lat": 48.8671893, "lon": 2.3244844}, {"type": "node", "id": 683387113, "lat": 48.8671992, "lon": 2.3245591}, {"type": "node", "id": 683387139, "lat": 48.8673179, "lon": 2.3246614}, {"type": "node", "id": 683387140, "lat": 48.8673183, "lon": 2.3246567}, {"type": "node", "id": 683387146, "lat": 48.8674683, "lon": 2.3247132}, {"type": "node", "id": 683387147, "lat": 48.8674933, "lon": 2.3248722}, {"type": "node", "id": 683387149, "lat": 48.8675214, "lon": 2.3247984}, {"type": "node", "id": 683387150, "lat": 48.8674998, "lon": 2.324779}, {"type": "node", "id": 683387151, "lat": 48.8674918, "lon": 2.3247987}, {"type": "node", "id": 683387152, "lat": 48.8673617, "lon": 2.324693}, {"type": "node", "id": 683387153, "lat": 48.86736, "lon": 2.3246949}, {"type": "node", "id": 683387154, "lat": 48.8674897, "lon": 2.3248699}, {"type": "node", "id": 683387165, "lat": 48.8676391, "lon": 2.3248541}, {"type": "node", "id": 683387176, "lat": 48.8676545, "lon": 2.3249373}, {"type": "node", "id": 683387177, "lat": 48.8675836, "lon": 2.3248778}, {"type": "node", "id": 683387178, "lat": 48.8675643, "lon": 2.3249313}, {"type": "node", "id": 683387184, "lat": 48.8677562, "lon": 2.3249528}, {"type": "node", "id": 683387192, "lat": 48.8673725, "lon": 2.3252356}, {"type": "node", "id": 683387203, "lat": 48.86772, "lon": 2.3250616}, {"type": "node", "id": 683387204, "lat": 48.8676357, "lon": 2.3249905}, {"type": "node", "id": 683398125, "lat": 48.86759, "lon": 2.3244576, "tags": {"amenity": "cafe", "bar": "yes", "contact:city": "Paris", "contact:housenumber": "10", "contact:postcode": "75001", "contact:street": "Rue Saint-Florentin", "name": "Le Florentin", "name:fr": "Le Florentin", "outdoor_seating": "no", "source": "cadastre-dgi-fr source : Direction G\u00e9n\u00e9rale des Imp\u00f4ts - Cadastre. Mise \u00e0 jour : 2010", "wheelchair": "no"}}, {"type": "node", "id": 683398200, "lat": 48.8676513, "lon": 2.3252769, "tags": {"addr:housenumber": "265", "source": "cadastre-dgi-fr source : Direction G\u00e9n\u00e9rale des Imp\u00f4ts - Cadastre. Mise \u00e0 jour : 2010"}}, {"type": "node", "id": 683398203, "lat": 48.8677412, "lon": 2.3249995, "tags": {"addr:housenumber": "267", "source": "cadastre-dgi-fr source : Direction G\u00e9n\u00e9rale des Imp\u00f4ts - Cadastre. Mise \u00e0 jour : 2010"}}, {"type": "node", "id": 683398604, "lat": 48.8687717, "lon": 2.3252969, "tags": {"amenity": "cafe", "check_date": "2022-10-01", "name": "Caf\u00e9 Mademoiselle", "source": "survey 2015", "wheelchair": "no"}}, {"type": "node", "id": 683408139, "lat": 48.8698259, "lon": 2.3249589}, {"type": "node", "id": 683408141, "lat": 48.8698402, "lon": 2.3249119}, {"type": "node", "id": 683408175, "lat": 48.8699578, "lon": 2.3249992}, {"type": "node", "id": 683408176, "lat": 48.8699435, "lon": 2.3250455}, {"type": "node", "id": 683408177, "lat": 48.8699649, "lon": 2.3250593}, {"type": "node", "id": 683408178, "lat": 48.8699795, "lon": 2.325014}, {"type": "node", "id": 683408179, "lat": 48.8700401, "lon": 2.3250562}, {"type": "node", "id": 683408180, "lat": 48.8700246, "lon": 2.3251044}, {"type": "node", "id": 683408184, "lat": 48.8700466, "lon": 2.32512}, {"type": "node", "id": 683408185, "lat": 48.8700535, "lon": 2.325095}, {"type": "node", "id": 683408186, "lat": 48.8700483, "lon": 2.3250924}, {"type": "node", "id": 683408187, "lat": 48.8700552, "lon": 2.3250707}, {"type": "node", "id": 683408190, "lat": 48.8701785, "lon": 2.3251591}, {"type": "node", "id": 683408191, "lat": 48.8701637, "lon": 2.3252061}, {"type": "node", "id": 683408194, "lat": 48.8701864, "lon": 2.3252224}, {"type": "node", "id": 683408195, "lat": 48.8702, "lon": 2.3251757}, {"type": "node", "id": 683408199, "lat": 48.8703177, "lon": 2.3252613}, {"type": "node", "id": 683408200, "lat": 48.8703041, "lon": 2.3253071}, {"type": "node", "id": 683417189, "lat": 48.8696129, "lon": 2.3255236}, {"type": "node", "id": 683417190, "lat": 48.8696201, "lon": 2.32551}, {"type": "node", "id": 683417192, "lat": 48.8696362, "lon": 2.325502}, {"type": "node", "id": 683417193, "lat": 48.8696486, "lon": 2.3255812}, {"type": "node", "id": 683417194, "lat": 48.8696335, "lon": 2.3255874}, {"type": "node", "id": 683417195, "lat": 48.8696224, "lon": 2.3255817}, {"type": "node", "id": 683478020, "lat": 48.8692952, "lon": 2.3249546}, {"type": "node", "id": 683478021, "lat": 48.8692943, "lon": 2.3249501}, {"type": "node", "id": 683478022, "lat": 48.8692886, "lon": 2.3249472}, {"type": "node", "id": 683478023, "lat": 48.8692854, "lon": 2.3249277}, {"type": "node", "id": 683478024, "lat": 48.8692881, "lon": 2.3249223}, {"type": "node", "id": 683478025, "lat": 48.8692881, "lon": 2.3249155}, {"type": "node", "id": 683478026, "lat": 48.8692918, "lon": 2.3249147}, {"type": "node", "id": 683478027, "lat": 48.8692932, "lon": 2.3249196}, {"type": "node", "id": 683478028, "lat": 48.8692983, "lon": 2.3249247}, {"type": "node", "id": 683478029, "lat": 48.8693009, "lon": 2.3249419}, {"type": "node", "id": 683478030, "lat": 48.8692984, "lon": 2.3249487}, {"type": "node", "id": 683478032, "lat": 48.8692991, "lon": 2.324954}, {"type": "node", "id": 683478057, "lat": 48.87044, "lon": 2.3241551}, {"type": "node", "id": 683478059, "lat": 48.8704568, "lon": 2.3241043}, {"type": "node", "id": 683478060, "lat": 48.8705181, "lon": 2.3241482}, {"type": "node", "id": 683478061, "lat": 48.8705011, "lon": 2.3242003}, {"type": "node", "id": 683512740, "lat": 48.8637312, "lon": 2.3252205}, {"type": "node", "id": 683512742, "lat": 48.8643184, "lon": 2.325679}, {"type": "node", "id": 683512744, "lat": 48.8643543, "lon": 2.3255641}, {"type": "node", "id": 683512745, "lat": 48.8638146, "lon": 2.3252821}, {"type": "node", "id": 683512747, "lat": 48.8637641, "lon": 2.3251178}, {"type": "node", "id": 683512919, "lat": 48.8644943, "lon": 2.3256653}, {"type": "node", "id": 683512921, "lat": 48.8644584, "lon": 2.3257802}, {"type": "node", "id": 685286572, "lat": 48.8673784, "lon": 2.3345368, "tags": {"amenity": "cafe", "check_date:opening_hours": "2022-12-24", "name": "Le Ventadour", "name:fr": "Le Ventadour", "opening_hours:signed": "no", "source": "cadastre-dgi-fr source : Direction G\u00e9n\u00e9rale des Imp\u00f4ts - Cadastre. Mise \u00e0 jour : 2010"}}, {"type": "node", "id": 685287165, "lat": 48.868335, "lon": 2.3352781}, {"type": "node", "id": 685287167, "lat": 48.8683357, "lon": 2.3352756}, {"type": "node", "id": 685287168, "lat": 48.86833, "lon": 2.3352725}, {"type": "node", "id": 685287170, "lat": 48.8683295, "lon": 2.3352747}, {"type": "node", "id": 685287172, "lat": 48.8683122, "lon": 2.335265}, {"type": "node", "id": 685287194, "lat": 48.8679737, "lon": 2.3356204}, {"type": "node", "id": 685287196, "lat": 48.8679956, "lon": 2.3355217}, {"type": "node", "id": 685287198, "lat": 48.86794, "lon": 2.3356047}, {"type": "node", "id": 685287200, "lat": 48.867962, "lon": 2.3355048}, {"type": "node", "id": 685287258, "lat": 48.8682496, "lon": 2.3355395}, {"type": "node", "id": 685287260, "lat": 48.8682813, "lon": 2.3355564}, {"type": "node", "id": 685287262, "lat": 48.8683174, "lon": 2.3355732}, {"type": "node", "id": 685287284, "lat": 48.8682751, "lon": 2.3354215}, {"type": "node", "id": 685287285, "lat": 48.868366, "lon": 2.3352957}, {"type": "node", "id": 685287286, "lat": 48.8683668, "lon": 2.3352923}, {"type": "node", "id": 685287287, "lat": 48.8683608, "lon": 2.335289}, {"type": "node", "id": 685287288, "lat": 48.86836, "lon": 2.3352921}, {"type": "node", "id": 685287289, "lat": 48.8683826, "lon": 2.3356068}, {"type": "node", "id": 685287290, "lat": 48.8683503, "lon": 2.3355913}, {"type": "node", "id": 685287291, "lat": 48.8684342, "lon": 2.3353334}, {"type": "node", "id": 685287293, "lat": 48.8684101, "lon": 2.3353198}, {"type": "node", "id": 685287294, "lat": 48.8684109, "lon": 2.3353164}, {"type": "node", "id": 685287296, "lat": 48.8684048, "lon": 2.3353129}, {"type": "node", "id": 685287298, "lat": 48.8684038, "lon": 2.3353169}, {"type": "node", "id": 685287300, "lat": 48.8684412, "lon": 2.335337}, {"type": "node", "id": 685287301, "lat": 48.8684588, "lon": 2.3353469}, {"type": "node", "id": 685287303, "lat": 48.8684351, "lon": 2.3353299}, {"type": "node", "id": 685287305, "lat": 48.868442, "lon": 2.3353338}, {"type": "node", "id": 685287307, "lat": 48.8683985, "lon": 2.3356133}, {"type": "node", "id": 685287319, "lat": 48.8682945, "lon": 2.3356718}, {"type": "node", "id": 685287320, "lat": 48.8683282, "lon": 2.3356889}, {"type": "node", "id": 685604399, "lat": 48.8687898, "lon": 2.3338477, "tags": {"amenity": "restaurant", "name": "Le Pastel", "source": "cadastre-dgi-fr source : Direction G\u00e9n\u00e9rale des Imp\u00f4ts - Cadastre. Mise \u00e0 jour : 2010"}}, {"type": "node", "id": 685604405, "lat": 48.868971, "lon": 2.3345642, "tags": {"amenity": "bar", "name": "Le Gaillon", "opening_hours": "Mo-Sa 11:00-15:00", "source": "cadastre-dgi-fr source : Direction G\u00e9n\u00e9rale des Imp\u00f4ts - Cadastre. Mise \u00e0 jour : 2010", "tobacco": "yes"}}, {"type": "node", "id": 685733464, "lat": 48.8683852, "lon": 2.3353064, "tags": {"addr:housenumber": "4", "source": "cadastre-dgi-fr source : Direction G\u00e9n\u00e9rale des Imp\u00f4ts - Cadastre. Mise \u00e0 jour : 2010"}}, {"type": "node", "id": 685733490, "lat": 48.8683394, "lon": 2.3357264, "tags": {"addr:housenumber": "68", "addr:street": "Passage Choiseul", "amenity": "cafe", "name": "La\u00efz\u00e9 Opera", "source": "cadastre-dgi-fr source : Direction G\u00e9n\u00e9rale des Imp\u00f4ts - Cadastre. Mise \u00e0 jour : 2010"}}, {"type": "node", "id": 685733497, "lat": 48.8684015, "lon": 2.3357877, "tags": {"amenity": "cafe", "contact:city": "Paris", "contact:housenumber": "72", "contact:postcode": "75002", "contact:street": "Passage Choiseul", "contact:website": "https://menu.tastycloud.fr/f62464649a802400d330e8535ad01936b7deb558198cc71ba6d55317c6e9fc93/menu/0?number=W2aa9xRX4", "name": "ALMA", "source": "cadastre-dgi-fr source : Direction G\u00e9n\u00e9rale des Imp\u00f4ts - Cadastre. Mise \u00e0 jour : 2010"}}, {"type": "node", "id": 685907405, "lat": 48.8693146, "lon": 2.3347338, "tags": {"amenity": "theatre", "name": "Th\u00e9\u00e2tre de la Michodi\u00e8re", "source": "cadastre-dgi-fr source : Direction G\u00e9n\u00e9rale des Imp\u00f4ts - Cadastre. Mise \u00e0 jour : 2010", "website": "http://michodiere.com/", "wikidata": "Q3527708", "wikipedia": "fr:Th\u00e9\u00e2tre de la Michodi\u00e8re"}}, {"type": "node", "id": 685907512, "lat": 48.869811, "lon": 2.3346634, "tags": {"amenity": "restaurant", "contact:city": "Paris", "contact:housenumber": "29", "contact:postcode": "75002", "contact:street": "Rue du Quatre-Septembre", "indoor_seating": "yes", "name": "Le Corner caf\u00e9", "outdoor_seating": "yes", "wheelchair": "limited"}}, {"type": "node", "id": 685954529, "lat": 48.86701, "lon": 2.3360061, "tags": {"amenity": "cafe", "contact:city": "Paris", "contact:housenumber": "30", "contact:postcode": "75002", "contact:street": "Rue des Petits Champs", "name": "Les caf\u00e9s San Jos\u00e9", "opening_hours": "Mo-Fr 07:30-18:00; Sa 10:00-18:00", "source": "cadastre-dgi-fr source : Direction G\u00e9n\u00e9rale des Imp\u00f4ts - Cadastre. Mise \u00e0 jour : 2010"}}, {"type": "node", "id": 685954592, "lat": 48.8671966, "lon": 2.3360656, "tags": {"amenity": "restaurant", "name": "Yi Ping", "opening_hours": "Mo-Su 12:00-16:00; 18:30-23:00", "phone": "+33 1 47 03 36 32", "source": "cadastre-dgi-fr source : Direction G\u00e9n\u00e9rale des Imp\u00f4ts - Cadastre. Mise \u00e0 jour : 2010"}}, {"type": "node", "id": 685954593, "lat": 48.8673167, "lon": 2.3360997, "tags": {"amenity": "restaurant", "contact:city": "Paris", "contact:housenumber": "44", "contact:phone": "+33 1 40 20 45 83", "contact:postcode": "75002", "contact:street": "Rue Sainte-Anne", "contact:website": "http://bigpicky.com", "cuisine": "korean", "name": "Gubine", "note": "means \"Honoured Guest\" in Korean", "opening_hours": "Mo-Fr 12:00-14:30, 19:00-22:30; Sa-Su 12:00-15:00, 19:00-22:30", "source": "cadastre-dgi-fr source : Direction G\u00e9n\u00e9rale des Imp\u00f4ts - Cadastre. Mise \u00e0 jour : 2010"}}, {"type": "node", "id": 685954689, "lat": 48.8672968, "lon": 2.336706, "tags": {"amenity": "cafe", "contact:city": "Paris", "contact:housenumber": "5", "contact:phone": "+33 1 42 36 39 37", "contact:postcode": "75002", "contact:street": "Rue Chabanais", "contact:website": "http://machimachi.fr", "cuisine": "bubble_tea", "name": "Machi Machi", "opening_hours": "Mo-Su 12:00-22:00", "source": "cadastre-dgi-fr source : Direction G\u00e9n\u00e9rale des Imp\u00f4ts - Cadastre. Mise \u00e0 jour : 2010"}}, {"type": "node", "id": 685954754, "lat": 48.8677062, "lon": 2.337428, "tags": {"amenity": "restaurant", "cuisine": "sushi", "disused:amenity": "restaurant", "level": "0", "name": "Sushi B", "outdoor_seating": "no", "source": "cadastre-dgi-fr source : Direction G\u00e9n\u00e9rale des Imp\u00f4ts - Cadastre. Mise \u00e0 jour : 2010", "stars": "1"}}, {"type": "node", "id": 686810054, "lat": 48.8690695, "lon": 2.3343056, "tags": {"check_date": "2023-08-25", "name": "La Fontaine Gaillon", "shop": "vacant", "source": "cadastre-dgi-fr source : Direction G\u00e9n\u00e9rale des Imp\u00f4ts - Cadastre. Mise \u00e0 jour : 2010"}}, {"type": "node", "id": 686810242, "lat": 48.8701285, "lon": 2.3349193, "tags": {"addr:city": "Paris", "addr:housenumber": "14", "addr:postcode": "75002", "addr:street": "Rue de la Michodi\u00e8re", "name": "Gaetan Romp", "operator": "Gaetan Romp", "shop": "bakery", "source": "cadastre-dgi-fr source : Direction G\u00e9n\u00e9rale des Imp\u00f4ts - Cadastre. Mise \u00e0 jour : 2010"}}, {"type": "node", "id": 687029139, "lat": 48.8702356, "lon": 2.3350586, "tags": {"amenity": "restaurant", "contact:city": "Paris", "contact:housenumber": "8", "contact:postcode": "75002", "contact:street": "Rue de Hanovre", "internet_access": "wlan", "name": "Bistrot R\u00e9gent Op\u00e9ra", "opening_hours": "Mo-Su 11:45-14:30, 18:45-22:45", "source": "survey"}}, {"type": "node", "id": 687029204, "lat": 48.8703154, "lon": 2.3358656, "tags": {"amenity": "bar", "contact:city": "Paris", "contact:housenumber": "19", "contact:postcode": "75002", "contact:street": "Rue de Choiseul", "name": "Chez Xala", "name:fr": "Chez Xala", "source": "cadastre-dgi-fr source : Direction G\u00e9n\u00e9rale des Imp\u00f4ts - Cadastre. Mise \u00e0 jour : 2010"}}, {"type": "node", "id": 687044630, "lat": 48.8706556, "lon": 2.3344487, "tags": {"addr:city": "Paris", "addr:housenumber": "32", "addr:postcode": "75002", "addr:street": "Rue Louis Le Grand", "alt_name": "Path\u00e9 Op\u00e9ra Premier", "amenity": "cinema", "brand": "Path\u00e9 Gaumont", "brand:website": "https://www.cinemaspathegaumont.com", "brand:wikidata": "Q3060526", "brand:wikipedia": "fr:Les cin\u00e9mas Path\u00e9 Gaumont", "name": "Gaumont Op\u00e9ra Premier", "operator": "Gaumont", "ref:FR:CNC": "321", "website": "https://www.cinemaspathegaumont.com/cinemas/cinema-pathe-opera", "wheelchair": "yes", "wikidata": "Q42296156"}}, {"type": "node", "id": 687044631, "lat": 48.8707437, "lon": 2.333885, "tags": {"amenity": "restaurant", "brand": "Hippopotamus", "brand:website": "http://www.hippopotamus.fr/", "brand:wikidata": "Q3136174", "brand:wikipedia": "fr:Hippopotamus (restaurant)", "cuisine": "steak_house", "indoor_seating": "yes", "name": "Hippopotamus", "opening_hours": "Mo-Th, Su 08:00-01:00; Fr, Sa 08:00-03:00", "outdoor_seating": "yes", "source": "cadastre-dgi-fr source : Direction G\u00e9n\u00e9rale des Imp\u00f4ts - Cadastre. Mise \u00e0 jour : 2010", "toilets:wheelchair": "yes", "wheelchair": "yes"}}, {"type": "node", "id": 687044641, "lat": 48.8708675, "lon": 2.3343357, "tags": {"check_date": "2023-04-08", "name": "Kiosque de Paris", "shop": "kiosk", "source": "cadastre-dgi-fr source : Direction G\u00e9n\u00e9rale des Imp\u00f4ts - Cadastre. Mise \u00e0 jour : 2010"}}, {"type": "node", "id": 687044655, "lat": 48.8673042, "lon": 2.337269}, {"type": "node", "id": 687044670, "lat": 48.8673909, "lon": 2.3373156}, {"type": "node", "id": 687044672, "lat": 48.8674281, "lon": 2.3373343}, {"type": "node", "id": 687044716, "lat": 48.8673583, "lon": 2.3376413}, {"type": "node", "id": 687044717, "lat": 48.8672316, "lon": 2.337575}, {"type": "node", "id": 687044719, "lat": 48.8672987, "lon": 2.3376102, "tags": {"addr:housenumber": "65", "source": "cadastre-dgi-fr source : Direction G\u00e9n\u00e9rale des Imp\u00f4ts - Cadastre. Mise \u00e0 jour : 2010"}}, {"type": "node", "id": 687052356, "lat": 48.8664044, "lon": 2.3386393}, {"type": "node", "id": 687052357, "lat": 48.8664275, "lon": 2.3385407}, {"type": "node", "id": 687052358, "lat": 48.8664333, "lon": 2.3385439}, {"type": "node", "id": 687052364, "lat": 48.8666533, "lon": 2.3375897}, {"type": "node", "id": 687052365, "lat": 48.8666576, "lon": 2.3375908}, {"type": "node", "id": 687052366, "lat": 48.8666691, "lon": 2.3375816}, {"type": "node", "id": 687052368, "lat": 48.8666661, "lon": 2.3375672}, {"type": "node", "id": 687052369, "lat": 48.8666651, "lon": 2.3375474}, {"type": "node", "id": 687052370, "lat": 48.8666655, "lon": 2.3375343}, {"type": "node", "id": 687052371, "lat": 48.8666717, "lon": 2.3375173, "tags": {"addr:housenumber": "12", "source": "cadastre-dgi-fr source : Direction G\u00e9n\u00e9rale des Imp\u00f4ts - Cadastre. Mise \u00e0 jour : 2010"}}, {"type": "node", "id": 687052372, "lat": 48.8666791, "lon": 2.3375008}, {"type": "node", "id": 687052373, "lat": 48.8666902, "lon": 2.3374889}, {"type": "node", "id": 687052374, "lat": 48.8667021, "lon": 2.3374818}, {"type": "node", "id": 687052375, "lat": 48.8667138, "lon": 2.3374787}, {"type": "node", "id": 687052376, "lat": 48.8667261, "lon": 2.3374809}, {"type": "node", "id": 687052377, "lat": 48.8667359, "lon": 2.337486}, {"type": "node", "id": 687052378, "lat": 48.8667482, "lon": 2.3375008}, {"type": "node", "id": 687052379, "lat": 48.8667486, "lon": 2.3375093}, {"type": "node", "id": 687052380, "lat": 48.8667529, "lon": 2.3375177}, {"type": "node", "id": 687052381, "lat": 48.8667581, "lon": 2.3375217}, {"type": "node", "id": 687052382, "lat": 48.866764, "lon": 2.3375201}, {"type": "node", "id": 687052383, "lat": 48.8667685, "lon": 2.3375137}, {"type": "node", "id": 687052384, "lat": 48.8667693, "lon": 2.3375027}, {"type": "node", "id": 687052385, "lat": 48.8665644, "lon": 2.3379649, "tags": {"addr:housenumber": "10", "source": "cadastre-dgi-fr source : Direction G\u00e9n\u00e9rale des Imp\u00f4ts - Cadastre. Mise \u00e0 jour : 2010", "wikidata": "Q3145692"}}, {"type": "node", "id": 687052386, "lat": 48.8665015, "lon": 2.3382302}, {"type": "node", "id": 687052387, "lat": 48.8665759, "lon": 2.3381587}, {"type": "node", "id": 687052388, "lat": 48.8666001, "lon": 2.3380579}, {"type": "node", "id": 687052389, "lat": 48.8665072, "lon": 2.3382332}, {"type": "node", "id": 687052390, "lat": 48.8666747, "lon": 2.3383246}, {"type": "node", "id": 687052391, "lat": 48.8666745, "lon": 2.3383218}, {"type": "node", "id": 687052392, "lat": 48.866821, "lon": 2.3381775}, {"type": "node", "id": 687052393, "lat": 48.8667965, "lon": 2.338278}, {"type": "node", "id": 687052394, "lat": 48.8666009, "lon": 2.338636}, {"type": "node", "id": 687052395, "lat": 48.8666017, "lon": 2.3386335}, {"type": "node", "id": 687052396, "lat": 48.8667006, "lon": 2.3386872}, {"type": "node", "id": 687052397, "lat": 48.866727, "lon": 2.3385727}, {"type": "node", "id": 687052398, "lat": 48.8667256, "lon": 2.3385708}, {"type": "node", "id": 687052399, "lat": 48.8667445, "lon": 2.3384925}, {"type": "node", "id": 687052400, "lat": 48.8667465, "lon": 2.3384919}, {"type": "node", "id": 687052401, "lat": 48.8667727, "lon": 2.3383786}, {"type": "node", "id": 687052402, "lat": 48.8668269, "lon": 2.3385381}, {"type": "node", "id": 687052403, "lat": 48.8668386, "lon": 2.3386179}, {"type": "node", "id": 687052405, "lat": 48.8668399, "lon": 2.3386208}, {"type": "node", "id": 687052407, "lat": 48.8668362, "lon": 2.338635}, {"type": "node", "id": 687052408, "lat": 48.8668268, "lon": 2.3386296}, {"type": "node", "id": 687052409, "lat": 48.8668269, "lon": 2.3386274}, {"type": "node", "id": 687052410, "lat": 48.8668087, "lon": 2.33862}, {"type": "node", "id": 687052411, "lat": 48.8669221, "lon": 2.3383597}, {"type": "node", "id": 687052412, "lat": 48.8669099, "lon": 2.3384103}, {"type": "node", "id": 687052413, "lat": 48.8668617, "lon": 2.338385}, {"type": "node", "id": 687052414, "lat": 48.8668445, "lon": 2.3385473}, {"type": "node", "id": 687052415, "lat": 48.8668455, "lon": 2.3385449}, {"type": "node", "id": 687052417, "lat": 48.8668563, "lon": 2.3385505}, {"type": "node", "id": 687052418, "lat": 48.8668533, "lon": 2.3385644}, {"type": "node", "id": 687052419, "lat": 48.8668511, "lon": 2.3385634}, {"type": "node", "id": 687052420, "lat": 48.8667735, "lon": 2.3387719}, {"type": "node", "id": 687052421, "lat": 48.8668209, "lon": 2.3387985}, {"type": "node", "id": 687052422, "lat": 48.8668056, "lon": 2.3388682}, {"type": "node", "id": 687052423, "lat": 48.8667506, "lon": 2.3388375}, {"type": "node", "id": 687052424, "lat": 48.866751, "lon": 2.3388337}, {"type": "node", "id": 687052425, "lat": 48.8666832, "lon": 2.3387961}, {"type": "node", "id": 687052426, "lat": 48.8666825, "lon": 2.3387987}, {"type": "node", "id": 687052428, "lat": 48.8665775, "lon": 2.3387399}, {"type": "node", "id": 687052429, "lat": 48.8665783, "lon": 2.3387369}, {"type": "node", "id": 687052432, "lat": 48.8668172, "lon": 2.3388155}, {"type": "node", "id": 687052433, "lat": 48.8665852, "lon": 2.3387442, "tags": {"addr:housenumber": "3", "source": "cadastre-dgi-fr source : Direction G\u00e9n\u00e9rale des Imp\u00f4ts - Cadastre. Mise \u00e0 jour : 2010"}}, {"type": "node", "id": 687052438, "lat": 48.8675588, "lon": 2.3379197}, {"type": "node", "id": 687052439, "lat": 48.8675598, "lon": 2.3379165}, {"type": "node", "id": 687052440, "lat": 48.867654, "lon": 2.3379671}, {"type": "node", "id": 687052441, "lat": 48.8676531, "lon": 2.337971}, {"type": "node", "id": 687052442, "lat": 48.8673523, "lon": 2.3387142}, {"type": "node", "id": 687052443, "lat": 48.8673624, "lon": 2.3387106}, {"type": "node", "id": 687052444, "lat": 48.8673616, "lon": 2.3387018}, {"type": "node", "id": 687052445, "lat": 48.8673621, "lon": 2.3386942}, {"type": "node", "id": 687052446, "lat": 48.8673641, "lon": 2.3386892}, {"type": "node", "id": 687052447, "lat": 48.8673725, "lon": 2.3386779}, {"type": "node", "id": 687052448, "lat": 48.8673777, "lon": 2.3386767}, {"type": "node", "id": 687052449, "lat": 48.867384, "lon": 2.3386785}, {"type": "node", "id": 687052450, "lat": 48.8673978, "lon": 2.3386173}, {"type": "node", "id": 687052451, "lat": 48.8675649, "lon": 2.3383372}, {"type": "node", "id": 687052452, "lat": 48.8675675, "lon": 2.3383337}, {"type": "node", "id": 687052453, "lat": 48.8675714, "lon": 2.3383212}, {"type": "node", "id": 687052454, "lat": 48.8675712, "lon": 2.338314}, {"type": "node", "id": 687052455, "lat": 48.8675692, "lon": 2.3383126}, {"type": "node", "id": 687052456, "lat": 48.8675779, "lon": 2.3382763}, {"type": "node", "id": 687052457, "lat": 48.867581, "lon": 2.3382778}, {"type": "node", "id": 687052458, "lat": 48.8675842, "lon": 2.3382703}, {"type": "node", "id": 687052459, "lat": 48.8675847, "lon": 2.3382569}, {"type": "node", "id": 687052460, "lat": 48.8675834, "lon": 2.3382546}, {"type": "node", "id": 687052461, "lat": 48.8676168, "lon": 2.3381089}, {"type": "node", "id": 687052462, "lat": 48.8677645, "lon": 2.3381875}, {"type": "node", "id": 687052463, "lat": 48.8677646, "lon": 2.3381901}, {"type": "node", "id": 687052464, "lat": 48.8678574, "lon": 2.3380774, "tags": {"addr:housenumber": "58", "source": "cadastre-dgi-fr source : Direction G\u00e9n\u00e9rale des Imp\u00f4ts - Cadastre. Mise \u00e0 jour : 2010", "wikidata": "Q3145923"}}, {"type": "node", "id": 687052465, "lat": 48.8675334, "lon": 2.3384795}, {"type": "node", "id": 687052466, "lat": 48.8676799, "lon": 2.3385572}, {"type": "node", "id": 687052467, "lat": 48.8676802, "lon": 2.3385545}, {"type": "node", "id": 687052468, "lat": 48.8676759, "lon": 2.3385524}, {"type": "node", "id": 687052469, "lat": 48.8676751, "lon": 2.3385552}, {"type": "node", "id": 687052470, "lat": 48.867776, "lon": 2.3386094}, {"type": "node", "id": 687052471, "lat": 48.8677765, "lon": 2.3386061}, {"type": "node", "id": 687052472, "lat": 48.8677727, "lon": 2.338604}, {"type": "node", "id": 687052473, "lat": 48.8677718, "lon": 2.3386069}, {"type": "node", "id": 687052474, "lat": 48.8677446, "lon": 2.3385922}, {"type": "node", "id": 687052475, "lat": 48.8677449, "lon": 2.3385892}, {"type": "node", "id": 687052476, "lat": 48.8677405, "lon": 2.3385894}, {"type": "node", "id": 687052477, "lat": 48.8677411, "lon": 2.338587}, {"type": "node", "id": 687052478, "lat": 48.8677132, "lon": 2.3385745}, {"type": "node", "id": 687052479, "lat": 48.8677137, "lon": 2.3385724}, {"type": "node", "id": 687052480, "lat": 48.8677088, "lon": 2.33857}, {"type": "node", "id": 687052481, "lat": 48.8677081, "lon": 2.3385725}, {"type": "node", "id": 687052482, "lat": 48.8678808, "lon": 2.3382513}, {"type": "node", "id": 687052483, "lat": 48.8678815, "lon": 2.3382484}, {"type": "node", "id": 687052486, "lat": 48.8680288, "lon": 2.338327}, {"type": "node", "id": 687052487, "lat": 48.8680666, "lon": 2.3381865}, {"type": "node", "id": 687052489, "lat": 48.8680672, "lon": 2.3381835}, {"type": "node", "id": 687052490, "lat": 48.8681624, "lon": 2.3382356}, {"type": "node", "id": 687052491, "lat": 48.8680047, "lon": 2.3384366}, {"type": "node", "id": 687052492, "lat": 48.868002, "lon": 2.3384353}, {"type": "node", "id": 687052493, "lat": 48.8679926, "lon": 2.3384833}, {"type": "node", "id": 687052494, "lat": 48.8679902, "lon": 2.3384838}, {"type": "node", "id": 687052495, "lat": 48.8679896, "lon": 2.3384972}, {"type": "node", "id": 687052496, "lat": 48.8679821, "lon": 2.3385329}, {"type": "node", "id": 687052497, "lat": 48.8679797, "lon": 2.3385342}, {"type": "node", "id": 687052498, "lat": 48.8679783, "lon": 2.3385409}, {"type": "node", "id": 687052500, "lat": 48.86798, "lon": 2.3385424}, {"type": "node", "id": 687052501, "lat": 48.8679711, "lon": 2.3385812}, {"type": "node", "id": 687052502, "lat": 48.8679693, "lon": 2.3385806}, {"type": "node", "id": 687052503, "lat": 48.867968, "lon": 2.3385888}, {"type": "node", "id": 687052504, "lat": 48.8679717, "lon": 2.3385916}, {"type": "node", "id": 687052505, "lat": 48.8679472, "lon": 2.3386999}, {"type": "node", "id": 687052507, "lat": 48.8681299, "lon": 2.3383844}, {"type": "node", "id": 687052509, "lat": 48.8681274, "lon": 2.3383832}, {"type": "node", "id": 687052510, "lat": 48.8681241, "lon": 2.338398, "tags": {"addr:housenumber": "5", "source": "cadastre-dgi-fr source : Direction G\u00e9n\u00e9rale des Imp\u00f4ts - Cadastre. Mise \u00e0 jour : 2010"}}, {"type": "node", "id": 687052512, "lat": 48.8673011, "lon": 2.338989}, {"type": "node", "id": 687052513, "lat": 48.8672913, "lon": 2.3389837}, {"type": "node", "id": 687052521, "lat": 48.8673595, "lon": 2.338718}, {"type": "node", "id": 687052523, "lat": 48.867273, "lon": 2.3391024}, {"type": "node", "id": 687052524, "lat": 48.8672733, "lon": 2.3391013}, {"type": "node", "id": 687052529, "lat": 48.8673043, "lon": 2.3391198, "tags": {"addr:housenumber": "5b", "source": "cadastre-dgi-fr source : Direction G\u00e9n\u00e9rale des Imp\u00f4ts - Cadastre. Mise \u00e0 jour : 2010"}}, {"type": "node", "id": 687052531, "lat": 48.8674756, "lon": 2.3392229}, {"type": "node", "id": 687052532, "lat": 48.8674772, "lon": 2.3392157}, {"type": "node", "id": 687052534, "lat": 48.8675165, "lon": 2.339244, "tags": {"addr:housenumber": "5t", "source": "cadastre-dgi-fr source : Direction G\u00e9n\u00e9rale des Imp\u00f4ts - Cadastre. Mise \u00e0 jour : 2010"}}, {"type": "node", "id": 687052535, "lat": 48.8676616, "lon": 2.3393176}, {"type": "node", "id": 687052536, "lat": 48.8676603, "lon": 2.3393233}, {"type": "node", "id": 687052537, "lat": 48.8675869, "lon": 2.3392817}, {"type": "node", "id": 687052539, "lat": 48.8675855, "lon": 2.3392865}, {"type": "node", "id": 687052540, "lat": 48.8675492, "lon": 2.3392663}, {"type": "node", "id": 687052541, "lat": 48.8675492, "lon": 2.3392609}, {"type": "node", "id": 687052542, "lat": 48.8677882, "lon": 2.3393875, "tags": {"addr:housenumber": "7", "source": "cadastre-dgi-fr source : Direction G\u00e9n\u00e9rale des Imp\u00f4ts - Cadastre. Mise \u00e0 jour : 2010"}}, {"type": "node", "id": 687052543, "lat": 48.8678713, "lon": 2.3394304}, {"type": "node", "id": 687052544, "lat": 48.8678706, "lon": 2.339433}, {"type": "node", "id": 687052546, "lat": 48.8680456, "lon": 2.3387511}, {"type": "node", "id": 687052547, "lat": 48.8680479, "lon": 2.3387523}, {"type": "node", "id": 687052548, "lat": 48.8678995, "lon": 2.3394182}, {"type": "node", "id": 687052549, "lat": 48.8678906, "lon": 2.3394301}, {"type": "node", "id": 687052550, "lat": 48.8678786, "lon": 2.3394331}, {"type": "node", "id": 687052551, "lat": 48.8680313, "lon": 2.3388267, "tags": {"addr:housenumber": "3", "source": "cadastre-dgi-fr source : Direction G\u00e9n\u00e9rale des Imp\u00f4ts - Cadastre. Mise \u00e0 jour : 2010"}}, {"type": "node", "id": 687052552, "lat": 48.86794, "lon": 2.3392365, "tags": {"addr:housenumber": "1", "source": "cadastre-dgi-fr source : Direction G\u00e9n\u00e9rale des Imp\u00f4ts - Cadastre. Mise \u00e0 jour : 2010"}}, {"type": "node", "id": 687076221, "lat": 48.8693514, "lon": 2.3369547, "tags": {"brand": "Carrefour Market", "brand:wikidata": "Q2689639", "brand:wikipedia": "fr:Carrefour Market", "description": "Devenu Carrefour entre mars 2020 et juillet 2021", "name": "Carrefour Market", "shop": "supermarket"}}, {"type": "node", "id": 687096291, "lat": 48.8695377, "lon": 2.3372875}, {"type": "node", "id": 687096310, "lat": 48.8697224, "lon": 2.337282}, {"type": "node", "id": 687096336, "lat": 48.8698415, "lon": 2.3372778}, {"type": "node", "id": 687096338, "lat": 48.8699273, "lon": 2.3372907}, {"type": "node", "id": 687096348, "lat": 48.8695178, "lon": 2.3376587}, {"type": "node", "id": 687096350, "lat": 48.8695276, "lon": 2.3374762, "tags": {"addr:housenumber": "12", "source": "cadastre-dgi-fr source : Direction G\u00e9n\u00e9rale des Imp\u00f4ts - Cadastre. Mise \u00e0 jour : 2010"}}, {"type": "node", "id": 687096355, "lat": 48.869669, "lon": 2.3376554}, {"type": "node", "id": 687096357, "lat": 48.8696523, "lon": 2.3375448}, {"type": "node", "id": 687096359, "lat": 48.8696523, "lon": 2.33753}, {"type": "node", "id": 687096361, "lat": 48.8696626, "lon": 2.3375299}, {"type": "node", "id": 687096362, "lat": 48.8696623, "lon": 2.3374887}, {"type": "node", "id": 687096364, "lat": 48.8696518, "lon": 2.337489}, {"type": "node", "id": 687096366, "lat": 48.8696507, "lon": 2.3373967}, {"type": "node", "id": 687096368, "lat": 48.8696621, "lon": 2.3373747}, {"type": "node", "id": 687096370, "lat": 48.8697453, "lon": 2.3373703}, {"type": "node", "id": 687096372, "lat": 48.8697583, "lon": 2.3373913}, {"type": "node", "id": 687096373, "lat": 48.8697621, "lon": 2.3375425}, {"type": "node", "id": 687096375, "lat": 48.8697492, "lon": 2.3375613}, {"type": "node", "id": 687096377, "lat": 48.8696642, "lon": 2.3375623}, {"type": "node", "id": 687096378, "lat": 48.8698967, "lon": 2.3376498}, {"type": "node", "id": 687096379, "lat": 48.8699081, "lon": 2.3376492}, {"type": "node", "id": 687096476, "lat": 48.8704283, "lon": 2.3371521, "tags": {"amenity": "cafe", "name": "Le Mexikk"}}, {"type": "node", "id": 687096611, "lat": 48.8712809, "lon": 2.337147, "tags": {"amenity": "cafe", "name": "Le Gramont", "name:fr": "Le Gramont", "source": "cadastre-dgi-fr source : Direction G\u00e9n\u00e9rale des Imp\u00f4ts - Cadastre. Mise \u00e0 jour : 2010"}}, {"type": "node", "id": 687096749, "lat": 48.8708761, "lon": 2.3376397}, {"type": "node", "id": 687096751, "lat": 48.8708747, "lon": 2.337638}, {"type": "node", "id": 687096753, "lat": 48.870877, "lon": 2.3376261}, {"type": "node", "id": 687096754, "lat": 48.8708862, "lon": 2.3376305}, {"type": "node", "id": 687096756, "lat": 48.8708907, "lon": 2.3376072}, {"type": "node", "id": 687096758, "lat": 48.8709058, "lon": 2.3376132}, {"type": "node", "id": 687096760, "lat": 48.8709176, "lon": 2.3375477}, {"type": "node", "id": 687096765, "lat": 48.8708449, "lon": 2.3378542}, {"type": "node", "id": 687096787, "lat": 48.8708364, "lon": 2.3378502}, {"type": "node", "id": 687096790, "lat": 48.8708376, "lon": 2.3378393}, {"type": "node", "id": 687096793, "lat": 48.8708393, "lon": 2.3378383}, {"type": "node", "id": 687096795, "lat": 48.8708501, "lon": 2.3377803}, {"type": "node", "id": 687096797, "lat": 48.8708489, "lon": 2.3377786}, {"type": "node", "id": 687096800, "lat": 48.8708508, "lon": 2.3377679}, {"type": "node", "id": 687096801, "lat": 48.8708524, "lon": 2.3377677}, {"type": "node", "id": 687096803, "lat": 48.8708626, "lon": 2.3377103}, {"type": "node", "id": 687096805, "lat": 48.8708618, "lon": 2.3377087}, {"type": "node", "id": 687096807, "lat": 48.8708636, "lon": 2.3376973}, {"type": "node", "id": 687096809, "lat": 48.8708655, "lon": 2.337697}, {"type": "node", "id": 687096811, "lat": 48.8708573, "lon": 2.33774, "tags": {"addr:housenumber": "2", "source": "cadastre-dgi-fr source : Direction G\u00e9n\u00e9rale des Imp\u00f4ts - Cadastre. Mise \u00e0 jour : 2010"}}, {"type": "node", "id": 687096813, "lat": 48.8708456, "lon": 2.3379486}, {"type": "node", "id": 687096815, "lat": 48.8708567, "lon": 2.3378842}, {"type": "node", "id": 687096817, "lat": 48.8708419, "lon": 2.3378777}, {"type": "node", "id": 687096819, "lat": 48.8709549, "lon": 2.3379942}, {"type": "node", "id": 687096820, "lat": 48.8709558, "lon": 2.3379911}, {"type": "node", "id": 687096835, "lat": 48.8711402, "lon": 2.3376419, "tags": {"addr:housenumber": "4b", "source": "cadastre-dgi-fr source : Direction G\u00e9n\u00e9rale des Imp\u00f4ts - Cadastre. Mise \u00e0 jour : 2010"}}, {"type": "node", "id": 687096851, "lat": 48.8711034, "lon": 2.3380521, "tags": {"addr:housenumber": "5", "addr:street": "Rue Favart", "name": "Op\u00e9ra Comique - entr\u00e9e administrative et PMR", "name:en": "Op\u00e9ra Comique - administration and handicap access", "office": "government", "source": "cadastre-dgi-fr source : Direction G\u00e9n\u00e9rale des Imp\u00f4ts - Cadastre. Mise \u00e0 jour : 2010"}}, {"type": "node", "id": 687096897, "lat": 48.8705949, "lon": 2.3395281, "tags": {"amenity": "restaurant", "contact:city": "Paris", "contact:email": "lesaotico@orange.fr", "contact:housenumber": "96", "contact:phone": "+33 1 42 96 03 20", "contact:postcode": "75002", "contact:street": "Rue de Richelieu", "contact:website": "https://saotico.com/", "cuisine": "french;fine_dining", "delivery": "yes", "diet:gluten_free": "yes", "diet:healthy": "yes", "diet:lactose_free": "yes", "diet:meat": "yes", "diet:raw": "yes", "diet:vegetarian": "yes", "name": "Le S\u00e2otico", "opening_hours": "Mo-Sa 09:30-18:00", "outdoor_seating": "sidewalk", "takeaway": "yes"}}, {"type": "node", "id": 687096908, "lat": 48.8714078, "lon": 2.3378085, "tags": {"amenity": "restaurant", "name": "Le Marivaux", "source": "cadastre-dgi-fr source : Direction G\u00e9n\u00e9rale des Imp\u00f4ts - Cadastre. Mise \u00e0 jour : 2010"}}, {"type": "node", "id": 687096910, "lat": 48.8713868, "lon": 2.3377461}, {"type": "node", "id": 687096927, "lat": 48.8715373, "lon": 2.3380244}, {"type": "node", "id": 687096929, "lat": 48.8715328, "lon": 2.3380224}, {"type": "node", "id": 687096931, "lat": 48.8715294, "lon": 2.3380028}, {"type": "node", "id": 687096932, "lat": 48.8715322, "lon": 2.3379969}, {"type": "node", "id": 687096934, "lat": 48.8715318, "lon": 2.3379921}, {"type": "node", "id": 687096936, "lat": 48.871536, "lon": 2.33799}, {"type": "node", "id": 687096938, "lat": 48.8715375, "lon": 2.3379952}, {"type": "node", "id": 687096940, "lat": 48.8715426, "lon": 2.3379986}, {"type": "node", "id": 687096942, "lat": 48.8715461, "lon": 2.3380165}, {"type": "node", "id": 687096943, "lat": 48.8715433, "lon": 2.3380226}, {"type": "node", "id": 687096945, "lat": 48.8715387, "lon": 2.338029}, {"type": "node", "id": 687096946, "lat": 48.8715435, "lon": 2.3380282}, {"type": "node", "id": 687096947, "lat": 48.8713139, "lon": 2.338139}, {"type": "node", "id": 687096952, "lat": 48.8713145, "lon": 2.3381356}, {"type": "node", "id": 687720855, "lat": 48.8685222, "lon": 2.3395486}, {"type": "node", "id": 687720934, "lat": 48.8686112, "lon": 2.3394941}, {"type": "node", "id": 687720937, "lat": 48.8685438, "lon": 2.3396072}, {"type": "node", "id": 687720960, "lat": 48.8685752, "lon": 2.339625}, {"type": "node", "id": 687720979, "lat": 48.8685613, "lon": 2.3394728}, {"type": "node", "id": 687720992, "lat": 48.8685316, "lon": 2.3393828}, {"type": "node", "id": 687720995, "lat": 48.8684788, "lon": 2.3395996}, {"type": "node", "id": 687721030, "lat": 48.8686054, "lon": 2.3394908}, {"type": "node", "id": 687721054, "lat": 48.8685779, "lon": 2.3396259}, {"type": "node", "id": 687721064, "lat": 48.8685356, "lon": 2.3394915}, {"type": "node", "id": 687721092, "lat": 48.8684427, "lon": 2.3397498}, {"type": "node", "id": 687721152, "lat": 48.8685327, "lon": 2.3397991}, {"type": "node", "id": 687721183, "lat": 48.8684826, "lon": 2.3395946}, {"type": "node", "id": 687721255, "lat": 48.8684901, "lon": 2.3397757, "tags": {"addr:housenumber": "19", "source": "cadastre-dgi-fr source : Direction G\u00e9n\u00e9rale des Imp\u00f4ts - Cadastre. Mise \u00e0 jour : 2010"}}, {"type": "node", "id": 687721347, "lat": 48.8686195, "lon": 2.3394321}, {"type": "node", "id": 687721352, "lat": 48.8686097, "lon": 2.3394997}, {"type": "node", "id": 687721369, "lat": 48.8685785, "lon": 2.3396232}, {"type": "node", "id": 687750878, "lat": 48.8691957, "lon": 2.3392086, "tags": {"amenity": "bar", "check_date": "2023-04-10", "description": "Bar \u00e0 Tapas", "indoor_seating": "yes", "name": "A. Noste", "outdoor_seating": "yes", "source": "survey"}}, {"type": "node", "id": 687750911, "lat": 48.8690729, "lon": 2.3399905, "tags": {"amenity": "restaurant", "check_date": "2023-03-19", "internet_access": "wlan", "name": "Mori Venice Bar"}}, {"type": "node", "id": 687750940, "lat": 48.8691872, "lon": 2.3393294, "tags": {"amenity": "restaurant", "check_date": "2023-04-10", "name": "Le Bistrot des Colonnes", "source": "cadastre-dgi-fr source : Direction G\u00e9n\u00e9rale des Imp\u00f4ts - Cadastre. Mise \u00e0 jour : 2010"}}, {"type": "node", "id": 687751001, "lat": 48.8693708, "lon": 2.339716, "tags": {"amenity": "bar", "name": "Le Louis d'Or", "source": "cadastre-dgi-fr source : Direction G\u00e9n\u00e9rale des Imp\u00f4ts - Cadastre. Mise \u00e0 jour : 2010"}}, {"type": "node", "id": 687751044, "lat": 48.8692514, "lon": 2.3401242, "tags": {"amenity": "restaurant", "check_date": "2023-03-19", "fax": "+33149270878", "name": "Le Vaudeville", "phone": "+33140200462", "website": "https://www.vaudevilleparis.com/"}}, {"type": "node", "id": 687892377, "lat": 48.8718517, "lon": 2.3402879}, {"type": "node", "id": 687892379, "lat": 48.8716597, "lon": 2.3407937, "tags": {"addr:city": "Paris", "addr:housenumber": "17", "addr:postcode": "75002", "addr:street": "Boulevard Montmartre", "amenity": "restaurant", "bar": "yes", "cuisine": "french", "name": "Au P'tit Paname", "opening_hours:covid19": "closed"}}, {"type": "node", "id": 687892386, "lat": 48.8718576, "lon": 2.3402542}, {"type": "node", "id": 687892480, "lat": 48.8718609, "lon": 2.3402611}, {"type": "node", "id": 687892527, "lat": 48.8718475, "lon": 2.3402568}, {"type": "node", "id": 687892531, "lat": 48.8718541, "lon": 2.3402477}, {"type": "node", "id": 687892718, "lat": 48.8718581, "lon": 2.3402495}, {"type": "node", "id": 687892757, "lat": 48.8718484, "lon": 2.3402816}, {"type": "node", "id": 687892786, "lat": 48.8716938, "lon": 2.33972, "tags": {"amenity": "cafe", "name": "Le Cardinal", "name:fr": "Le Cardinal", "source": "cadastre-dgi-fr source : Direction G\u00e9n\u00e9rale des Imp\u00f4ts - Cadastre. Mise \u00e0 jour : 2010"}}, {"type": "node", "id": 687892833, "lat": 48.8718456, "lon": 2.3402738}, {"type": "node", "id": 687892835, "lat": 48.8718534, "lon": 2.3402517}, {"type": "node", "id": 687892841, "lat": 48.8714764, "lon": 2.3413564, "tags": {"addr:housenumber": "53", "addr:street": "Rue Vivienne", "amenity": "bar", "name": "Chez Carmen", "name:fr": "Chez Carmen"}}, {"type": "node", "id": 687892972, "lat": 48.8718583, "lon": 2.3402787}, {"type": "node", "id": 687893016, "lat": 48.8718479, "lon": 2.3402857}, {"type": "node", "id": 687893112, "lat": 48.8718527, "lon": 2.340284}, {"type": "node", "id": 687929444, "lat": 48.8700648, "lon": 2.3412875}, {"type": "node", "id": 687929449, "lat": 48.8695934, "lon": 2.3421167, "tags": {"contact:city": "Paris", "contact:housenumber": "2", "contact:postcode": "75002", "contact:street": "Place de la Bourse", "name": "Armurerie de la Bourse", "shop": "outdoor", "source": "cadastre-dgi-fr source : Direction G\u00e9n\u00e9rale des Imp\u00f4ts - Cadastre. Mise \u00e0 jour : 2010"}}, {"type": "node", "id": 687929457, "lat": 48.8700789, "lon": 2.3413846}, {"type": "node", "id": 687929498, "lat": 48.870191, "lon": 2.341407}, {"type": "node", "id": 687929505, "lat": 48.8700715, "lon": 2.3413334, "tags": {"addr:housenumber": "12", "source": "cadastre-dgi-fr source : Direction G\u00e9n\u00e9rale des Imp\u00f4ts - Cadastre. Mise \u00e0 jour : 2010"}}, {"type": "node", "id": 687929543, "lat": 48.8701807, "lon": 2.3413017}, {"type": "node", "id": 687929595, "lat": 48.8701476, "lon": 2.3412965}, {"type": "node", "id": 687929678, "lat": 48.8701761, "lon": 2.3413273}, {"type": "node", "id": 687929681, "lat": 48.8702608, "lon": 2.341489, "tags": {"addr:city": "Paris", "addr:housenumber": "7", "addr:postcode": "75002", "addr:street": "Rue Saint-Marc", "name": "Coiffure Auffray J\u00e9r\u00f4me", "shop": "hairdresser", "source": "cadastre-dgi-fr source : Direction G\u00e9n\u00e9rale des Imp\u00f4ts - Cadastre. Mise \u00e0 jour : 2010"}}, {"type": "node", "id": 687929691, "lat": 48.8701979, "lon": 2.3413345}, {"type": "node", "id": 687993966, "lat": 48.8688297, "lon": 2.3421626, "tags": {"amenity": "restaurant", "cuisine": "french"}}, {"type": "node", "id": 687994239, "lat": 48.8675928, "lon": 2.3409167, "tags": {"addr:housenumber": "2", "addr:street": "Rue de la Banque", "amenity": "restaurant", "cuisine": "mediterranean", "name": "Liza", "opening_hours": "Mo-Fr 00:00-24:00; Sa 19:00-22:30; Su 12:00-16:00", "source": "cadastre-dgi-fr source : Direction G\u00e9n\u00e9rale des Imp\u00f4ts - Cadastre. Mise \u00e0 jour : 2010"}}, {"type": "node", "id": 687994245, "lat": 48.8664997, "lon": 2.3400225, "tags": {"amenity": "restaurant", "name": "Le Bougainville", "source": "cadastre-dgi-fr source : Direction G\u00e9n\u00e9rale des Imp\u00f4ts - Cadastre. Mise \u00e0 jour : 2010"}},