{"version": 0.6, "generator": "Overpass API 0.7.61.5 4133829e", "osm3s": {"timestamp_osm_base": "2023-12-09T22:47:15Z", "copyright": "The data included in this document is from www.openstreetmap.org. The data is made available under ODbL."}, "elements": [{"type": "node", "id": 21662099, "lat": 48.851834, "lon": 2.3500556, "tags": {"amenity": "ferry_terminal", "cargo": "passengers", "ferry": "yes", "harbour": "yes", "harbour:operator": "Batobus", "name": "Notre-Dame", "operator": "Batobus", "port_of_entry": "no", "public_transport": "station", "website": "https://www.batobus.com/fr/station/notre-dame", "wheelchair": "no"}}, {"type": "node", "id": 26824135, "lat": 48.8448057, "lon": 2.3734794, "tags": {"SNCF:stop_name": "Paris-Gare-de-Lyon", "alt_name": "Paris - Gare de Lyon", "bench": "yes", "name": "Gare de Lyon", "name:ru": "\u041b\u0438\u043e\u043d\u0441\u043a\u0438\u0439 \u0432\u043e\u043a\u0437\u0430\u043b", "name:uk": "\u041b\u0456\u043e\u043d\u0441\u044c\u043a\u0438\u0439 \u0432\u043e\u043a\u0437\u0430\u043b", "note": "Please do not add the tag public_transport=station, it is already on the way that defines the footprint of the station", "opening_hours": "Mo-Su 04:45-01:30", "operator": "SNCF", "railway": "station", "railway:ref": "PLY", "railway:ref:DB": "XFPG", "ref:FR:STIF": "21958", "ref:FR:uic8": "87686006", "ref:SNCF": "PLY", "shelter": "yes", "source": "STIF - 12/2016", "train": "yes", "uic_ref": "8768600", "wheelchair": "yes", "wikidata": "Q747541", "wikipedia": "fr:Paris-Gare-de-Lyon"}}, {"type": "node", "id": 27233126, "lat": 48.8975882, "lon": 2.2973511, "tags": {"STIF:zone": "2", "alt_name": "Clichy - Levallois-Perret", "name": "Clichy-Levallois", "note": "Please do not add the tag public_transport=station, it is already on the way that defines the footprint of the station", "official_name": "CLICHY LEVALLOIS", "operator": "SNCF", "railway": "station", "ref": "973 000", "ref:FR:STIF": "41137", "ref:FR:uic8": "87381129", "source": "survey", "uic_ref": "8738112", "wikidata": "Q2533437", "wikipedia": "fr:Gare de Clichy - Levallois"}}, {"type": "node", "id": 27362249, "lat": 48.8720617, "lon": 2.3004148, "tags": {"STIF:zone": "1", "name": "George V", "name:ru": "\u0413\u0435\u043e\u0440\u0433 V", "old_name": "Alma", "public_transport": "stop_position", "railway": "station", "ref:FR:FANTOIR": "75108S191F", "ref:FR:RATP": "1846", "ref:FR:STIF": "22084", "source": "STIF - 12/2016", "station": "subway", "subway": "yes", "type:RATP": "metro", "wheelchair": "no", "wikidata": "Q690975", "wikipedia": "fr:George V (m\u00e9tro de Paris)"}}, {"type": "node", "id": 27362251, "lat": 48.8690339, "lon": 2.3099266, "tags": {"STIF:zone": "1", "name": "Franklin D. Roosevelt", "name:ru": "\u0424\u0440\u0430\u043d\u043a\u043b\u0438\u043d \u0414. \u0420\u0443\u0437\u0432\u0435\u043b\u044c\u0442", "old_name": "Marbeuf Rond Point des Champs-\u00c9lys\u00e9es", "public_transport": "station", "railway": "station", "ref:FR:FANTOIR": "75108S169G", "ref:FR:RATP": "1924", "ref:FR:STIF": "21931", "source": "survey", "station": "subway", "subway": "yes", "type:RATP": "metro", "wheelchair": "no", "wikidata": "Q1445234", "wikipedia": "fr:Franklin D. Roosevelt (m\u00e9tro de Paris)"}}, {"type": "node", "id": 27362258, "lat": 48.8645025, "lon": 2.3296589, "tags": {"STIF:zone": "1", "name": "Tuileries", "name:de": "Tuilerien", "name:ru": "\u0422\u044e\u0438\u043b\u044c\u0440\u0438", "public_transport": "station", "railway": "station", "ref:FR:FANTOIR": "75101S567R", "ref:FR:RATP": "1640", "ref:FR:STIF": "22075", "source": "STIF - 12/2016", "station": "subway", "subway": "yes", "type:RATP": "metro", "wheelchair": "no", "wikidata": "Q666009", "wikipedia": "fr:Tuileries (m\u00e9tro de Paris)"}}, {"type": "node", "id": 27362260, "lat": 48.8608027, "lon": 2.3411235, "tags": {"STIF:zone": "1", "check_date:wheelchair": "2023-03-13", "name": "Louvre \u2014 Rivoli", "name:ru": "\u041b\u0443\u0432\u0440 \u2014 \u0420\u0438\u0432\u043e\u043b\u0438", "public_transport": "stop_position", "railway": "station", "ref:FR:FANTOIR": "75101S293T", "ref:FR:RATP": "1809", "ref:FR:STIF": "22081", "source": "STIF - 12/2016", "station": "subway", "subway": "yes", "type:RATP": "metro", "wheelchair": "no", "wikidata": "Q1461794", "wikipedia": "fr:Louvre - Rivoli (m\u00e9tro de Paris)"}}, {"type": "node", "id": 27371862, "lat": 48.8587782, "lon": 2.3474106, "tags": {"STIF:zone": "1", "name": "Ch\u00e2telet", "name:ru": "\u0428\u0430\u0442\u043b\u0435", "old_name": "Pont Notre-Dame;Pont Notre-Dame \u2013 Pont au Change", "operator": "RATP", "public_transport": "station", "railway": "station", "ref:FR:FANTOIR": "75101S090X;75104S090J", "ref:FR:RATP": "1964", "ref:FR:STIF": "21959", "source": "STIF - 12/2016", "station": "subway", "subway": "yes", "type:RATP": "metro", "wheelchair": "no", "wikidata": "Q601484", "wikipedia": "fr:Ch\u00e2telet (m\u00e9tro de Paris)"}}, {"type": "node", "id": 27371867, "lat": 48.8553907, "lon": 2.3604173, "tags": {"STIF:zone": "1", "addr:city": "Paris", "alt_name": "Saint-Paul (Le Marais)", "name": "Saint-Paul", "public_transport": "station", "railway": "station", "ref:FR:FANTOIR": "75104S523E", "ref:FR:RATP": "1695", "ref:FR:STIF": "22074", "source": "STIF - 12/2016", "station": "subway", "subway": "yes", "type:RATP": "metro", "wheelchair": "no", "wikidata": "Q1535005", "wikipedia": "fr:Saint-Paul (m\u00e9tro de Paris)"}}, {"type": "node", "id": 34909170, "lat": 48.8489809, "lon": 2.2981916, "tags": {"STIF:zone": "1", "name": "La Motte-Picquet - Grenelle", "public_transport": "station", "railway": "station", "ref:FR:FANTOIR": "75115S283C", "ref:FR:RATP": "1705;1874", "ref:FR:STIF": "21969", "source": "STIF - 12/2016", "station": "subway", "subway": "yes", "type:RATP": "metro", "wheelchair": "limited", "wikidata": "Q1415143", "wikipedia": "fr:La Motte-Picquet - Grenelle (m\u00e9tro de Paris)"}}, {"type": "node", "id": 34909171, "lat": 48.8475232, "lon": 2.3029457, "tags": {"STIF:zone": "1", "name": "Cambronne", "public_transport": "station", "railway": "station", "ref:FR:FANTOIR": "75115S072Y", "ref:FR:RATP": "1940", "ref:FR:STIF": "22176", "source": "STIF - 12/2016", "station": "subway", "subway": "yes", "type:RATP": "metro", "wheelchair": "no", "wikidata": "Q1028368", "wikipedia": "fr:Cambronne (m\u00e9tro de Paris)"}}, {"type": "node", "id": 34909187, "lat": 48.8504095, "lon": 2.2936611, "tags": {"STIF:zone": "1", "name": "Dupleix", "public_transport": "station", "railway": "station", "ref:FR:FANTOIR": "75115S126G", "ref:FR:RATP": "1907", "ref:FR:STIF": "22171", "source": "STIF - 12/2016", "station": "subway", "subway": "yes", "type:RATP": "metro", "wheelchair": "no", "wikidata": "Q1266508", "wikipedia": "fr:Dupleix (m\u00e9tro de Paris)"}}, {"type": "node", "id": 65331500, "lat": 48.8400624, "lon": 2.3191085, "tags": {"STIF:zone": "1", "alt_name": "Gare Montparnasse 1 & 2", "highspeed": "yes", "name": "Gare Montparnasse", "name:br": "Gare Montparnasse", "note": "Please do not add the tag public_transport=station, it is already on the way that defines the footprint of the station", "railway": "station", "railway:ref:DB": "XFPMP", "ref:FR:STIF": "41203", "ref:FR:uic8": "87391003", "train": "yes", "uic_ref": "8739100", "wheelchair": "no", "wikidata": "Q631114", "wikipedia": "fr:Gare de Paris-Montparnasse"}}, {"type": "node", "id": 134305198, "lat": 48.8373115, "lon": 2.2966255, "tags": {"STIF:zone": "1", "name": "Convention", "name:ru": "\u041a\u043e\u043d\u0432\u0430\u043d\u0441\u044c\u043e\u043d", "public_transport": "station", "railway": "station", "ref:FR:FANTOIR": "75115S100D", "ref:FR:RATP": "1887;1605", "ref:FR:STIF": "22058", "source": "STIF - 12/2016", "station": "subway", "subway": "yes", "type:RATP": "metro", "wheelchair": "no", "wikidata": "Q630642", "wikipedia": "fr:Convention (m\u00e9tro de Paris)"}}, {"type": "node", "id": 154788912, "lat": 48.8628261, "lon": 2.3138373, "tags": {"STIF:zone": "1", "name": "Invalides", "name:fr": "Invalides", "name:ru": "\u042d\u043d\u0432\u0430\u043b\u0438\u0434", "note": "Please do not add the tag public_transport=station, it is already on the way that defines the footprint of the station", "operator": "SNCF", "railway": "station", "ref:FR:RATP": "5602", "ref:FR:STIF": "41208", "ref:FR:uic8": "87393033", "train": "yes", "type:RATP": "rer", "uic_ref": "8739303", "wheelchair": "yes", "wikidata": "Q2208443", "wikipedia": "fr:Gare des Invalides"}}, {"type": "node", "id": 166237000, "lat": 48.836743, "lon": 2.3784465}, {"type": "node", "id": 166237577, "lat": 48.8368826, "lon": 2.3786911}, {"type": "node", "id": 166238073, "lat": 48.8352789, "lon": 2.3802909}, {"type": "node", "id": 220289389, "lat": 48.8388977, "lon": 2.3306662, "tags": {"STIF:zone": "1", "heritage": "3", "heritage:operator": "mhs", "mhs:inscription_date": "1978", "name": "Raspail", "operator": "RATP", "public_transport": "stop_position", "railway": "station", "ref:FR:FANTOIR": "75114S483B", "ref:FR:RATP": "1660", "ref:FR:STIF": "22155", "ref:mhs": "PA00086632", "source": "STIF - 12/2016", "source:heritage": "data.gouv.fr:Minist\u00e8re de la Culture - 08/2011", "station": "subway", "subway": "yes", "type:RATP": "metro", "wheelchair": "no", "wikidata": "Q1578058", "wikipedia": "fr:Raspail (m\u00e9tro de Paris)"}}, {"type": "node", "id": 235374383, "lat": 48.8370444, "lon": 2.3728619, "tags": {"STIF:zone": "1", "name": "Quai de la Gare", "public_transport": "station", "railway": "station", "ref:FR:FANTOIR": "75113S471T", "ref:FR:RATP": "1742", "ref:FR:STIF": "22161", "source": "STIF - 12/2016", "station": "subway", "type:RATP": "metro", "wheelchair": "no", "wikidata": "Q1969659", "wikipedia": "fr:Quai de la Gare (m\u00e9tro de Paris)"}}, {"type": "node", "id": 235377792, "lat": 48.8842416, "lon": 2.3670741, "tags": {"STIF:zone": "1", "name": "Stalingrad", "name:ru": "\u0421\u0442\u0430\u043b\u0438\u043d\u0433\u0440\u0430\u0434", "old_name": "Aubervilliers", "public_transport": "station", "railway": "station", "ref:FR:FANTOIR": "75119S536F", "ref:FR:RATP": "1627", "ref:FR:STIF": "22107", "source": "STIF - 12/2016", "station": "subway", "subway": "yes", "type:RATP": "metro", "wheelchair": "yes", "wikidata": "Q1418821", "wikipedia": "fr:Stalingrad (m\u00e9tro de Paris)"}}, {"type": "node", "id": 241928557, "lat": 48.847611, "lon": 2.3955668, "tags": {"STIF:zone": "1", "check_date:wheelchair": "2021-10-06", "name": "Nation", "public_transport": "station", "railway": "station", "ref:FR:FANTOIR": "75112S361W", "ref:FR:RATP": "1758", "ref:FR:STIF": "22073", "source": "STIF - 12/2016", "station": "subway", "type:RATP": "metro", "wheelchair": "no", "wikidata": "Q1418711", "wikipedia": "fr:Nation (m\u00e9tro de Paris)"}}, {"type": "node", "id": 243357000, "lat": 48.8783961, "lon": 2.3812008, "tags": {"STIF:zone": "1", "name": "Buttes Chaumont", "public_transport": "stop_position", "railway": "station", "ref:FR:FANTOIR": "75119S055H", "ref:FR:RATP": "1936", "ref:FR:STIF": "24683", "source": "STIF - 12/2016", "station": "subway", "subway": "yes", "type:RATP": "metro", "wheelchair": "no", "wikidata": "Q1018164", "wikipedia": "fr:Buttes Chaumont (m\u00e9tro de Paris)"}}, {"type": "node", "id": 243358029, "lat": 48.8809263, "lon": 2.3739077, "tags": {"STIF:zone": "1", "name": "Bolivar", "public_transport": "stop_position", "railway": "station", "ref:FR:FANTOIR": "75119S046Y", "ref:FR:RATP": "2014", "ref:FR:STIF": "24685", "source": "STIF - 12/2016", "station": "subway", "subway": "yes", "type:RATP": "metro", "wikidata": "Q891362", "wikipedia": "fr:Bolivar (m\u00e9tro de Paris)"}}, {"type": "node", "id": 243486950, "lat": 48.8518166, "lon": 2.4013757, "tags": {"STIF:zone": "1", "check_date:wheelchair": "2022-08-23", "name": "Buzenval", "public_transport": "station", "railway": "station", "ref:FR:FANTOIR": "75120S057F", "ref:FR:RATP": "1937", "ref:FR:STIF": "25084", "source": "STIF - 12/2016", "station": "subway", "subway": "yes", "type:RATP": "metro", "wheelchair": "no", "wikidata": "Q1018331", "wikipedia": "fr:Buzenval (m\u00e9tro de Paris)"}}, {"type": "node", "id": 243490761, "lat": 48.8667079, "lon": 2.3833739, "tags": {"STIF:zone": "1", "name": "M\u00e9nilmontant", "public_transport": "stop_position", "railway": "station", "ref:FR:FANTOIR": "75111S328P", "ref:FR:RATP": "1754", "ref:FR:STIF": "22116", "source": "STIF - 12/2016", "station": "subway", "subway": "yes", "type:RATP": "metro", "wheelchair": "no", "wikidata": "Q119911", "wikipedia": "fr:M\u00e9nilmontant (m\u00e9tro de Paris)"}}, {"type": "node", "id": 243490762, "lat": 48.8629496, "lon": 2.3874348, "tags": {"STIF:zone": "1", "name": "P\u00e8re Lachaise", "name:ru": "\u041f\u0435\u0440-\u041b\u0430\u0448\u0435\u0437", "public_transport": "station", "railway": "station", "ref:FR:FANTOIR": "75120P017N;75111P018D;75111P017C", "ref:FR:RATP": "1741", "ref:FR:STIF": "22112", "source": "STIF - 12/2016", "station": "subway", "subway": "yes", "type:RATP": "metro", "wikidata": "Q176582", "wikipedia": "fr:P\u00e8re Lachaise (m\u00e9tro de Paris)"}}, {"type": "node", "id": 243490763, "lat": 48.8582563, "lon": 2.3901666, "tags": {"STIF:zone": "1", "name": "Philippe Auguste", "public_transport": "stop_position", "railway": "station", "ref:FR:FANTOIR": "75111S412F", "ref:FR:RATP": "1784", "ref:FR:STIF": "22113", "source": "STIF - 12/2016", "station": "subway", "subway": "yes", "type:RATP": "metro", "wheelchair": "no", "wikidata": "Q1785459", "wikipedia": "fr:Philippe Auguste (m\u00e9tro de Paris)"}}, {"type": "node", "id": 243490764, "lat": 48.8563062, "lon": 2.3944977, "tags": {"STIF:zone": "1", "name": "Alexandre Dumas", "old_name": "Bagnolet", "public_transport": "station", "railway": "station", "ref:FR:FANTOIR": "75111S003L", "ref:FR:RATP": "1978", "ref:FR:STIF": "22122", "source": "STIF - 12/2016", "station": "subway", "subway": "yes", "type:RATP": "metro", "wheelchair": "no", "wikidata": "Q1577219", "wikipedia": "fr:Alexandre Dumas (m\u00e9tro de Paris)"}}, {"type": "node", "id": 243493845, "lat": 48.872053, "lon": 2.3769446, "tags": {"STIF:zone": "1", "alt_name": "Belleville-Commune de Paris 1871", "name": "Belleville", "public_transport": "station", "railway": "station", "ref:FR:FANTOIR": "75110S038B", "ref:FR:RATP": "2004", "ref:FR:STIF": "21998", "source": "STIF - 12/2016", "station": "subway", "subway": "yes", "type:RATP": "metro", "wheelchair": "no", "wikidata": "Q815946", "wikipedia": "fr:Belleville (m\u00e9tro de Paris)"}}, {"type": "node", "id": 243493846, "lat": 48.869062, "lon": 2.3804698, "tags": {"STIF:zone": "1", "name": "Couronnes", "public_transport": "stop_position", "railway": "station", "ref:FR:FANTOIR": "75111S106Y", "ref:FR:RATP": "1893", "ref:FR:STIF": "22126", "source": "STIF - 12/2016", "station": "subway", "subway": "yes", "type:RATP": "metro", "wheelchair": "no", "wikidata": "Q1137705", "wikipedia": "fr:Couronnes (m\u00e9tro de Paris)"}}, {"type": "node", "id": 243493916, "lat": 48.8774215, "lon": 2.3710197, "tags": {"STIF:zone": "1", "name": "Colonel Fabien", "old_name": "Combat", "public_transport": "stop_position", "railway": "station", "ref:FR:FANTOIR": "75110S097R", "ref:FR:RATP": "1972", "ref:FR:STIF": "22120", "source": "STIF - 12/2016", "station": "subway", "subway": "yes", "type:RATP": "metro", "wheelchair": "no", "wikidata": "Q1110656", "wikipedia": "fr:Colonel Fabien (m\u00e9tro de Paris)"}}, {"type": "node", "id": 243496025, "lat": 48.8834886, "lon": 2.3336343, "tags": {"STIF:zone": "1", "name": "Blanche", "public_transport": "station", "railway": "station", "ref:FR:FANTOIR": "75118S043B", "ref:FR:RATP": "2009", "ref:FR:STIF": "22125", "source": "STIF - 12/2016", "station": "subway", "subway": "yes", "type:RATP": "metro", "wheelchair": "no", "wikidata": "Q881406", "wikipedia": "fr:Blanche (m\u00e9tro de Paris)"}}, {"type": "node", "id": 243496027, "lat": 48.8834466, "lon": 2.3272634, "tags": {"STIF:zone": "1", "name": "Place de Clichy", "name:ru": "\u041f\u043b\u044f\u0441-\u0434\u0435-\u041a\u043b\u0438\u0448\u0438", "public_transport": "station", "railway": "station", "ref:FR:FANTOIR": "75117S416L;75109S416S", "ref:FR:RATP": "1790", "ref:FR:STIF": "22115", "source": "STIF - 12/2016", "station": "subway", "subway": "yes", "type:RATP": "metro", "wheelchair": "no", "wikidata": "Q610012", "wikipedia": "fr:Place de Clichy (m\u00e9tro de Paris)"}}, {"type": "node", "id": 243496028, "lat": 48.8822428, "lon": 2.3213306, "tags": {"STIF:zone": "1", "name": "Rome", "public_transport": "station", "railway": "station", "ref:FR:FANTOIR": "75117S492U", "ref:FR:RATP": "1670", "ref:FR:STIF": "22110", "source": "STIF - 12/2016", "station": "subway", "subway": "yes", "survey:date": "2017-09-20", "type:RATP": "metro", "wheelchair": "no", "wikidata": "Q567806", "wikipedia": "fr:Rome (m\u00e9tro de Paris)"}}, {"type": "node", "id": 243496029, "lat": 48.8811181, "lon": 2.3149118, "tags": {"STIF:zone": "1", "name": "Villiers", "name:ru": "\u0412\u0438\u043b\u044c\u0435", "public_transport": "station", "railway": "station", "ref:FR:FANTOIR": "75117S589Z", "ref:FR:RATP": "1654", "ref:FR:STIF": "22027", "source": "STIF - 12/2016", "station": "subway", "subway": "yes", "type:RATP": "metro", "wheelchair": "no", "wikidata": "Q1511335", "wikipedia": "fr:Villiers (m\u00e9tro de Paris)"}}, {"type": "node", "id": 243496030, "lat": 48.8802919, "lon": 2.3085925, "tags": {"STIF:zone": "1", "check_date:wheelchair": "2023-09-02", "name": "Monceau", "public_transport": "station", "railway": "station", "ref:FR:FANTOIR": "75108S334L", "ref:FR:RATP": "1749", "ref:FR:STIF": "22117", "source": "STIF - 12/2016", "station": "subway", "type:RATP": "metro", "wheelchair": "no", "wikidata": "Q1717241", "wikipedia": "fr:Monceau (m\u00e9tro de Paris)"}}, {"type": "node", "id": 243507789, "lat": 48.8643338, "lon": 2.3794812, "tags": {"STIF:zone": "1", "name": "Rue Saint-Maur", "name:ru": "\u0420\u044e-\u0421\u0435\u043d-\u041c\u043e\u0440", "public_transport": "station", "railway": "station", "ref:FR:FANTOIR": "75111S520Y", "ref:FR:RATP": "1693", "ref:FR:STIF": "22025", "source": "STIF - 12/2016", "station": "subway", "subway": "yes", "type:RATP": "metro", "wheelchair": "no", "wikidata": "Q1315757", "wikipedia": "fr:Rue Saint-Maur (m\u00e9tro de Paris)"}}, {"type": "node", "id": 243507790, "lat": 48.8653786, "lon": 2.3739112, "tags": {"STIF:zone": "1", "name": "Parmentier", "name:ru": "\u041f\u0430\u0440\u043c\u0430\u043d\u0442\u044c\u0435", "public_transport": "station", "railway": "station", "ref:FR:FANTOIR": "75111S404X", "ref:FR:RATP": "1779", "ref:FR:STIF": "22019", "source": "STIF - 12/2016", "station": "subway", "subway": "yes", "type:RATP": "metro", "wheelchair": "no", "wikidata": "Q1970334", "wikipedia": "fr:Parmentier (m\u00e9tro de Paris)"}}, {"type": "node", "id": 243507792, "lat": 48.8664991, "lon": 2.3607114, "tags": {"STIF:zone": "1", "addr:city": "Paris", "name": "Temple", "name:fr": "Temple", "name:ru": "\u0422\u0430\u043c\u043f\u043b\u044c", "public_transport": "station", "railway": "station", "ref:FR:FANTOIR": "75103S562B", "ref:FR:RATP": "1634", "ref:FR:STIF": "22026", "source": "STIF - 12/2016", "station": "subway", "subway": "yes", "type:RATP": "metro", "wheelchair": "no", "wikidata": "Q1660212", "wikipedia": "fr:Temple (m\u00e9tro de Paris)"}}, {"type": "node", "id": 243507793, "lat": 48.8654414, "lon": 2.3561316, "tags": {"STIF:zone": "1", "addr:city": "Paris", "check_date:wheelchair": "2021-02-01", "name": "Arts et M\u00e9tiers", "name:ru": "\u0410\u0440-\u044d-\u041c\u0435\u0442\u044c\u0435", "operator": "RATP", "public_transport": "station", "railway": "station", "ref:FR:RATP": "1988", "ref:FR:STIF": "21994", "source": "STIF - 12/2016", "station": "subway", "subway": "yes", "type:RATP": "metro", "wheelchair": "no", "wikidata": "Q713944", "wikipedia": "fr:Arts et M\u00e9tiers (m\u00e9tro de Paris)"}}, {"type": "node", "id": 243510334, "lat": 48.8686333, "lon": 2.3414766, "tags": {"STIF:zone": "1", "name": "Bourse", "name:ru": "\u0411\u0443\u0440\u0441", "public_transport": "station", "railway": "station", "ref:FR:FANTOIR": "75102S052B", "ref:FR:RATP": "1930", "ref:FR:STIF": "22033", "source": "STIF - 12/2016", "station": "subway", "type:RATP": "metro", "wheelchair": "no", "wikidata": "Q895259", "wikipedia": "fr:Bourse (m\u00e9tro de Paris)"}}, {"type": "node", "id": 243510335, "lat": 48.8695954, "lon": 2.3359026, "tags": {"STIF:zone": "1", "name": "Quatre Septembre", "name:fr": "Quatre Septembre", "name:ru": "\u041a\u0430\u0442\u0440-\u0421\u0435\u043f\u0442\u0430\u043c\u0431\u0440", "public_transport": "station", "railway": "station", "ref:FR:FANTOIR": "75102S473J", "ref:FR:RATP": "1744", "ref:FR:STIF": "22024", "source": "STIF - 12/2016", "station": "subway", "subway": "yes", "type:RATP": "metro", "wheelchair": "no", "wikidata": "Q945229", "wikipedia": "fr:Quatre-Septembre (m\u00e9tro de Paris)"}}, {"type": "node", "id": 243510336, "lat": 48.8706446, "lon": 2.33233, "tags": {"STIF:zone": "1", "name": "Op\u00e9ra", "name:ru": "\u041e\u043f\u0435\u0440\u0430", "railway": "station", "ref:FR:FANTOIR": "75109S383F", "ref:FR:RATP": "1771", "ref:FR:STIF": "22030", "source": "STIF - 12/2016", "station": "subway", "type:RATP": "metro", "wheelchair": "no", "wikidata": "Q1392037", "wikipedia": "fr:Op\u00e9ra (m\u00e9tro de Paris)"}}, {"type": "node", "id": 243510337, "lat": 48.8736792, "lon": 2.3273189, "tags": {"STIF:zone": "1", "name": "Havre - Caumartin", "name:fr": "Havre - Caumartin", "name:ru": "\u0413\u0430\u0432\u0440 \u2014 \u041a\u043e\u043c\u0430\u0440\u0442\u0435\u043d", "old_name": "Caumartin", "public_transport": "station", "railway": "station", "ref:FR:FANTOIR": "75109S223G", "ref:FR:RATP": "1852", "ref:FR:STIF": "21906;21926", "station": "subway", "subway": "yes", "type:RATP": "metro", "wheelchair": "no", "wikidata": "Q1511406", "wikipedia": "fr:Havre - Caumartin (m\u00e9tro de Paris)"}}, {"type": "node", "id": 243510678, "lat": 48.8828567, "lon": 2.3092267, "tags": {"STIF:zone": "1", "name": "Malesherbes", "name:ru": "\u041c\u0430\u043b\u044c\u0437\u0435\u0440\u0431", "public_transport": "station", "railway": "station", "ref:FR:FANTOIR": "75117S319F", "ref:FR:RATP": "1826", "ref:FR:STIF": "22031", "source": "STIF - 12/2016", "station": "subway", "subway": "yes", "type:RATP": "metro", "wheelchair": "no", "wikidata": "Q1784153", "wikipedia": "fr:Malesherbes (m\u00e9tro de Paris)"}}, {"type": "node", "id": 243510679, "lat": 48.884005, "lon": 2.3037188, "tags": {"STIF:zone": "1", "addr:city": "Paris", "heritage": "3", "heritage:operator": "mhs", "mhs:inscription_date": "1978", "name": "Wagram", "name:ru": "\u0412\u0430\u0433\u0440\u0430\u043c", "public_transport": "station", "railway": "station", "ref:FR:FANTOIR": "75117S601M", "ref:FR:RATP": "1658", "ref:FR:STIF": "22028", "ref:mhs": "PA00086728", "source": "STIF - 12/2016", "source:heritage": "data.gouv.fr:Minist\u00e8re de la Culture - 08/2011", "station": "subway", "subway": "yes", "type:RATP": "metro", "wheelchair": "no", "wikidata": "Q944564", "wikipedia": "fr:Wagram (m\u00e9tro de Paris)"}}, {"type": "node", "id": 243510680, "lat": 48.8848146, "lon": 2.2982736, "tags": {"STIF:zone": "1", "name": "Pereire", "name:ru": "\u041f\u0435\u0440\u0435\u0440", "public_transport": "station", "railway": "station", "ref:FR:FANTOIR": "75117S409D", "ref:FR:RATP": "1740", "ref:FR:STIF": "22021;463228", "station": "subway", "subway": "yes", "type:RATP": "metro", "wheelchair": "no", "wikidata": "Q670081", "wikipedia": "fr:Pereire (m\u00e9tro de Paris)"}}, {"type": "node", "id": 243510681, "lat": 48.8859272, "lon": 2.2934906, "tags": {"STIF:zone": "1", "name": "Porte de Champerret", "name:ru": "\u041f\u043e\u0440\u0442-\u0434\u0435-\u0428\u0430\u043d\u043f\u0435\u0440\u0440\u0435", "public_transport": "stop_position", "railway": "halt", "ref:FR:FANTOIR": "75117S430B", "ref:FR:RATP": "1722", "ref:FR:STIF": "411230", "source": "STIF - 12/2016", "subway": "yes", "type:RATP": "metro", "wheelchair": "no", "wikidata": "Q167371", "wikipedia": "fr:Porte de Champerret (m\u00e9tro de Paris)"}}, {"type": "node", "id": 244494486, "lat": 48.8395785, "lon": 2.3012923, "tags": {"STIF:zone": "1", "alt_name": "Vaugirard (Adolphe Ch\u00e9rioux)", "name": "Vaugirard", "name:fr": "Vaugirard", "name:ru": "\u0412\u043e\u0436\u0438\u0440\u0430\u0440", "public_transport": "station", "railway": "station", "ref:FR:FANTOIR": "75115S584E", "ref:FR:RATP": "1645;1604", "ref:FR:STIF": "22047", "source": "STIF - 12/2016", "station": "subway", "subway": "yes", "type:RATP": "metro", "wheelchair": "no", "wikidata": "Q769848", "wikipedia": "fr:Vaugirard (m\u00e9tro de Paris)"}}, {"type": "node", "id": 244494489, "lat": 48.8415194, "lon": 2.3080031, "tags": {"STIF:zone": "1", "check_date:wheelchair": "2021-05-25", "name": "Volontaires", "name:ru": "\u0412\u043e\u043b\u043e\u043d\u0442\u0435\u0440", "public_transport": "station", "railway": "station", "ref:FR:FANTOIR": "75115S590L", "ref:FR:RATP": "1656;1603", "ref:FR:STIF": "22048", "source": "STIF - 12/2016", "station": "subway", "subway": "yes", "type:RATP": "metro", "wheelchair": "no", "wikidata": "Q238902", "wikipedia": "fr:Volontaires (m\u00e9tro de Paris)"}}, {"type": "node", "id": 244494496, "lat": 48.8444916, "lon": 2.317965, "tags": {"STIF:zone": "1", "check_date:wheelchair": "2021-06-30", "name": "Falgui\u00e8re", "name:ru": "\u0424\u0430\u043b\u044c\u0433\u044c\u0435\u0440", "operator": "RATP", "public_transport": "station", "railway": "station", "ref:FR:FANTOIR": "75115S162W", "ref:FR:RATP": "1601;1918", "ref:FR:STIF": "22056", "source": "SNCF - 06/2013", "station": "subway", "subway": "yes", "type:RATP": "metro", "wheelchair": "no", "wikidata": "Q568013", "wikipedia": "fr:Falgui\u00e8re (m\u00e9tro de Paris)"}}, {"type": "node", "id": 245250755, "lat": 48.8468433, "lon": 2.3166286, "tags": {"STIF:zone": "1", "check_date:wheelchair": "2021-05-03", "name": "Duroc", "name:fr": "Duroc", "name:ru": "\u0414\u044e\u0440\u043e\u043a", "public_transport": "station", "railway": "station", "ref:FR:FANTOIR": "75107S127T", "ref:FR:RATP": "1908", "ref:FR:STIF": "22229", "source": "STIF - 12/2016", "station": "subway", "subway": "yes", "type:RATP": "metro", "wheelchair": "no", "wikidata": "Q1267446", "wikipedia": "fr:Duroc (m\u00e9tro de Paris)"}}, {"type": "node", "id": 245455187, "lat": 48.8413382, "lon": 2.4009129, "tags": {"STIF:zone": "1", "name": "Bel-Air", "public_transport": "station", "railway": "station", "ref:FR:FANTOIR": "75112S037U", "ref:FR:RATP": "2003", "ref:FR:STIF": "22177", "source": "STIF - 12/2016", "station": "subway", "subway": "yes", "type:RATP": "metro", "wheelchair": "no", "wikidata": "Q815061", "wikipedia": "fr:Bel-Air (m\u00e9tro de Paris)"}}, {"type": "node", "id": 249335596, "lat": 48.8905061, "lon": 2.3599967, "tags": {"STIF:zone": "1", "name": "Marx Dormoy", "old_name": "Torcy", "public_transport": "stop_position", "railway": "station", "ref:FR:FANTOIR": "75118S324G", "ref:FR:RATP": "1831", "ref:FR:STIF": "22053", "source": "STIF - 12/2016", "station": "subway", "subway": "yes", "type:RATP": "metro", "wheelchair": "no", "wikidata": "Q1622759", "wikipedia": "fr:Marx Dormoy (m\u00e9tro de Paris)"}}, {"type": "node", "id": 249524554, "lat": 48.9163939, "lon": 2.2946589, "tags": {"STIF:zone": "1", "addr:city": "Asni\u00e8res-sur-Seine", "addr:postcode": "92600", "alt_name": "Asni\u00e8res \u2013 Gennevilliers \u2013 Gabriel P\u00e9ri", "name": "Gabriel P\u00e9ri", "network": "M\u00e9tro de Paris;RATP", "old_name": "Asni\u00e8res \u2013 Gennevilliers", "operator": "RATP", "public_transport": "station", "railway": "station", "ref:FR:RATP": "22443", "ref:FR:STIF": "22234", "source": "STIF - 12/2016", "station": "subway", "type:RATP": "metro", "wikidata": "Q645691", "wikipedia": "fr:Gabriel P\u00e9ri (m\u00e9tro de Paris)"}}, {"type": "node", "id": 251387813, "lat": 48.8711191, "lon": 2.3607546, "tags": {"STIF:zone": "1", "name": "Jacques Bonsergent", "old_name": "Lancry", "public_transport": "stop_position", "railway": "station", "ref:FR:FANTOIR": "75110S251H", "ref:FR:RATP": "1859", "ref:FR:STIF": "22011", "source": "STIF - 12/2016", "station": "subway", "subway": "yes", "type:RATP": "metro", "wheelchair": "yes", "wikidata": "Q1677923", "wikipedia": "fr:Jacques Bonsergent (m\u00e9tro de Paris)"}}, {"type": "node", "id": 256441194, "lat": 48.8526992, "lon": 2.4061094, "tags": {"STIF:zone": "1", "check_date:wheelchair": "2021-07-15", "name": "Mara\u00eechers", "public_transport": "station", "railway": "station", "ref:FR:FANTOIR": "75120S320S", "ref:FR:RATP": "55372", "ref:FR:STIF": "21936", "source": "STIF - 12/2016", "station": "subway", "subway": "yes", "type:RATP": "metro", "wheelchair": "no", "wikidata": "Q631846", "wikipedia": "fr:Mara\u00eechers (m\u00e9tro de Paris)"}}, {"type": "node", "id": 256442845, "lat": 48.8558145, "lon": 2.4237108, "tags": {"STIF:zone": "1", "name": "Robespierre", "name:ru": "\u0420\u043e\u0431\u0435\u0441\u043f\u044c\u0435\u0440", "public_transport": "stop_position", "railway": "station", "ref:FR:RATP": "1667", "ref:FR:STIF": "21942", "source": "STIF - 12/2016", "station": "subway", "subway": "yes", "type:RATP": "metro", "wheelchair": "no", "wikidata": "Q1784141", "wikipedia": "fr:Robespierre (m\u00e9tro de Paris)"}}, {"type": "node", "id": 256443205, "lat": 48.8525808, "lon": 2.3887914, "tags": {"STIF:zone": "1", "name": "Rue des Boulets", "public_transport": "stop_position", "railway": "station", "ref:FR:FANTOIR": "75111S050M", "ref:FR:RATP": "1673", "ref:FR:STIF": "22442", "source": "STIF - 12/2016", "station": "subway", "subway": "yes", "type:RATP": "metro", "wheelchair": "no", "wikidata": "Q1969472", "wikipedia": "fr:Rue des Boulets (m\u00e9tro de Paris)"}}, {"type": "node", "id": 256443438, "lat": 48.8547441, "lon": 2.3853565, "tags": {"STIF:zone": "1", "alt_name": "Charonne (place du 6-F\u00e9vrier-1962)", "name": "Charonne", "public_transport": "station", "railway": "station", "ref:FR:FANTOIR": "75111S085A", "ref:FR:RATP": "1955", "ref:FR:STIF": "21934", "source": "STIF - 12/2016", "station": "subway", "subway": "yes", "type:RATP": "metro", "wheelchair": "no", "wikidata": "Q948012", "wikipedia": "fr:Charonne (m\u00e9tro de Paris)"}}, {"type": "node", "id": 256895321, "lat": 48.858158, "lon": 2.3798044, "tags": {"STIF:zone": "1", "alt_name": "Voltaire (L\u00e9on Blum)", "name": "Voltaire", "public_transport": "station", "railway": "station", "ref:FR:FANTOIR": "75111S591A", "ref:FR:RATP": "1657", "ref:FR:STIF": "21916", "source": "survey 2013", "station": "subway", "subway": "yes", "type:RATP": "metro", "wheelchair": "no", "wikidata": "Q1789126", "wikipedia": "fr:Voltaire (m\u00e9tro de Paris)"}}, {"type": "node", "id": 256895609, "lat": 48.8610516, "lon": 2.3747956, "tags": {"STIF:zone": "1", "name": "Saint-Ambroise", "public_transport": "station", "railway": "station", "ref:FR:FANTOIR": "75111S510M", "ref:FR:RATP": "1680", "ref:FR:STIF": "21910", "source": "STIF - 12/2016", "station": "subway", "subway": "yes", "type:RATP": "metro", "wheelchair": "no", "wikidata": "Q1450538", "wikipedia": "fr:Saint-Ambroise (m\u00e9tro de Paris)"}}, {"type": "node", "id": 256896059, "lat": 48.8640529, "lon": 2.3694165, "tags": {"STIF:zone": "1", "name": "Oberkampf", "public_transport": "station", "railway": "station", "ref:FR:FANTOIR": "75111S381X", "ref:FR:RATP": "1769", "ref:FR:STIF": "21925", "source": "STIF - 12/2016", "station": "subway", "subway": "yes", "type:RATP": "metro", "wheelchair": "no", "wikidata": "Q1578030", "wikipedia": "fr:Oberkampf (m\u00e9tro de Paris)"}}, {"type": "node", "id": 256897078, "lat": 48.8706233, "lon": 2.3487498, "tags": {"STIF:zone": "1", "name": "Bonne Nouvelle", "public_transport": "station", "railway": "station", "ref:FR:FANTOIR": "75102P003Z;75102P004A", "ref:FR:RATP": "2015", "ref:FR:STIF": "21933", "source": "STIF - 12/2016", "station": "subway", "subway": "yes", "type:RATP": "metro", "wheelchair": "no", "wikidata": "Q892720", "wikipedia": "fr:Bonne-Nouvelle (m\u00e9tro de Paris)"}}, {"type": "node", "id": 256897079, "lat": 48.8714412, "lon": 2.3434953, "tags": {"STIF:zone": "1", "name": "Grands Boulevards", "old_name": "Montmartre; rue Montmartre", "public_transport": "station", "railway": "station", "ref:FR:RATP": "1671", "ref:FR:STIF": "21909", "source": "STIF - 12/2016", "station": "subway", "subway": "yes", "type:RATP": "metro", "wheelchair": "no", "wikidata": "Q1543053", "wikipedia": "fr:Grands Boulevards (m\u00e9tro de Paris)"}}, {"type": "node", "id": 256897554, "lat": 48.874471, "lon": 2.3217921, "tags": {"STIF:zone": "1", "name": "Saint-Augustin", "public_transport": "stop_position", "railway": "station", "ref:FR:FANTOIR": "75108S511D", "ref:FR:RATP": "1681", "ref:FR:STIF": "21911", "source": "STIF - 12/2016", "station": "subway", "subway": "yes", "type:RATP": "metro", "wheelchair": "no", "wikidata": "Q649273", "wikipedia": "fr:Saint-Augustin (m\u00e9tro de Paris)"}}, {"type": "node", "id": 257512478, "lat": 48.8513956, "lon": 2.3435268, "tags": {"name": "Boulevard Saint-Michel", "railway": "subway_entrance", "ref": "1", "wheelchair": "no"}}, {"type": "node", "id": 257628954, "lat": 48.8532876, "lon": 2.3436351, "tags": {"heritage": "3", "heritage:operator": "mhs", "level": "-1", "mhs:inscription_date": "1978", "name": "Fontaine Saint-Michel", "railway": "subway_entrance", "ref": "3", "ref:mhs": "PA00088648", "source:heritage": "data.gouv.fr:Minist\u00e8re de la Culture - 08/2011", "wheelchair": "no", "wikidata": "Q22924604", "wikipedia": "fr:Saint-Michel (m\u00e9tro de Paris)"}}, {"type": "node", "id": 260078615, "lat": 48.8465067, "lon": 2.351764, "tags": {"STIF:zone": "1", "addr:city": "Paris", "name": "Cardinal Lemoine", "public_transport": "station", "railway": "station", "ref:FR:FANTOIR": "75105S074W", "ref:FR:RATP": "1942", "ref:FR:STIF": "21984", "source": "STIF - 12/2016", "station": "subway", "subway": "yes", "train": "yes", "type:RATP": "metro", "wheelchair": "no", "wikidata": "Q607342", "wikipedia": "fr:Cardinal Lemoine (m\u00e9tro de Paris)"}}, {"type": "node", "id": 260078619, "lat": 48.8501068, "lon": 2.3483706, "tags": {"STIF:zone": "1", "name": "Maubert - Mutualit\u00e9", "public_transport": "station", "railway": "station", "ref:FR:FANTOIR": "75105S327W", "ref:FR:RATP": "1834", "ref:FR:STIF": "21975", "source": "STIF - 12/2016", "station": "subway", "subway": "yes", "type:RATP": "metro", "wheelchair": "no", "wikidata": "Q1789145", "wikipedia": "fr:Maubert - Mutualit\u00e9 (m\u00e9tro de Paris)"}}, {"type": "node", "id": 260078622, "lat": 48.8511065, "lon": 2.3442097, "tags": {"STIF:zone": "1", "name": "Cluny-La Sorbonne", "old_name": "Cluny", "operator": "RATP Ile de France Mobilit\u00e9s", "public_transport": "station", "railway": "station", "ref:FR:FANTOIR": "75105S108H", "ref:FR:RATP": "54244", "ref:FR:STIF": "21983", "source": "STIF - 12/2016", "station": "subway", "subway": "yes", "type:RATP": "metro", "wheelchair": "limited", "wikidata": "Q1103432", "wikipedia": "fr:Cluny - La Sorbonne (m\u00e9tro de Paris)"}}, {"type": "node", "id": 260079322, "lat": 48.8528857, "lon": 2.3349394, "tags": {"STIF:zone": "1", "addr:city": "Paris", "name": "Mabillon", "public_transport": "station", "railway": "station", "ref:FR:FANTOIR": "75106S311Z", "ref:FR:RATP": "1812", "ref:FR:STIF": "21973", "source": "STIF - 12/2016", "station": "subway", "type:RATP": "metro", "wheelchair": "no", "wikidata": "Q974510", "wikipedia": "fr:Mabillon (m\u00e9tro de Paris)"}}, {"type": "node", "id": 260231833, "lat": 48.8426775, "lon": 2.2917792, "tags": {"STIF:zone": "1", "addr:city": "Paris", "name": "F\u00e9lix Faure", "public_transport": "station", "railway": "station", "ref:FR:FANTOIR": "75115S163X", "ref:FR:RATP": "1612;1925", "ref:FR:STIF": "22189", "source": "STIF - 12/2016", "station": "subway", "subway": "yes", "type:RATP": "metro", "wheelchair": "no", "wikidata": "Q1479476", "wikipedia": "fr:F\u00e9lix Faure (m\u00e9tro de Paris)"}}, {"type": "node", "id": 260762378, "lat": 48.8390379, "lon": 2.3897217, "tags": {"STIF:zone": "1", "addr:city": "Paris", "name": "Dugommier", "old_name": "Charenton", "public_transport": "station", "railway": "station", "ref:FR:FANTOIR": "75112S125P", "ref:FR:RATP": "1906", "ref:FR:STIF": "22182", "source": "STIF - 12/2016", "station": "subway", "subway": "yes", "type:RATP": "metro", "wheelchair": "no", "wikidata": "Q602615", "wikipedia": "fr:Dugommier (m\u00e9tro de Paris)"}}, {"type": "node", "id": 260762540, "lat": 48.8401549, "lon": 2.3799474, "tags": {"STIF:zone": "1", "name": "Bercy", "operator": "RATP", "public_transport": "station", "railway": "station", "ref:FR:FANTOIR": "75112S040X", "ref:FR:RATP": "2005", "ref:FR:STIF": "22178", "station": "subway", "type:RATP": "metro", "wheelchair": "yes", "wikidata": "Q818853", "wikipedia": "fr:Bercy (m\u00e9tro de Paris)"}}, {"type": "node", "id": 260763892, "lat": 48.8421022, "lon": 2.3202714, "tags": {"STIF:zone": "1", "name": "Montparnasse-Bienven\u00fce", "name:ru": "\u041c\u043e\u043d\u043f\u0430\u0440\u043d\u0430\u0441 \u2014 \u0411\u044c\u0435\u043d\u0432\u0435\u043d\u044e", "public_transport": "station", "railway": "station", "ref:FR:RATP": "1751", "ref:FR:STIF": "22157", "source": "STIF - 12/2016", "station": "subway", "subway": "yes", "type:RATP": "metro", "wheelchair": "no", "wikidata": "Q764465", "wikipedia": "fr:Montparnasse - Bienven\u00fce (m\u00e9tro de Paris)"}}, {"type": "node", "id": 260764273, "lat": 48.8429314, "lon": 2.3125908, "tags": {"STIF:zone": "1", "check_date:wheelchair": "2021-04-29", "name": "Pasteur", "name:ru": "\u041f\u0430\u0441\u0442\u0435\u0440", "public_transport": "station", "railway": "station", "ref:FR:FANTOIR": "75115S406L", "ref:FR:RATP": "1602;1781", "ref:FR:STIF": "22039", "source": "STIF - 12/2016", "station": "subway", "subway": "yes", "type:RATP": "metro", "wheelchair": "no", "wikidata": "Q1578103", "wikipedia": "fr:Pasteur (m\u00e9tro de Paris)"}}, {"type": "node", "id": 260765385, "lat": 48.8716801, "lon": 2.2935185, "tags": {"STIF:zone": "1", "name": "Kl\u00e9ber", "public_transport": "station", "railway": "station", "ref:FR:FANTOIR": "75116S271K", "ref:FR:RATP": "1867", "ref:FR:STIF": "22170", "source": "STIF - 12/2016", "station": "subway", "subway": "yes", "type:RATP": "metro", "wheelchair": "no", "wikidata": "Q254308", "wikipedia": "fr:Kl\u00e9ber (m\u00e9tro de Paris)"}}, {"type": "node", "id": 260767422, "lat": 48.8646177, "lon": 2.2937179, "tags": {"STIF:zone": "1", "name": "I\u00e9na", "public_transport": "stop_position", "railway": "station", "ref:FR:FANTOIR": "75116S241C", "ref:FR:RATP": "1858", "ref:FR:STIF": "21927", "source": "STIF - 12/2016", "station": "subway", "subway": "yes", "type:RATP": "metro", "wheelchair": "no", "wikidata": "Q1237945", "wikipedia": "fr:I\u00e9na (m\u00e9tro de Paris)"}}, {"type": "node", "id": 260769132, "lat": 48.8648683, "lon": 2.300292, "tags": {"STIF:zone": "1", "name": "Alma-Marceau", "public_transport": "stop_position", "railway": "station", "ref:FR:FANTOIR": "75108S004C", "ref:FR:RATP": "1980", "ref:FR:STIF": "21935", "source": "STIF - 12/2016", "station": "subway", "subway": "yes", "type:RATP": "metro", "wheelchair": "no", "wikidata": "Q1768692", "wikipedia": "fr:Alma - Marceau (m\u00e9tro de Paris)"}}, {"type": "node", "id": 260769651, "lat": 48.8723362, "lon": 2.3100827, "tags": {"STIF:zone": "1", "name": "Saint-Philippe du Roule", "public_transport": "stop_position", "railway": "station", "ref:FR:FANTOIR": "75108S524T", "ref:FR:RATP": "1696", "ref:FR:STIF": "21912", "source": "STIF - 12/2016", "station": "subway", "subway": "yes", "type:RATP": "metro", "wheelchair": "no", "wikidata": "Q1784247", "wikipedia": "fr:Saint-Philippe du Roule (m\u00e9tro de Paris)"}}, {"type": "node", "id": 260769652, "lat": 48.873719, "lon": 2.3145029, "tags": {"STIF:zone": "1", "name": "Miromesnil", "name:fr": "Miromesnil", "name:ru": "\u041c\u0438\u0440\u043e\u043c\u0435\u043d\u0438\u043b\u044c", "public_transport": "station", "railway": "station", "ref:FR:FANTOIR": "75108P013N;75108P014P", "ref:FR:RATP": "1747", "ref:FR:STIF": "21924", "source": "STIF - 12/2016", "station": "subway", "type:RATP": "metro", "wheelchair": "yes", "wikidata": "Q1578045", "wikipedia": "fr:Miromesnil (m\u00e9tro de Paris)"}}, {"type": "node", "id": 261162833, "lat": 48.8514719, "lon": 2.3268896, "tags": {"STIF:zone": "1", "addr:city": "Paris", "name": "S\u00e8vres-Babylone", "name:fr": "S\u00e8vres-Babylone", "name:ru": "\u0421\u0435\u0432\u0440 \u2014 \u0411\u0430\u0431\u0438\u043b\u043e\u043d", "old_name": "S\u00e8vres \u2013 Croix-Rouge", "public_transport": "station", "railway": "station", "ref:FR:FANTOIR": "75107S532H", "ref:FR:RATP": "1632", "ref:FR:STIF": "21980", "source": "STIF - 12/2016", "station": "subway", "subway": "yes", "type:RATP": "metro", "wheelchair": "no", "wikidata": "Q1578089", "wikipedia": "fr:S\u00e8vres - Babylone (m\u00e9tro de Paris)"}}, {"type": "node", "id": 261611258, "lat": 48.9165653, "lon": 2.2948077, "tags": {"amenity": "bus_station", "name": "Asni\u00e8res-sur-Seine \u2014 Gabriel P\u00e9ri", "network": "RATP", "operator": "RATP", "public_transport": "station", "type:RATP": "bus"}}, {"type": "node", "id": 261611470, "lat": 48.9032278, "lon": 2.3059879, "tags": {"STIF:zone": "1", "addr:city": "Clichy", "addr:postcode": "92110", "name": "Mairie de Clichy", "network": "M\u00e9tro de Paris;RATP", "operator": "RATP", "public_transport": "station", "railway": "station", "ref:FR:RATP": "1816", "ref:FR:STIF": "22238", "source": "STIF - 12/2016", "station": "subway", "type:RATP": "metro", "wikidata": "Q1885852", "wikipedia": "fr:Mairie de Clichy (m\u00e9tro de Paris)"}}, {"type": "node", "id": 261611884, "lat": 48.8905757, "lon": 2.3202004, "tags": {"STIF:zone": "1", "addr:city": "Paris", "addr:postcode": "75017", "name": "Brochant", "network": "M\u00e9tro de Paris", "operator": "RATP", "public_transport": "station", "railway": "station", "ref:FR:FANTOIR": "75117S054T", "ref:FR:RATP": "1931", "ref:FR:STIF": "22231", "source": "STIF - 12/2016", "start_date": "1912-01-20", "station": "subway", "subway": "yes", "type:RATP": "metro", "wheelchair": "no", "wikidata": "Q923435", "wikipedia": "fr:Brochant (m\u00e9tro de Paris)"}}, {"type": "node", "id": 261612240, "lat": 48.886971, "lon": 2.3258228, "tags": {"STIF:zone": "1", "addr:city": "Paris", "addr:postcode": "75017", "name": "La Fourche", "name:fr": "La Fourche", "name:ru": "\u041b\u044f-\u0424\u0443\u0440\u0448", "network": "M\u00e9tro de Paris;RATP", "operator": "RATP", "public_transport": "station", "railway": "station", "ref:FR:RATP": "1872", "ref:FR:STIF": "22227", "source": "STIF - 12/2016", "station": "subway", "subway": "yes", "type:RATP": "metro", "wheelchair": "no", "wikidata": "Q780625", "wikipedia": "fr:La Fourche (m\u00e9tro de Paris)"}}, {"type": "node", "id": 261665825, "lat": 48.8469898, "lon": 2.3074817, "tags": {"STIF:zone": "1", "addr:city": "Paris", "name": "S\u00e9gur", "public_transport": "station", "railway": "station", "ref:FR:FANTOIR": "75115S530W", "ref:FR:RATP": "1631", "ref:FR:STIF": "21979", "source": "STIF - 12/2016", "station": "subway", "subway": "yes", "type:RATP": "metro", "wheelchair": "no", "wikidata": "Q1511392", "wikipedia": "fr:S\u00e9gur (m\u00e9tro de Paris)"}}, {"type": "node", "id": 261666122, "lat": 48.8469916, "lon": 2.2953111, "tags": {"STIF:zone": "1", "name": "Avenue \u00c9mile Zola", "old_name": "Commerce", "public_transport": "station", "railway": "station", "ref:FR:FANTOIR": "75115S145C", "ref:FR:RATP": "1994", "ref:FR:STIF": "21987", "source": "STIF - 12/2016", "station": "subway", "subway": "yes", "type:RATP": "metro", "wheelchair": "no", "wikidata": "Q790593", "wikipedia": "fr:Avenue \u00c9mile Zola (m\u00e9tro de Paris)"}}, {"type": "node", "id": 263497271, "lat": 48.860697, "lon": 2.3210551, "tags": {"STIF:zone": "1", "name": "Assembl\u00e9e Nationale", "old_name": "Chambre des D\u00e9put\u00e9s", "railway": "station", "ref:FR:FANTOIR": "75107S077N", "ref:FR:RATP": "1989", "ref:FR:STIF": "22060", "source": "STIF - 12/2016", "station": "subway", "type:RATP": "metro", "wheelchair": "no", "wikidata": "Q740744", "wikipedia": "fr:Assembl\u00e9e nationale (m\u00e9tro de Paris)"}}, {"type": "node", "id": 263497272, "lat": 48.858657, "lon": 2.3229936, "tags": {"STIF:zone": "1", "name": "Solf\u00e9rino", "name:ru": "\u0421\u043e\u043b\u044c\u0444\u0435\u0440\u0438\u043d\u043e", "network": "M\u00e9tro de Paris", "operator": "RATP", "public_transport": "station", "railway": "station", "ref:FR:FANTOIR": "75107S535L", "ref:FR:RATP": "1622", "ref:FR:STIF": "22045", "source": "STIF - 12/2016", "station": "subway", "subway": "yes", "train": "yes", "type:RATP": "metro", "wheelchair": "no", "wikidata": "Q1368640", "wikipedia": "fr:Solf\u00e9rino (m\u00e9tro de Paris)"}}, {"type": "node", "id": 263499468, "lat": 48.8481424, "lon": 2.3278065, "tags": {"STIF:zone": "1", "check_date:wheelchair": "2022-08-23", "name": "Rennes", "name:ru": "\u0420\u0435\u043d", "public_transport": "station", "railway": "station", "ref:FR:FANTOIR": "75106S490U", "ref:FR:RATP": "1661", "ref:FR:STIF": "22049", "source": "STIF - 12/2016", "station": "subway", "subway": "yes", "train": "yes", "type:RATP": "metro", "wheelchair": "no", "wikidata": "Q1969677", "wikipedia": "fr:Rennes (m\u00e9tro de Paris)"}}, {"type": "node", "id": 263499471, "lat": 48.844688, "lon": 2.3288305, "tags": {"STIF:zone": "1", "check_date:wheelchair": "2022-04-24", "name": "Notre-Dame des Champs", "name:ru": "\u041d\u043e\u0442\u0440-\u0414\u0430\u043c-\u0434\u0435-\u0428\u0430\u043d", "public_transport": "station", "railway": "station", "ref:FR:FANTOIR": "75106S364G", "ref:FR:RATP": "1768", "station": "subway", "subway": "yes", "train": "yes", "type:RATP": "metro", "wheelchair": "no", "wikidata": "Q1970325", "wikipedia": "fr:Notre-Dame-des-Champs (m\u00e9tro de Paris)"}}, {"type": "node", "id": 264469160, "lat": 48.8447112, "lon": 2.2938643, "tags": {"STIF:zone": "1", "name": "Commerce", "public_transport": "station", "railway": "station", "ref:FR:FANTOIR": "75115S098B", "ref:FR:RATP": "1705;1973", "ref:FR:STIF": "22190", "source": "STIF - 12/2016", "station": "subway", "subway": "yes", "type:RATP": "metro", "wheelchair": "no", "wikidata": "Q608305", "wikipedia": "fr:Commerce (m\u00e9tro de Paris)"}}, {"type": "node", "id": 264469541, "lat": 48.8546647, "lon": 2.3060728, "tags": {"STIF:zone": "1", "name": "\u00c9cole Militaire", "name:fr": "\u00c9cole Militaire", "name:ru": "\u042d\u043a\u043e\u043b\u044c \u041c\u0438\u043b\u0438\u0442\u0435\u0440", "public_transport": "station", "railway": "station", "ref:FR:FANTOIR": "75107S141H", "ref:FR:RATP": "1909;1007", "ref:FR:STIF": "22191", "source": "STIF - 12/2016", "station": "subway", "subway": "yes", "type:RATP": "metro", "wheelchair": "no", "wikidata": "Q273476", "wikipedia": "fr:\u00c9cole Militaire (m\u00e9tro de Paris)"}}, {"type": "node", "id": 264473011, "lat": 48.8575602, "lon": 2.3103234, "tags": {"STIF:zone": "1", "addr:city": "Paris", "name": "La Tour Maubourg", "name:ru": "\u041b\u044f\u0442\u0443\u0440-\u041c\u043e\u0431\u0443\u0440", "public_transport": "station", "railway": "station", "ref:FR:FANTOIR": "75107S285P", "ref:FR:RATP": "1008;54166", "station": "subway", "subway": "yes", "type:RATP": "metro", "wheelchair": "no", "wikidata": "Q1514082", "wikipedia": "fr:La Tour-Maubourg (m\u00e9tro de Paris)"}}, {"type": "node", "id": 264476971, "lat": 48.8633194, "lon": 2.3666323, "tags": {"STIF:zone": "1", "name": "Filles du Calvaire", "name:ru": "\u0424\u0438\u0439-\u0434\u044e-\u041a\u0430\u043b\u044c\u0432\u0435\u0440", "public_transport": "station", "railway": "station", "ref:FR:FANTOIR": "75111S164L", "ref:FR:RATP": "1919", "ref:FR:STIF": "22200", "source": "STIF - 12/2016", "station": "subway", "subway": "yes", "type:RATP": "metro", "wheelchair": "no", "wikidata": "Q1414178", "wikipedia": "fr:Filles du Calvaire (m\u00e9tro de Paris)"}}, {"type": "node", "id": 264479724, "lat": 48.8611816, "lon": 2.367234, "tags": {"STIF:zone": "1", "name": "Saint-S\u00e9bastien - Froissart", "name:ru": "\u0421\u0435\u043d-\u0421\u0435\u0431\u0430\u0441\u0442\u044c\u0435\u043d \u2014 \u0424\u0440\u0443\u0430\u0441\u0441\u0430\u0440", "operator": "RATP", "public_transport": "station", "railway": "station", "ref:FR:FANTOIR": "75111S527F", "ref:FR:RATP": "1699", "ref:FR:STIF": "22201", "source": "STIF - 12/2016", "station": "subway", "subway": "yes", "type:RATP": "metro", "wheelchair": "no", "wikidata": "Q550042", "wikipedia": "fr:Saint-S\u00e9bastien - Froissart (m\u00e9tro de Paris)"}}, {"type": "node", "id": 264479775, "lat": 48.8574434, "lon": 2.3681408, "tags": {"STIF:zone": "1", "name": "Chemin Vert", "name:ru": "\u0428\u0435\u043c\u0435\u043d-\u0412\u0435\u0440", "public_transport": "stop_position", "railway": "station", "ref:FR:FANTOIR": "75111S093J", "ref:FR:RATP": "1958", "ref:FR:STIF": "22202", "source": "STIF - 12/2016", "station": "subway", "subway": "yes", "toilets:wheelchair": "no", "type:RATP": "metro", "wheelchair": "no", "wikidata": "Q524191", "wikipedia": "fr:Chemin Vert (m\u00e9tro de Paris)"}}, {"type": "node", "id": 264480784, "lat": 48.8512945, "lon": 2.3760274, "tags": {"STIF:zone": "1", "name": "Ledru-Rollin", "name:ru": "\u041b\u0435\u0434\u0440\u044e-\u0420\u043e\u043b\u043b\u0435\u043d", "public_transport": "stop_position", "railway": "station", "ref:FR:FANTOIR": "75112S287R", "ref:FR:RATP": "1798", "ref:FR:STIF": "22203", "source": "STIF - 12/2016", "station": "subway", "subway": "yes", "type:RATP": "metro", "wheelchair": "no", "wikidata": "Q680787", "wikipedia": "fr:Ledru-Rollin (m\u00e9tro de Paris)"}}, {"type": "node", "id": 264481019, "lat": 48.8501609, "lon": 2.3842222, "tags": {"STIF:zone": "1", "check_date:wheelchair": "2021-11-19", "name": "Faidherbe \u2014 Chaligny", "name:ru": "\u0424\u0435\u0434\u0435\u0440\u0431 \u2014 \u0428\u0430\u043b\u0438\u043d\u044c\u0438", "public_transport": "station", "railway": "station", "ref:FR:FANTOIR": "75111S161H", "ref:FR:RATP": "1917", "ref:FR:STIF": "22204", "source": "STIF - 12/2016", "station": "subway", "subway": "yes", "type:RATP": "metro", "wheelchair": "no", "wikidata": "Q337855", "wikipedia": "fr:Faidherbe - Chaligny (m\u00e9tro de Paris)"}}, {"type": "node", "id": 264481854, "lat": 48.844304, "lon": 2.3901962, "tags": {"STIF:zone": "1", "name": "Montgallet", "name:ru": "\u041c\u043e\u043d\u0433\u0430\u043b\u0435", "public_transport": "station", "railway": "station", "ref:FR:FANTOIR": "75112S336U", "ref:FR:RATP": "1750", "ref:FR:STIF": "22205", "source": "STIF - 12/2016", "station": "subway", "subway": "yes", "type:RATP": "metro", "wheelchair": "no", "wikidata": "Q999159", "wikipedia": "fr:Montgallet (m\u00e9tro de Paris)"}}, {"type": "node", "id": 264482226, "lat": 48.8370694, "lon": 2.4024586, "tags": {"STIF:zone": "1", "check_date:wheelchair": "2021-03-02", "name": "Michel Bizot", "name:ru": "\u041c\u0438\u0448\u0435\u043b\u044c \u0411\u0438\u0437\u043e", "public_transport": "station", "railway": "station", "ref:FR:FANTOIR": "75112S331N", "ref:FR:RATP": "1835", "ref:FR:STIF": "22206", "source": "STIF - 12/2016", "station": "subway", "subway": "yes", "type:RATP": "metro", "wheelchair": "no", "wikidata": "Q616619", "wikipedia": "fr:Michel Bizot (m\u00e9tro de Paris)"}}, {"type": "node", "id": 264490283, "lat": 48.8450724, "lon": 2.4010857, "tags": {"STIF:zone": "1", "heritage": "3", "heritage:operator": "mhs", "mhs:inscription_date": "1978", "name": "Picpus", "old_name": "Saint-Mand\u00e9", "public_transport": "station", "railway": "station", "ref:FR:FANTOIR": "75112S413C", "ref:FR:RATP": "1785", "ref:FR:STIF": "22167", "ref:mhs": "PA00086581", "source": "data.gouv.fr:Minist\u00e8re de la Culture - 08/2011", "station": "subway", "type:RATP": "metro", "wheelchair": "no", "wikidata": "Q589686", "wikipedia": "fr:Picpus (m\u00e9tro de Paris)"}}, {"type": "node", "id": 264495077, "lat": 48.8763251, "lon": 2.3326415, "tags": {"STIF:zone": "1", "name": "Trinit\u00e9 d'Estienne d'Orves", "name:ru": "\u0422\u0440\u0438\u043d\u0438\u0442\u0435 \u2014 \u0434\u2019\u042d\u0441\u0442\u044c\u0435\u043d \u0434\u2019\u041e\u0440\u0432", "railway": "station", "ref:FR:FANTOIR": "75109S565D", "ref:FR:RATP": "1638;3108", "ref:FR:STIF": "22046", "source": "STIF - 12/2016", "station": "subway", "type:RATP": "metro", "wheelchair": "no", "wikidata": "Q1316395", "wikipedia": "fr:Trinit\u00e9 - d'Estienne d'Orves (m\u00e9tro de Paris)"}}, {"type": "node", "id": 264495078, "lat": 48.8759935, "lon": 2.3385437, "tags": {"STIF:zone": "1", "name": "Notre-Dame de Lorette", "name:ru": "\u041d\u043e\u0442\u0440-\u0414\u0430\u043c-\u0434\u0435-\u041b\u043e\u0440\u0435\u0442", "railway": "station", "ref:FR:FANTOIR": "75109S365L", "ref:FR:RATP": "1767;3109", "ref:FR:STIF": "22050", "source": "STIF - 12/2016", "station": "subway", "type:RATP": "metro", "wheelchair": "no", "wikidata": "Q575604", "wikipedia": "fr:Notre-Dame-de-Lorette (m\u00e9tro de Paris)"}}, {"type": "node", "id": 264504832, "lat": 48.8784469, "lon": 2.337458, "tags": {"STIF:zone": "1", "name": "Saint-Georges", "name:ru": "\u0421\u0435\u043d-\u0416\u043e\u0440\u0436", "public_transport": "station", "railway": "station", "ref:FR:FANTOIR": "75109S514Y", "ref:FR:RATP": "3110;1686", "ref:FR:STIF": "22044", "source": "STIF - 12/2016", "station": "subway", "subway": "yes", "type:RATP": "metro", "wheelchair": "no", "wikidata": "Q1937499", "wikipedia": "fr:Saint-Georges (m\u00e9tro de Paris)"}}, {"type": "node", "id": 264505115, "lat": 48.8845677, "lon": 2.3379294, "tags": {"STIF:zone": "1", "name": "Abbesses", "name:ru": "\u0410\u0431\u0431\u0435\u0441", "public_transport": "station", "railway": "station", "ref:FR:FANTOIR": "75118S001F", "ref:FR:RATP": "1975", "ref:FR:STIF": "22059", "source": "STIF - 12/2016", "station": "subway", "subway": "yes", "type:RATP": "metro", "wheelchair": "no", "wikidata": "Q306256", "wikipedia": "fr:Abbesses (m\u00e9tro de Paris)"}}, {"type": "node", "id": 264505153, "lat": 48.8897543, "lon": 2.3388254, "tags": {"STIF:zone": "1", "name": "Lamarck - Caulaincourt", "name:ru": "\u041b\u0430\u043c\u0430\u0440\u043a \u2014 \u041a\u043e\u043b\u0435\u043d\u043a\u0443\u0440", "public_transport": "station", "railway": "station", "ref:FR:FANTOIR": "75118S282L", "ref:FR:RATP": "1879", "ref:FR:STIF": "22055", "source": "STIF - 12/2016", "station": "subway", "subway": "yes", "type:RATP": "metro", "wheelchair": "no", "wikidata": "Q980380", "wikipedia": "fr:Lamarck - Caulaincourt (m\u00e9tro de Paris)"}}, {"type": "node", "id": 264505450, "lat": 48.8924628, "lon": 2.3446394, "tags": {"STIF:zone": "1", "name": "Jules Joffrin", "name:ru": "\u0416\u044e\u043b\u044c \u0416\u043e\u0444\u0444\u0440\u0435\u043d", "public_transport": "station", "railway": "station", "ref:FR:FANTOIR": "75118S257J", "ref:FR:RATP": "1865", "ref:FR:STIF": "22054", "source": "STIF - 12/2016", "station": "subway", "subway": "yes", "type:RATP": "metro", "wheelchair": "no", "wikidata": "Q617430", "wikipedia": "fr:Jules Joffrin (m\u00e9tro de Paris)"}}, {"type": "node", "id": 264505930, "lat": 48.8977035, "lon": 2.3594563, "tags": {"STIF:zone": "1", "layer": "-4", "name": "Porte de la Chapelle", "public_transport": "stop_position", "railway": "station", "ref:FR:RATP": "1734", "ref:FR:STIF": "22041", "source": "STIF - 12/2016", "station": "subway", "subway": "yes", "type:RATP": "metro", "wheelchair": "limited", "wikidata": "Q382659", "wikipedia": "fr:Porte de la Chapelle (m\u00e9tro de Paris)"}}, {"type": "node", "id": 264505993, "lat": 48.8938481, "lon": 2.3478412, "tags": {"STIF:zone": "1", "name": "Simplon", "operator": "RATP", "public_transport": "stop_position", "railway": "station", "ref:FR:FANTOIR": "75118S534K", "ref:FR:RATP": "1621", "ref:FR:STIF": "22133", "source": "STIF - 12/2016", "station": "subway", "subway": "yes", "type:RATP": "metro", "wheelchair": "no", "wikidata": "Q163879", "wikipedia": "fr:Simplon (m\u00e9tro de Paris)"}}, {"type": "node", "id": 264508548, "lat": 48.8762027, "lon": 2.3579127, "tags": {"STIF:zone": "1", "addr:city": "Paris", "addr:postcode": "75010", "alt_name": "Gare de l'Est (Verdun)", "name": "Gare de l'Est", "network": "M\u00e9tro de Paris;RATP", "operator": "RATP", "public_transport": "station", "railway": "station", "ref:FR:FANTOIR": "75110S184K", "ref:FR:RATP": "1841", "ref:FR:STIF": "41010", "source": "STIF - 12/2016", "station": "subway", "subway": "yes", "type:RATP": "metro", "wikidata": "Q1494172", "wikipedia": "fr:Gare de l'Est (m\u00e9tro de Paris)"}}, {"type": "node", "id": 264514896, "lat": 48.8553245, "lon": 2.347542, "tags": {"STIF:zone": "1", "elevator": "yes", "level": "-2", "name": "Cit\u00e9", "name:ru": "\u0421\u0438\u0442\u044d", "network": "RATP", "operator": "RATP", "public_transport": "station", "railway": "station", "ref:FR:FANTOIR": "75104S095P", "ref:FR:RATP": "1969", "ref:FR:STIF": "22150", "source": "STIF - 12/2016", "station": "subway", "subway": "yes", "type:RATP": "metro", "wheelchair": "no", "wikidata": "Q1094294", "wikipedia": "fr:Cit\u00e9 (m\u00e9tro de Paris)"}}, {"type": "node", "id": 264515098, "lat": 48.8532864, "lon": 2.3435081, "tags": {"STIF:zone": "1", "heritage": "3", "heritage:operator": "mhs", "location": "underground", "mhs:inscription_date": "1978", "name": "Saint-Michel", "public_transport": "station", "railway": "station", "ref:FR:FANTOIR": "75106S522D", "ref:FR:RATP": "1694", "ref:FR:STIF": "412816", "ref:mhs": "PA00088479", "source": "STIF - 12/2016", "source:heritage": "data.gouv.fr:Minist\u00e8re de la Culture - 08/2011", "station": "subway", "subway": "yes", "type:RATP": "metro", "wheelchair": "yes", "wikidata": "Q1598555", "wikipedia": "fr:Saint-Michel (m\u00e9tro de Paris)"}}, {"type": "node", "id": 264519782, "lat": 48.8536164, "lon": 2.3344524, "tags": {"STIF:zone": "1", "name": "Saint-Germain-des-Pr\u00e9s", "public_transport": "station", "railway": "station", "ref:FR:FANTOIR": "75106S516X", "ref:FR:RATP": "1687", "ref:FR:STIF": "22136", "source": "STIF - 12/2016", "station": "subway", "type:RATP": "metro", "wheelchair": "no", "wikidata": "Q781873", "wikipedia": "fr:Saint-Germain-des-Pr\u00e9s (m\u00e9tro de Paris)"}}, {"type": "node", "id": 264520061, "lat": 48.847098, "lon": 2.3270206, "tags": {"STIF:zone": "1", "check_date:wheelchair": "2021-05-03", "name": "Saint-Placide", "old_name": "Vaugirard", "operator": "RATP", "public_transport": "stop_position", "railway": "station", "ref:FR:FANTOIR": "75106S525G", "ref:FR:RATP": "1697", "ref:FR:STIF": "22138", "source": "STIF - 12/2016", "station": "subway", "subway": "yes", "type:RATP": "metro", "wheelchair": "no", "wikidata": "Q763411", "wikipedia": "fr:Saint-Placide (m\u00e9tro de Paris)"}}, {"type": "node", "id": 264526095, "lat": 48.8422164, "lon": 2.3290114, "tags": {"STIF:zone": "1", "check_date:wheelchair": "2021-04-23", "name": "Vavin", "operator": "RATP", "public_transport": "stop_position", "railway": "station", "ref:FR:FANTOIR": "75106S585X", "ref:FR:RATP": "1646", "ref:FR:STIF": "22135", "source": "STIF - 12/2016", "station": "subway", "subway": "yes", "type:RATP": "metro", "wheelchair": "no", "wikidata": "Q954301", "wikipedia": "fr:Vavin (m\u00e9tro de Paris)"}}, {"type": "node", "id": 264591604, "lat": 48.8699854, "lon": 2.3710671, "tags": {"STIF:zone": "1", "alt_name": "Goncourt (H\u00f4pital Saint-Louis)", "name": "Goncourt", "public_transport": "stop_position", "railway": "station", "ref:FR:FANTOIR": "75111S195V", "ref:FR:RATP": "1849", "ref:FR:STIF": "21996", "source": "STIF - 12/2016", "station": "subway", "subway": "yes", "type:RATP": "metro", "wheelchair": "no", "wikidata": "Q1536969", "wikipedia": "fr:Goncourt (m\u00e9tro de Paris)"}}, {"type": "node", "id": 264690370, "lat": 48.875525, "lon": 2.3990429, "tags": {"STIF:zone": "1", "name": "T\u00e9l\u00e9graphe", "public_transport": "stop_position", "railway": "station", "ref:FR:FANTOIR": "75120S561D", "ref:FR:RATP": "55329", "ref:FR:STIF": "21993", "source": "STIF - 12/2016", "station": "subway", "subway": "yes", "type:RATP": "metro", "wheelchair": "no", "wikidata": "Q1263417", "wikipedia": "fr:T\u00e9l\u00e9graphe (m\u00e9tro de Paris)"}}, {"type": "node", "id": 264690372, "lat": 48.8738565, "lon": 2.3852638, "tags": {"STIF:zone": "1", "name": "Pyr\u00e9n\u00e9es", "public_transport": "stop_position", "railway": "station", "ref:FR:FANTOIR": "75120S453L", "ref:FR:RATP": "55330", "ref:FR:STIF": "21991", "source": "STIF - 12/2016", "station": "subway", "subway": "yes", "type:RATP": "metro", "wheelchair": "no", "wikidata": "Q1969303", "wikipedia": "fr:Pyr\u00e9n\u00e9es (m\u00e9tro de Paris)"}}, {"type": "node", "id": 264692522, "lat": 48.8750944, "lon": 2.38933, "tags": {"STIF:zone": "1", "name": "Jourdain", "operator": "RATP", "public_transport": "stop_position", "railway": "station", "ref:FR:FANTOIR": "75120S256X", "ref:FR:RATP": "1864", "ref:FR:STIF": "21995", "source": "STIF - 12/2016", "station": "subway", "subway": "yes", "type:RATP": "metro", "wheelchair": "no", "wikidata": "Q1517347", "wikipedia": "fr:Jourdain (m\u00e9tro de Paris)"}}, {"type": "node", "id": 264704365, "lat": 48.8386332, "lon": 2.3224866, "tags": {"STIF:zone": "1", "alt_name": "Ga\u00eet\u00e9 \u2013 Jos\u00e9phine Baker", "check_date:wheelchair": "2021-05-27", "name": "Ga\u00eet\u00e9", "name:ru": "\u0413\u0430\u0438\u0442\u0435", "old_name": "Ga\u00eet\u00e9", "public_transport": "stop_position", "railway": "station", "ref:FR:FANTOIR": "75114S181Y", "ref:FR:RATP": "1927", "ref:FR:STIF": "22230", "source": "STIF - 12/2016", "station": "subway", "subway": "yes", "type:RATP": "metro", "wheelchair": "no", "wikidata": "Q377782", "wikipedia": "fr:Ga\u00eet\u00e9 (m\u00e9tro de Paris)"}}, {"type": "node", "id": 264769296, "lat": 48.8566333, "lon": 2.3704333, "tags": {"STIF:zone": "1", "name": "Br\u00e9guet-Sabin", "public_transport": "station", "railway": "station", "ref:FR:FANTOIR": "75111S053R", "ref:FR:RATP": "1933", "ref:FR:STIF": "22008", "source": "STIF - 12/2016", "station": "subway", "subway": "yes", "type:RATP": "metro", "wheelchair": "no", "wikidata": "Q777553", "wikipedia": "fr:Br\u00e9guet - Sabin (m\u00e9tro de Paris)"}}, {"type": "node", "id": 264769297, "lat": 48.8602134, "lon": 2.3720741, "tags": {"STIF:zone": "1", "name": "Richard Lenoir", "railway": "station", "ref:FR:FANTOIR": "75111S487M", "ref:FR:RATP": "1664", "ref:FR:STIF": "22002", "source": "STIF - 12/2016", "station": "subway", "type:RATP": "metro", "wheelchair": "no", "wikidata": "Q1789070", "wikipedia": "fr:Richard-Lenoir (m\u00e9tro de Paris)"}}, {"type": "node", "id": 264776028, "lat": 48.8884812, "lon": 2.3742226, "tags": {"STIF:zone": "1", "name": "Riquet", "public_transport": "stop_position", "railway": "station", "ref:FR:FANTOIR": "75119S489E", "ref:FR:RATP": "1666", "ref:FR:STIF": "22371", "source": "STIF - 12/2016", "station": "subway", "subway": "yes", "type:RATP": "metro", "wheelchair": "no", "wikidata": "Q1772478", "wikipedia": "fr:Riquet (m\u00e9tro de Paris)"}}, {"type": "node", "id": 264776029, "lat": 48.8908513, "lon": 2.3773681, "tags": {"STIF:zone": "1", "name": "Crim\u00e9e", "public_transport": "stop_position", "railway": "station", "ref:FR:FANTOIR": "75119S107P", "ref:FR:RATP": "1894", "ref:FR:STIF": "22392", "source": "STIF - 12/2016;survey;local knowledge;streetlevel imagery", "station": "subway", "subway": "yes", "type:RATP": "metro", "wheelchair": "no", "wikidata": "Q746288", "wikipedia": "fr:Crim\u00e9e (m\u00e9tro de Paris)"}}, {"type": "node", "id": 264776910, "lat": 48.8947282, "lon": 2.3823046, "tags": {"STIF:zone": "1", "name": "Corentin Cariou", "old_name": "Pont de Flandre", "public_transport": "stop_position", "railway": "station", "ref:FR:FANTOIR": "75119S101H", "ref:FR:RATP": "1888", "ref:FR:STIF": "22389", "source": "STIF - 12/2016", "station": "subway", "subway": "yes", "type:RATP": "metro", "wheelchair": "no", "wikidata": "Q120303", "wikipedia": "fr:Corentin Cariou (m\u00e9tro de Paris)"}}, {"type": "node", "id": 264778142, "lat": 48.8974039, "lon": 2.385591, "tags": {"STIF:zone": "1", "alt_name": "Porte de la Villette (Cit\u00e9 des Sciences et de l'Industrie)", "name": "Porte de la Villette", "public_transport": "stop_position", "railway": "station", "ref:FR:FANTOIR": "75119S449L", "ref:FR:RATP": "1735", "ref:FR:STIF": "22374", "source": "STIF - 12/2016", "station": "subway", "subway": "yes", "type:RATP": "metro", "wikidata": "Q571446", "wikipedia": "fr:Porte de la Villette (m\u00e9tro de Paris)"}}, {"type": "node", "id": 264785951, "lat": 48.8513954, "lon": 2.3618174, "tags": {"STIF:zone": "1", "name": "Sully - Morland", "name:ru": "\u0421\u044e\u043b\u043b\u0438 \u2014 \u041c\u043e\u0440\u043b\u0430\u043d", "old_name": "Pont Sully", "public_transport": "stop_position", "railway": "station", "ref:FR:FANTOIR": "75104S539X", "ref:FR:RATP": "1630", "ref:FR:STIF": "22369", "source": "STIF - 12/2016", "station": "subway", "subway": "yes", "type:RATP": "metro", "wheelchair": "no", "wikidata": "Q257465", "wikipedia": "fr:Sully - Morland (m\u00e9tro de Paris)"}}, {"type": "node", "id": 264785952, "lat": 48.8537872, "lon": 2.3565905, "tags": {"STIF:zone": "1", "alt_name": "Pont Marie (Cit\u00e9 des Arts)", "name": "Pont Marie", "name:ru": "\u041f\u043e\u043d-\u041c\u0430\u0440\u0438", "public_transport": "stop_position", "railway": "station", "ref:FR:FANTOIR": "75104S425Y", "ref:FR:RATP": "1711", "station": "subway", "subway": "yes", "type:RATP": "metro", "wheelchair": "no", "wikidata": "Q282600", "wikipedia": "fr:Pont Marie (m\u00e9tro de Paris)"}}, {"type": "node", "id": 264786014, "lat": 48.8429053, "lon": 2.3522772, "tags": {"STIF:zone": "1", "alt_name": "Place Monge (Jardin des Plantes)", "name": "Place Monge", "name:ru": "\u041f\u043b\u044f\u0441-\u041c\u043e\u043d\u0436", "public_transport": "stop_position", "railway": "station", "ref:FR:FANTOIR": "75105S335E", "ref:FR:RATP": "1788", "ref:FR:STIF": "22366", "source": "STIF - 12/2016", "station": "subway", "subway": "yes", "type:RATP": "metro", "wheelchair": "no", "wikidata": "Q177476", "wikipedia": "fr:Place Monge (m\u00e9tro de Paris)"}}, {"type": "node", "id": 264789025, "lat": 48.8406473, "lon": 2.3519334, "tags": {"STIF:zone": "1", "name": "Censier - Daubenton", "name:ru": "\u0421\u0430\u043d\u0441\u044c\u0435 \u2014 \u0414\u043e\u0431\u0430\u043d\u0442\u043e\u043d", "public_transport": "stop_position", "railway": "station", "ref:FR:FANTOIR": "75105S076Y", "ref:FR:RATP": "1944", "ref:FR:STIF": "22391", "source": "STIF - 12/2016", "station": "subway", "subway": "yes", "type:RATP": "metro", "wheelchair": "no", "wikidata": "Q938430", "wikipedia": "fr:Censier - Daubenton (m\u00e9tro de Paris)"}}, {"type": "node", "id": 264794354, "lat": 48.8819488, "lon": 2.393338, "tags": {"STIF:zone": "1", "name": "Danube", "public_transport": "stop_position", "railway": "station", "ref:FR:FANTOIR": "75119S121E", "ref:FR:RATP": "1900", "ref:FR:STIF": "24687", "source": "STIF - 12/2016", "station": "subway", "subway": "yes", "type:RATP": "metro", "wheelchair": "no", "wikidata": "Q1165108", "wikipedia": "fr:Danube (m\u00e9tro de Paris)"}}, {"type": "node", "id": 264795933, "lat": 48.8797584, "lon": 2.4164738, "tags": {"STIF:zone": "1", "name": "Mairie des Lilas", "public_transport": "stop_position", "railway": "station", "ref:FR:RATP": "1819", "ref:FR:STIF": "21999", "source": "STIF - 12/2016", "station": "subway", "subway": "yes", "type:RATP": "metro", "wheelchair": "no", "wikidata": "Q683544", "wikipedia": "fr:Mairie des Lilas (m\u00e9tro de Paris)"}}, {"type": "node", "id": 264796181, "lat": 48.8715218, "lon": 2.4043104, "tags": {"STIF:zone": "1", "name": "Saint-Fargeau", "public_transport": "stop_position", "railway": "station", "ref:FR:FANTOIR": "75120S512A", "ref:FR:RATP": "1684", "ref:FR:STIF": "21946", "source": "STIF - 12/2016", "station": "subway", "subway": "yes", "type:RATP": "metro", "wheelchair": "no", "wikidata": "Q1576198", "wikipedia": "fr:Saint-Fargeau (m\u00e9tro de Paris)"}}, {"type": "node", "id": 264796182, "lat": 48.8680997, "lon": 2.4013152, "tags": {"STIF:zone": "1", "name": "Pelleport", "public_transport": "stop_position", "railway": "station", "ref:FR:FANTOIR": "75120S408M", "ref:FR:RATP": "1782", "ref:FR:STIF": "21948", "source": "STIF - 12/2016", "station": "subway", "subway": "yes", "type:RATP": "metro", "wheelchair": "no", "wikidata": "Q1576190", "wikipedia": "fr:Pelleport (m\u00e9tro de Paris)"}}, {"type": "node", "id": 265055434, "lat": 48.8382761, "lon": 2.3608491, "tags": {"STIF:zone": "1", "check_date:wheelchair": "2022-04-17", "name": "Saint-Marcel", "public_transport": "station", "railway": "station", "ref:FR:FANTOIR": "75113S519V", "ref:FR:RATP": "1691", "ref:FR:STIF": "22000", "source": "STIF - 12/2016", "station": "subway", "subway": "yes", "type:RATP": "metro", "wheelchair": "no", "wikidata": "Q587093", "wikipedia": "fr:Saint-Marcel (m\u00e9tro de Paris)"}}, {"type": "node", "id": 265060052, "lat": 48.8927239, "lon": 2.3273521, "tags": {"STIF:zone": "1", "check_date:wheelchair": "2023-01-18", "name": "Guy M\u00f4quet", "old_name": "Marcadet \u2013 Balagny", "railway": "station", "ref:FR:FANTOIR": "75118S197U", "ref:FR:RATP": "1851", "ref:FR:STIF": "22228", "source": "STIF - 12/2016", "station": "subway", "toilets:wheelchair": "no", "type:RATP": "metro", "wheelchair": "no", "wikidata": "Q738879", "wikipedia": "fr:Guy M\u00f4quet (m\u00e9tro de Paris)"}}, {"type": "node", "id": 265060832, "lat": 48.8971883, "lon": 2.328869, "tags": {"STIF:zone": "1", "name": "Porte de Saint-Ouen", "public_transport": "station", "railway": "station", "ref:FR:FANTOIR": "75117S446U;75118S446P", "ref:FR:RATP": "1730", "ref:FR:STIF": "22220", "source": "STIF - 12/2016", "station": "subway", "subway": "yes", "type:RATP": "metro", "wikidata": "Q181669", "wikipedia": "fr:Porte de Saint-Ouen (m\u00e9tro de Paris)"}}, {"type": "node", "id": 265060965, "lat": 48.9057701, "lon": 2.3317631, "tags": {"STIF:zone": "1", "name": "Garibaldi", "railway": "station", "ref:FR:RATP": "1844", "ref:FR:STIF": "22244", "source": "STIF - 12/2016", "station": "subway", "type:RATP": "metro", "wheelchair": "no", "wikidata": "Q586851", "wikipedia": "fr:Garibaldi (m\u00e9tro de Paris)"}}, {"type": "node", "id": 270244435, "lat": 48.9142573, "lon": 2.4038072, "tags": {"STIF:zone": "1", "name": "Fort d'Aubervilliers", "public_transport": "stop_position", "railway": "station", "ref:FR:RATP": "1923", "ref:FR:STIF": "22393", "station": "subway", "subway": "yes", "type:RATP": "metro", "wikidata": "Q1438901", "wikipedia": "fr:Fort d'Aubervilliers (m\u00e9tro de Paris)"}}, {"type": "node", "id": 270244436, "lat": 48.9036279, "lon": 2.3922499, "tags": {"STIF:zone": "1", "alt_name": "Aubervilliers Pantin (4 Chemins)", "name": "Aubervilliers - Pantin - Quatre Chemins", "public_transport": "stop_position", "railway": "station", "ref:FR:RATP": "1992", "ref:FR:STIF": "22394", "source": "STIF - 12/2016", "station": "subway", "subway": "yes", "type:RATP": "metro", "wikidata": "Q758464", "wikipedia": "fr:Aubervilliers - Pantin - Quatre Chemins (m\u00e9tro de Paris)"}}, {"type": "node", "id": 270244850, "lat": 48.9207595, "lon": 2.410766, "tags": {"STIF:zone": "1", "name": "La Courneuve - 8 mai 1945", "public_transport": "stop_position", "railway": "station", "ref:FR:RATP": "1869", "ref:FR:STIF": "22395", "source": "STIF - 12/2016", "station": "subway", "subway": "yes", "type:RATP": "metro", "wikidata": "Q1320288", "wikipedia": "fr:La Courneuve - 8 Mai 1945 (m\u00e9tro de Paris)"}}, {"type": "node", "id": 282635141, "lat": 48.8678551, "lon": 2.3138686, "tags": {"STIF:zone": "1", "name": "Champs-\u00c9lys\u00e9es - Clemenceau", "name:ru": "\u0428\u0430\u043d\u0437-\u042d\u043b\u0438\u0437\u0435 \u2014 \u041a\u043b\u0435\u043c\u0430\u043d\u0441\u043e", "public_transport": "station", "railway": "station", "ref:FR:FANTOIR": "75108S080K", "ref:FR:RATP": "1949", "ref:FR:STIF": "22090", "source": "STIF - 12/2016", "station": "subway", "subway": "yes", "type:RATP": "metro", "wheelchair": "no", "wikidata": "Q1061527", "wikipedia": "fr:Champs-\u00c9lys\u00e9es - Clemenceau (m\u00e9tro de Paris)"}}, {"type": "node", "id": 324352448, "lat": 48.8510854, "lon": 2.3307217, "tags": {"STIF:zone": "1", "check_date:wheelchair": "2021-06-22", "name": "Saint-Sulpice", "operator": "RATP", "public_transport": "station", "railway": "station", "ref:FR:FANTOIR": "75106S528K", "ref:FR:RATP": "1698", "ref:FR:STIF": "22139", "source": "STIF - 12/2016", "station": "subway", "subway": "yes", "type:RATP": "metro", "wheelchair": "no", "wikidata": "Q1783894", "wikipedia": "fr:Saint-Sulpice (m\u00e9tro de Paris)"}}, {"type": "node", "id": 326309672, "lat": 48.8788923, "lon": 2.3624779, "tags": {"STIF:zone": "1", "name": "Ch\u00e2teau Landon", "public_transport": "stop_position", "railway": "station", "ref:FR:FANTOIR": "75110S087E", "ref:FR:RATP": "1963", "ref:FR:STIF": "22367", "source": "STIF - 12/2016", "station": "subway", "subway": "yes", "type:RATP": "metro", "wheelchair": "no", "wikidata": "Q1090315", "wikipedia": "fr:Ch\u00e2teau-Landon (m\u00e9tro de Paris)"}}, {"type": "node", "id": 327432589, "lat": 48.8454719, "lon": 2.339808, "tags": {"STIF:zone": "1", "name": "Luxembourg", "operator": "RATP", "public_transport": "station", "railway": "station", "ref:FR:RATP": "1811", "ref:FR:STIF": "412817", "route_ref": "RER B", "source": "\u00cele-de-France Mobilit\u00e9s - 03/2022", "type:RATP": "rer", "uic_ref": "8775861", "wheelchair": "yes", "wikidata": "Q1772325", "wikipedia": "fr:Gare du Luxembourg"}}, {"type": "node", "id": 327639668, "lat": 48.9176929, "lon": 2.3614631}, {"type": "node", "id": 327639676, "lat": 48.917319, "lon": 2.3616911}, {"type": "node", "id": 327639678, "lat": 48.9183821, "lon": 2.3637155}, {"type": "node", "id": 327639683, "lat": 48.9187916, "lon": 2.3634469}, {"type": "node", "id": 327639691, "lat": 48.9179128, "lon": 2.3618034}, {"type": "node", "id": 327647338, "lat": 48.9240954, "lon": 2.384957, "tags": {"STIF:zone": "3", "name": "La Courneuve - Aubervilliers", "note": "Please do not add the tag public_transport=station, it is already on the way that defines the footprint of the station", "operator": "SNCF", "public_transport": "station", "railway": "station", "ref:FR:RATP": "1991", "ref:FR:STIF": "40990", "ref:FR:uic8": "87271304", "source": "\u00cele-de-France Mobilit\u00e9s - 03/2022", "type:RATP": "rer", "uic_ref": "8727130", "wikidata": "Q2875299", "wikipedia": "fr:Gare de La Courneuve - Aubervilliers"}}, {"type": "node", "id": 329974472, "lat": 48.8808038, "lon": 2.3587094, "tags": {"STIF:zone": "1", "layer": "-3", "name": "Magenta", "network": "RER", "note": "Please do not add the tag public_transport=station, it is already on the way that defines the footprint of the station", "operator": "SNCF", "railway": "station", "ref:FR:RATP": "51923", "ref:FR:STIF": "41126", "ref:FR:uic8": "87281873", "source": "\u00cele-de-France Mobilit\u00e9s - 03/2022", "start_date": "1999-07-14", "train": "yes", "type:RATP": "rer", "uic_ref": "8728187", "wheelchair": "limited", "wikidata": "Q608428", "wikipedia": "fr:Gare de Magenta"}}, {"type": "node", "id": 330020300, "lat": 48.8979517, "lon": 2.4004902, "tags": {"STIF:zone": "2", "name": "Pantin", "network": "RER", "note": "Please do not add the tag public_transport=station, it is already on the way that defines the footprint of the station", "operator": "SNCF", "railway": "station", "ref:FR:RATP": "51924", "ref:FR:STIF": "41011", "ref:FR:uic8": "87113209", "source": "\u00cele-de-France Mobilit\u00e9s - 03/2022", "start_date": "1864", "train": "yes", "type:RATP": "rer", "uic_ref": "8711320", "usage": "main", "wheelchair": "yes", "wikidata": "Q389716", "wikipedia": "fr:Gare de Pantin"}}, {"type": "node", "id": 338930214, "lat": 48.8538898, "lon": 2.2893811, "tags": {"STIF:zone": "1", "alt_name": "Bir-Hakeim (Grenelle)", "name": "Bir-Hakeim", "old_name": "Grenelle", "railway": "station", "ref:FR:FANTOIR": "75115S042R", "ref:FR:RATP": "2007", "ref:FR:STIF": "22179", "source": "STIF - 12/2016", "station": "subway", "type:RATP": "metro", "wheelchair": "yes", "wikidata": "Q1783899", "wikipedia": "fr:Bir-Hakeim (m\u00e9tro de Paris)"}}, {"type": "node", "id": 354969611, "lat": 48.8722245, "lon": 2.3297877, "tags": {"STIF:zone": "1", "addr:city": "Paris", "addr:postcode": "75009", "name": "Auber", "name:ru": "\u041e\u0431\u0435\u0440", "operator": "RATP", "public_transport": "station", "railway": "station", "ref:FR:FANTOIR": "75109S015F", "ref:FR:RATP": "1990", "ref:FR:STIF": "412806", "source": "STIF - 12/2016", "start_date": "1971-11-23", "type:RATP": "rer", "uic_ref": "8775859", "wheelchair": "yes", "wikidata": "Q800416", "wikipedia": "fr:Gare Auber"}}, {"type": "node", "id": 425042035, "lat": 48.8784982, "lon": 2.3247114}, {"type": "node", "id": 434307684, "lat": 48.8781081, "lon": 2.3259054, "tags": {"entrance": "main", "level": "2", "name": "Gare Saint-Lazare - Rue de Londres", "railway": "train_station_entrance", "wheelchair": "yes"}}, {"type": "node", "id": 473070143, "lat": 48.8491211, "lon": 2.3218798, "tags": {"STIF:zone": "1", "addr:city": "Paris", "name": "Vaneau", "public_transport": "station", "railway": "station", "ref:FR:FANTOIR": "75106S581T;75107S581L", "ref:FR:RATP": "1643", "ref:FR:STIF": "21977", "source": "STIF - 12/2016", "station": "subway", "subway": "yes", "type:RATP": "metro", "wheelchair": "no", "wikidata": "Q1511414", "wikipedia": "fr:Vaneau (m\u00e9tro de Paris)"}}, {"type": "node", "id": 473827247, "lat": 48.8381775, "lon": 2.3833673}, {"type": "node", "id": 473827248, "lat": 48.8378703, "lon": 2.3830433}, {"type": "node", "id": 671350483, "lat": 48.9199173, "lon": 2.3141615}, {"type": "node", "id": 779156470, "lat": 48.8416974, "lon": 2.3668468}, {"type": "node", "id": 779156485, "lat": 48.8417375, "lon": 2.3669513}, {"type": "node", "id": 779156497, "lat": 48.8425234, "lon": 2.3662575}, {"type": "node", "id": 779156515, "lat": 48.8403915, "lon": 2.3664124}, {"type": "node", "id": 779156517, "lat": 48.8410283, "lon": 2.3658334}, {"type": "node", "id": 779156552, "lat": 48.8411576, "lon": 2.3657204}, {"type": "node", "id": 779156583, "lat": 48.84249, "lon": 2.3661671}, {"type": "node", "id": 779156727, "lat": 48.8424863, "lon": 2.3661387}, {"type": "node", "id": 779156763, "lat": 48.8424947, "lon": 2.3661628}, {"type": "node", "id": 784356967, "lat": 48.8821583, "lon": 2.3546389}, {"type": "node", "id": 784505551, "lat": 48.8821327, "lon": 2.3547491}, {"type": "node", "id": 789406790, "lat": 48.9202205, "lon": 2.3144562}, {"type": "node", "id": 789410412, "lat": 48.9203101, "lon": 2.3142363}, {"type": "node", "id": 789411463, "lat": 48.9202308, "lon": 2.3145049}, {"type": "node", "id": 789411818, "lat": 48.9202053, "lon": 2.3142873}, {"type": "node", "id": 789418669, "lat": 48.9201292, "lon": 2.3145547}, {"type": "node", "id": 789427511, "lat": 48.9202376, "lon": 2.3144481}, {"type": "node", "id": 789433393, "lat": 48.9201189, "lon": 2.3145059}, {"type": "node", "id": 789439034, "lat": 48.920214, "lon": 2.314329}, {"type": "node", "id": 789453301, "lat": 48.9202377, "lon": 2.3143175}, {"type": "node", "id": 789458837, "lat": 48.9202625, "lon": 2.314436}, {"type": "node", "id": 789504960, "lat": 48.9178718, "lon": 2.3512665}, {"type": "node", "id": 789505641, "lat": 48.9180274, "lon": 2.3512301}, {"type": "node", "id": 789536964, "lat": 48.9180106, "lon": 2.3510662}, {"type": "node", "id": 789547366, "lat": 48.9175305, "lon": 2.3513495}, {"type": "node", "id": 789558079, "lat": 48.917509, "lon": 2.3513623}, {"type": "node", "id": 790027804, "lat": 48.8756298, "lon": 2.3241317, "tags": {"elevator": "yes", "name": "1. Cour de Rome", "railway": "subway_entrance", "ref": "1", "source": "survey", "wheelchair": "yes"}}, {"type": "node", "id": 790027892, "lat": 48.8757122, "lon": 2.3240851}, {"type": "node", "id": 790027896, "lat": 48.8756182, "lon": 2.3241816}, {"type": "node", "id": 790027932, "lat": 48.8756693, "lon": 2.3240846}, {"type": "node", "id": 790027975, "lat": 48.8756249, "lon": 2.3242364}, {"type": "node", "id": 794714118, "lat": 48.8968866, "lon": 2.2984496}, {"type": "node", "id": 794714735, "lat": 48.8974516, "lon": 2.2972051}, {"type": "node", "id": 794716153, "lat": 48.897001, "lon": 2.2981457}, {"type": "node", "id": 794719667, "lat": 48.8968662, "lon": 2.2984934}, {"type": "node", "id": 794719703, "lat": 48.8974558, "lon": 2.2979593}, {"type": "node", "id": 794720708, "lat": 48.8972061, "lon": 2.298407}, {"type": "node", "id": 794722058, "lat": 48.897543, "lon": 2.2970456}, {"type": "node", "id": 794722256, "lat": 48.8976329, "lon": 2.2968995}, {"type": "node", "id": 794722746, "lat": 48.8968521, "lon": 2.2984782}, {"type": "node", "id": 794723079, "lat": 48.8972177, "lon": 2.2976633}, {"type": "node", "id": 794723203, "lat": 48.8976923, "lon": 2.2968139}, {"type": "node", "id": 794725588, "lat": 48.8968745, "lon": 2.2984364}, {"type": "node", "id": 817243485, "lat": 48.8747601, "lon": 2.3266535}, {"type": "node", "id": 817244499, "lat": 48.8746409, "lon": 2.3266846}, {"type": "node", "id": 818880271, "lat": 48.8774515, "lon": 2.3230886}, {"type": "node", "id": 818880300, "lat": 48.8780324, "lon": 2.3258886}, {"type": "node", "id": 818880325, "lat": 48.8771244, "lon": 2.3266232}, {"type": "node", "id": 818880405, "lat": 48.8771371, "lon": 2.3266237}, {"type": "node", "id": 818880431, "lat": 48.8761121, "lon": 2.3258721}, {"type": "node", "id": 818880458, "lat": 48.8779988, "lon": 2.3259971}, {"type": "node", "id": 828583775, "lat": 48.8627496, "lon": 2.3012059}, {"type": "node", "id": 828584422, "lat": 48.862731, "lon": 2.3008405}, {"type": "node", "id": 828584578, "lat": 48.8626591, "lon": 2.301216}, {"type": "node", "id": 836331009, "lat": 48.8767953, "lon": 2.4066538}, {"type": "node", "id": 836339053, "lat": 48.8767801, "lon": 2.4066675}, {"type": "node", "id": 836362119, "lat": 48.8765787, "lon": 2.4065879}, {"type": "node", "id": 836370567, "lat": 48.8765933, "lon": 2.4065044}, {"type": "node", "id": 836375980, "lat": 48.8768064, "lon": 2.4065894}, {"type": "node", "id": 838533003, "lat": 48.8782859, "lon": 2.2990808, "tags": {"STIF:zone": "1", "name": "Ternes", "public_transport": "station", "railway": "station", "ref:FR:FANTOIR": "75108S563K", "ref:FR:RATP": "1635", "ref:FR:STIF": "22108", "source": "cadastre-dgi-fr source : Direction G\u00e9n\u00e9rale des Imp\u00f4ts - Cadastre. Mise \u00e0 jour : 2010", "station": "subway", "subway": "yes", "type:RATP": "metro", "wheelchair": "no", "wikidata": "Q635744", "wikipedia": "fr:Ternes (m\u00e9tro de Paris)"}}, {"type": "node", "id": 841988595, "lat": 48.8746995, "lon": 2.3266695, "tags": {"addr:housenumber": "7", "addr:street": "Rue du Havre", "entrance": "yes", "level": "0", "name": "Rue du Havre", "railway": "train_station_entrance", "source": "cadastre-dgi-fr source : Direction G\u00e9n\u00e9rale des Imp\u00f4ts - Cadastre. Mise \u00e0 jour : 2010", "wheelchair": "no"}}, {"type": "node", "id": 867442879, "lat": 48.8977896, "lon": 2.3998537}, {"type": "node", "id": 867449376, "lat": 48.8977754, "lon": 2.4008974}, {"type": "node", "id": 867458995, "lat": 48.8978491, "lon": 2.4008852}, {"type": "node", "id": 867463237, "lat": 48.8977034, "lon": 2.4004826}, {"type": "node", "id": 867464642, "lat": 48.8977282, "lon": 2.4009038}, {"type": "node", "id": 867464677, "lat": 48.8936112, "lon": 2.4135355}, {"type": "node", "id": 867466465, "lat": 48.8976668, "lon": 2.3998703}, {"type": "node", "id": 867468540, "lat": 48.8976964, "lon": 2.4004835}, {"type": "node", "id": 867469742, "lat": 48.8976936, "lon": 2.4003283}, {"type": "node", "id": 867472833, "lat": 48.8935899, "lon": 2.4134653}, {"type": "node", "id": 867490651, "lat": 48.8981654, "lon": 2.4000961}, {"type": "node", "id": 867498088, "lat": 48.8976873, "lon": 2.4003291}, {"type": "node", "id": 867504473, "lat": 48.8935959, "lon": 2.4134514}, {"type": "node", "id": 867522184, "lat": 48.8977962, "lon": 2.3999728}, {"type": "node", "id": 867529502, "lat": 48.8936007, "lon": 2.413526}, {"type": "node", "id": 867532402, "lat": 48.8982332, "lon": 2.4008432}, {"type": "node", "id": 895871336, "lat": 48.8601681, "lon": 2.3248892, "tags": {"entrance": "yes", "level": "-1", "name": "Mus\u00e9e d'Orsay / Rue Bellechasse", "railway": "train_station_entrance", "source": "SNCF Transilien - Plans d'architecte et plan de communication - Prestation de saisie r\u00e9alis\u00e9e par Arx IT en hiver 2016", "wheelchair": "yes"}}, {"type": "node", "id": 918149584, "lat": 48.8444458, "lon": 2.3771542}, {"type": "node", "id": 918150020, "lat": 48.8446215, "lon": 2.3753947}, {"type": "node", "id": 918150407, "lat": 48.8445685, "lon": 2.3754952}, {"type": "node", "id": 918150572, "lat": 48.843137, "lon": 2.3790105}, {"type": "node", "id": 918150755, "lat": 48.8444368, "lon": 2.3771707}, {"type": "node", "id": 918151200, "lat": 48.8447593, "lon": 2.3757353}, {"type": "node", "id": 918151298, "lat": 48.8446836, "lon": 2.3753885}, {"type": "node", "id": 918152749, "lat": 48.8432862, "lon": 2.3787211}, {"type": "node", "id": 918153261, "lat": 48.8430588, "lon": 2.3790534}, {"type": "node", "id": 918153430, "lat": 48.8423996, "lon": 2.3801356}, {"type": "node", "id": 919127553, "lat": 48.8375457, "lon": 2.386349}, {"type": "node", "id": 919128070, "lat": 48.8393654, "lon": 2.3835137}, {"type": "node", "id": 919128369, "lat": 48.8394567, "lon": 2.3830689}, {"type": "node", "id": 919128633, "lat": 48.8395225, "lon": 2.3831306}, {"type": "node", "id": 919128964, "lat": 48.8394916, "lon": 2.3829843}, {"type": "node", "id": 919129159, "lat": 48.8392817, "lon": 2.383436}, {"type": "node", "id": 919129198, "lat": 48.8384094, "lon": 2.3821995}, {"type": "node", "id": 919129873, "lat": 48.8383426, "lon": 2.3822884}, {"type": "node", "id": 919131071, "lat": 48.8372857, "lon": 2.3861026}, {"type": "node", "id": 936879981, "lat": 48.8385964, "lon": 2.3157438}, {"type": "node", "id": 936881435, "lat": 48.838629, "lon": 2.3157703}, {"type": "node", "id": 936882439, "lat": 48.8386137, "lon": 2.3156959}, {"type": "node", "id": 937108280, "lat": 48.8401996, "lon": 2.3214871}, {"type": "node", "id": 937112222, "lat": 48.8409472, "lon": 2.3212166}, {"type": "node", "id": 937116553, "lat": 48.8416377, "lon": 2.3197193}, {"type": "node", "id": 937116651, "lat": 48.840253, "lon": 2.3215026}, {"type": "node", "id": 937116837, "lat": 48.8416484, "lon": 2.3198157}, {"type": "node", "id": 937117792, "lat": 48.84021, "lon": 2.3214942}, {"type": "node", "id": 937119876, "lat": 48.8402022, "lon": 2.3214889}, {"type": "node", "id": 937119921, "lat": 48.8402456, "lon": 2.3215034}, {"type": "node", "id": 937119933, "lat": 48.840103, "lon": 2.3213696}, {"type": "node", "id": 937122494, "lat": 48.8402371, "lon": 2.321503}, {"type": "node", "id": 937123190, "lat": 48.8416419, "lon": 2.3198886}, {"type": "node", "id": 937128613, "lat": 48.8416159, "lon": 2.3199715}, {"type": "node", "id": 937129278, "lat": 48.8416424, "lon": 2.3197428}, {"type": "node", "id": 937132062, "lat": 48.8402626, "lon": 2.3215}, {"type": "node", "id": 937133092, "lat": 48.8416474, "lon": 2.3198405}, {"type": "node", "id": 937133445, "lat": 48.8416472, "lon": 2.3197787}, {"type": "node", "id": 942695829, "lat": 48.8385604, "lon": 2.3159707, "tags": {"name": "Gare Montparnasse 3 - Vaugirard", "operator": "SNCF", "public_transport": "station", "railway": "station", "ref:FR:STIF": "41204", "source": "SNCF - 06/2013", "uic_ref": "8739110", "wikidata": "Q631114", "wikipedia": "fr:Gare de Paris-Montparnasse"}}, {"type": "node", "id": 980491629, "lat": 48.888463, "lon": 2.3134823}, {"type": "node", "id": 1000517983, "lat": 48.878559, "lon": 2.3616949}, {"type": "node", "id": 1000519274, "lat": 48.8810442, "lon": 2.3608661}, {"type": "node", "id": 1000519285, "lat": 48.8810501, "lon": 2.3608419}, {"type": "node", "id": 1000785936, "lat": 48.8792643, "lon": 2.3587477}, {"type": "node", "id": 1000785946, "lat": 48.8796949, "lon": 2.3596289}, {"type": "node", "id": 1000785948, "lat": 48.8792555, "lon": 2.3588472}, {"type": "node", "id": 1000785953, "lat": 48.8802539, "lon": 2.3602383}, {"type": "node", "id": 1000785965, "lat": 48.8797867, "lon": 2.3597277}, {"type": "node", "id": 1000785967, "lat": 48.8802683, "lon": 2.3602932}, {"type": "node", "id": 1000785969, "lat": 48.8778509, "lon": 2.3584778}, {"type": "node", "id": 1000785978, "lat": 48.8787026, "lon": 2.3586408}, {"type": "node", "id": 1000785983, "lat": 48.8795776, "lon": 2.3590334}, {"type": "node", "id": 1000785984, "lat": 48.8798217, "lon": 2.3597681}, {"type": "node", "id": 1000785996, "lat": 48.8778958, "lon": 2.3583565}, {"type": "node", "id": 1000785999, "lat": 48.8775938, "lon": 2.3583248}, {"type": "node", "id": 1000786002, "lat": 48.8797021, "lon": 2.3595254}, {"type": "node", "id": 1000786003, "lat": 48.8778628, "lon": 2.3584383}, {"type": "node", "id": 1000786005, "lat": 48.8778752, "lon": 2.3583994}, {"type": "node", "id": 1000786011, "lat": 48.8783775, "lon": 2.3585242}, {"type": "node", "id": 1000786017, "lat": 48.8778933, "lon": 2.3583673}, {"type": "node", "id": 1000786019, "lat": 48.8797379, "lon": 2.3596744}, {"type": "node", "id": 1000786020, "lat": 48.8799058, "lon": 2.359869}, {"type": "node", "id": 1000795813, "lat": 48.8808694, "lon": 2.3614185}, {"type": "node", "id": 1000795814, "lat": 48.8808696, "lon": 2.3614541}, {"type": "node", "id": 1000803856, "lat": 48.8807194, "lon": 2.3615773}, {"type": "node", "id": 1000803883, "lat": 48.880879, "lon": 2.3615715}, {"type": "node", "id": 1000803893, "lat": 48.8808778, "lon": 2.3615431}, {"type": "node", "id": 1088436872, "lat": 48.8436894, "lon": 2.4100898, "tags": {"name": "Alexandra David-N\u00e9el", "operator": "RATP", "public_transport": "stop_position", "railway": "tram_stop", "tram": "yes", "type:RATP": "tram", "wheelchair": "yes"}}, {"type": "node", "id": 1088638616, "lat": 48.8890094, "lon": 2.3956594, "tags": {"name": "Porte de Pantin - Parc de la Villette", "operator": "RATP", "public_transport": "stop_position", "railway": "tram_stop", "tram": "yes", "type:RATP": "tram", "wheelchair": "yes"}}, {"type": "node", "id": 1089075983, "lat": 48.8587004, "lon": 2.4096628, "tags": {"name": "Marie de Miribel", "network": "RATP", "network:wikidata": "Q1142114", "operator": "RATP", "operator:wikidata": "Q643290", "public_transport": "stop_position", "railway": "tram_stop", "tram": "yes", "type:RATP": "tram"}}, {"type": "node", "id": 1108259366, "lat": 48.8532652, "lon": 2.3442296, "tags": {"level": "-1", "name": "Place Saint-Michel", "railway": "subway_entrance", "ref": "4", "source": "cadastre-dgi-fr source : Direction G\u00e9n\u00e9rale des Imp\u00f4ts - Cadastre. Mise \u00e0 jour : 2011", "wheelchair": "no"}}, {"type": "node", "id": 1224788605, "lat": 48.8514841, "lon": 2.3981859, "tags": {"STIF:zone": "1", "check_date:wheelchair": "2023-07-19", "heritage": "3", "heritage:operator": "mhs", "mhs:inscription_date": "1978", "name": "Avron", "public_transport": "station", "railway": "station", "ref:FR:FANTOIR": "75111S017B", "ref:FR:RATP": "1995", "ref:FR:STIF": "22124", "ref:mhs": "PA00086785", "source": "STIF - 12/2016", "source:heritage": "data.gouv.fr:Minist\u00e8re de la Culture - 08/2011", "station": "subway", "type:RATP": "metro", "wheelchair": "no", "wikidata": "Q517844", "wikipedia": "fr:Avron (m\u00e9tro de Paris)"}}, {"type": "node", "id": 1241481366, "lat": 48.8969008, "lon": 2.2984655}, {"type": "node", "id": 1249907245, "lat": 48.8982056, "lon": 2.4033265}, {"type": "node", "id": 1249907271, "lat": 48.8982733, "lon": 2.4027456}, {"type": "node", "id": 1249907313, "lat": 48.8983191, "lon": 2.4033116}, {"type": "node", "id": 1249907348, "lat": 48.8981581, "lon": 2.403334}, {"type": "node", "id": 1249907366, "lat": 48.8979671, "lon": 2.3989595}, {"type": "node", "id": 1249907503, "lat": 48.8982684, "lon": 2.4033176}, {"type": "node", "id": 1260719103, "lat": 48.842104, "lon": 2.3776244}, {"type": "node", "id": 1260719106, "lat": 48.8420142, "lon": 2.3779724}, {"type": "node", "id": 1260719108, "lat": 48.8424306, "lon": 2.3767939}, {"type": "node", "id": 1260719115, "lat": 48.8420504, "lon": 2.3778209}, {"type": "node", "id": 1279576469, "lat": 48.8980742, "lon": 2.3988383}, {"type": "node", "id": 1279576470, "lat": 48.8976753, "lon": 2.4000144, "tags": {"entrance": "yes", "level": "0", "name": "Avenue \u00c9douard Vaillant vers Grands Moulins", "operator": "SNCF", "railway": "train_station_entrance", "wheelchair": "no"}}, {"type": "node", "id": 1279576474, "lat": 48.8981102, "lon": 2.3993405}, {"type": "node", "id": 1279576475, "lat": 48.8983163, "lon": 2.4019336}, {"type": "node", "id": 1279576480, "lat": 48.8980482, "lon": 2.398843}, {"type": "node", "id": 1279576485, "lat": 48.8982709, "lon": 2.4019433}, {"type": "node", "id": 1281989808, "lat": 48.8810084, "lon": 2.3608168}, {"type": "node", "id": 1281989831, "lat": 48.8802985, "lon": 2.3604077}, {"type": "node", "id": 1281989840, "lat": 48.8807969, "lon": 2.3606947}, {"type": "node", "id": 1282180290, "lat": 48.8780772, "lon": 2.3584169, "tags": {"addr:housenumber": "32", "source": "cadastre-dgi-fr source : Direction G\u00e9n\u00e9rale des Imp\u00f4ts - Cadastre. Mise \u00e0 jour : 2011"}}, {"type": "node", "id": 1282180303, "lat": 48.8785829, "lon": 2.3585979, "tags": {"addr:housenumber": "38", "source": "cadastre-dgi-fr source : Direction G\u00e9n\u00e9rale des Imp\u00f4ts - Cadastre. Mise \u00e0 jour : 2011"}}, {"type": "node", "id": 1282180331, "lat": 48.8784456, "lon": 2.3585486, "tags": {"addr:housenumber": "36", "source": "cadastre-dgi-fr source : Direction G\u00e9n\u00e9rale des Imp\u00f4ts - Cadastre. Mise \u00e0 jour : 2011"}}, {"type": "node", "id": 1282180373, "lat": 48.878244, "lon": 2.3584765, "tags": {"addr:housenumber": "34", "source": "cadastre-dgi-fr source : Direction G\u00e9n\u00e9rale des Imp\u00f4ts - Cadastre. Mise \u00e0 jour : 2011"}}, {"type": "node", "id": 1282530455, "lat": 48.8419912, "lon": 2.3800188}, {"type": "node", "id": 1282530493, "lat": 48.8423051, "lon": 2.3792038}, {"type": "node", "id": 1282530515, "lat": 48.8418148, "lon": 2.3803932}, {"type": "node", "id": 1282530607, "lat": 48.8421516, "lon": 2.3795065}, {"type": "node", "id": 1282530637, "lat": 48.8417806, "lon": 2.3806538}, {"type": "node", "id": 1282530703, "lat": 48.8418281, "lon": 2.3804057}, {"type": "node", "id": 1303098158, "lat": 48.9165924, "lon": 2.3507203}, {"type": "node", "id": 1303098261, "lat": 48.9189888, "lon": 2.3501319}, {"type": "node", "id": 1303098295, "lat": 48.9190243, "lon": 2.3503531}, {"type": "node", "id": 1303098583, "lat": 48.9165686, "lon": 2.3504957}, {"type": "node", "id": 1303098623, "lat": 48.9189961, "lon": 2.3501718}, {"type": "node", "id": 1308685752, "lat": 48.8419125, "lon": 2.3786225}, {"type": "node", "id": 1308685753, "lat": 48.8420783, "lon": 2.3796614}, {"type": "node", "id": 1308685756, "lat": 48.8423123, "lon": 2.3789578}, {"type": "node", "id": 1308685758, "lat": 48.8417511, "lon": 2.3809141}, {"type": "node", "id": 1308685759, "lat": 48.8417018, "lon": 2.3808502}, {"type": "node", "id": 1308685760, "lat": 48.8419299, "lon": 2.3784549}, {"type": "node", "id": 1308685762, "lat": 48.8419763, "lon": 2.3781548}, {"type": "node", "id": 1308685763, "lat": 48.8423366, "lon": 2.3789967}, {"type": "node", "id": 1308685768, "lat": 48.8419557, "lon": 2.3782766}, {"type": "node", "id": 1308685770, "lat": 48.8419052, "lon": 2.3786198}, {"type": "node", "id": 1308685773, "lat": 48.8420332, "lon": 2.3785427}, {"type": "node", "id": 1308685775, "lat": 48.8421584, "lon": 2.3786365}, {"type": "node", "id": 1308685778, "lat": 48.8420928, "lon": 2.3785599}, {"type": "node", "id": 1308685783, "lat": 48.8416909, "lon": 2.3808398}, {"type": "node", "id": 1308685786, "lat": 48.8420732, "lon": 2.3798614}, {"type": "node", "id": 1308685792, "lat": 48.842181, "lon": 2.3786592}, {"type": "node", "id": 1308685795, "lat": 48.8417645, "lon": 2.38093}, {"type": "node", "id": 1308685796, "lat": 48.8420941, "lon": 2.3796814}, {"type": "node", "id": 1308685799, "lat": 48.8421126, "lon": 2.3785766}, {"type": "node", "id": 1308685800, "lat": 48.8420109, "lon": 2.3785327}, {"type": "node", "id": 1308870076, "lat": 48.8425453, "lon": 2.3765765}, {"type": "node", "id": 1308998006, "lat": 48.8435522, "lon": 2.3743151, "tags": {"alt_name": "Gare de Lyon RER", "level": "-3", "name": "Gare de Lyon", "note": "Please do not add the tag public_transport=station, it is already on the way that defines the footprint of the station", "official_name": "PARIS GARE DE LYON", "operator": "SNCF", "railway": "station", "ref:FR:STIF": "41396", "ref:FR:uic8": "87686030", "route_ref:FR:RER_D": "SOVA;FUCA;UOVA;VIPE;LOVA;VUCA;FOVA;LUCA;VOVA;MIPE;UUCA;SUCA;VOPA;MOPA;MIPA;FOPA;LOPA", "start_date": "1995-09-24", "station": "train", "train": "yes", "type:RATP": "rer", "uic_ref": "8768603", "wheelchair": "no"}}, {"type": "node", "id": 1309601486, "lat": 48.8419032, "lon": 2.3809099}, {"type": "node", "id": 1309601487, "lat": 48.8426773, "lon": 2.3796863}, {"type": "node", "id": 1309601504, "lat": 48.8420698, "lon": 2.3806953}, {"type": "node", "id": 1309601515, "lat": 48.8417637, "lon": 2.3810818}, {"type": "node", "id": 1309601516, "lat": 48.8417419, "lon": 2.3810361}, {"type": "node", "id": 1309601519, "lat": 48.8420333, "lon": 2.3807473}, {"type": "node", "id": 1309601522, "lat": 48.8423165, "lon": 2.3802887}, {"type": "node", "id": 1309601537, "lat": 48.841975, "lon": 2.380824}, {"type": "node", "id": 1309601541, "lat": 48.8421735, "lon": 2.3805368}, {"type": "node", "id": 1309601542, "lat": 48.8421223, "lon": 2.3806239}, {"type": "node", "id": 1309601564, "lat": 48.8424729, "lon": 2.3800267}, {"type": "node", "id": 1309601571, "lat": 48.8427503, "lon": 2.379565}, {"type": "node", "id": 1309601584, "lat": 48.8422185, "lon": 2.3804617}, {"type": "node", "id": 1321942116, "lat": 48.9240374, "lon": 2.385438}, {"type": "node", "id": 1321942120, "lat": 48.9246553, "lon": 2.387629}, {"type": "node", "id": 1321942121, "lat": 48.9244577, "lon": 2.3879184}, {"type": "node", "id": 1321942154, "lat": 48.9244546, "lon": 2.3862648}, {"type": "node", "id": 1321942162, "lat": 48.9244156, "lon": 2.3860727}, {"type": "node", "id": 1321942239, "lat": 48.924582, "lon": 2.386997}, {"type": "node", "id": 1321942240, "lat": 48.9246212, "lon": 2.3872867}, {"type": "node", "id": 1321942255, "lat": 48.9239043, "lon": 2.384688}, {"type": "node", "id": 1321942278, "lat": 48.9245947, "lon": 2.3876515}, {"type": "node", "id": 1321942281, "lat": 48.9246199, "lon": 2.3872163}, {"type": "node", "id": 1321942282, "lat": 48.9241645, "lon": 2.3861491}, {"type": "node", "id": 1321942284, "lat": 48.9246758, "lon": 2.3876217}, {"type": "node", "id": 1321942291, "lat": 48.9241623, "lon": 2.384479, "tags": {"amenity": "ticket_validator", "barrier": "turnstile", "bicycle": "yes", "entrance": "main", "fee": "yes", "level": "0", "name": "Avenue Victor Hugo", "railway": "train_station_entrance", "wheelchair": "yes"}}, {"type": "node", "id": 1321942299, "lat": 48.9244246, "lon": 2.3859939}, {"type": "node", "id": 1321942303, "lat": 48.9243189, "lon": 2.3870849}, {"type": "node", "id": 1321942305, "lat": 48.9244112, "lon": 2.3859614}, {"type": "node", "id": 1321942321, "lat": 48.9244438, "lon": 2.3862356}, {"type": "node", "id": 1321942341, "lat": 48.9245242, "lon": 2.3876783}, {"type": "node", "id": 1321942346, "lat": 48.924438, "lon": 2.3860646}, {"type": "node", "id": 1321942364, "lat": 48.9244961, "lon": 2.3879016}, {"type": "node", "id": 1321968336, "lat": 48.9181491, "lon": 2.3621943}, {"type": "node", "id": 1321968371, "lat": 48.9185971, "lon": 2.3637241}, {"type": "node", "id": 1321968376, "lat": 48.9185037, "lon": 2.3638287}, {"type": "node", "id": 1321968389, "lat": 48.9172507, "lon": 2.3614103}, {"type": "node", "id": 1321968406, "lat": 48.9174475, "lon": 2.3611761}, {"type": "node", "id": 1321968416, "lat": 48.9177149, "lon": 2.3624464}, {"type": "node", "id": 1321968418, "lat": 48.9173181, "lon": 2.3613312},