{"version": 0.6, "generator": "Overpass API 0.7.61.5 4133829e", "osm3s": {"timestamp_osm_base": "2023-12-09T22:50:21Z", "copyright": "The data included in this document is from www.openstreetmap.org. The data is made available under ODbL."}, "elements": [{"type": "node", "id": 331453352, "lat": 48.8488965, "lon": 2.3721895, "tags": {"STIF:zone": "1", "bench": "yes", "bin": "no", "bus": "yes", "highway": "bus_stop", "lit": "yes", "name": "Lyon - Ledru-Rollin", "public_transport": "platform", "ref:FR:STIF": "39722", "ref:FR:STIF:stop_id": "StopPoint:59:3764981", "route_ref": "20;87;65;91;N02;N11;N16", "shelter": "yes", "source:wheelchair": "STIF 2019-01", "tactile_paving": "yes", "wheelchair": "yes"}}, {"type": "node", "id": 497913166, "lat": 48.8613013, "lon": 2.3744391, "tags": {"STIF:zone": "1", "bench": "yes", "bin": "no", "bus": "yes", "highway": "bus_stop", "lit": "yes", "name": "Saint-Ambroise", "public_transport": "platform", "ref:FR:STIF": "23657", "ref:FR:STIF:stop_id": "StopPoint:59:6423475", "route_ref": "56", "shelter": "yes", "source:wheelchair": "STIF 2019-01", "tactile_paving": "no", "wheelchair": "no"}}, {"type": "node", "id": 500308183, "lat": 48.8636497, "lon": 2.3704915, "tags": {"STIF:zone": "1", "bench": "yes", "bin": "yes", "bus": "yes", "highway": "bus_stop", "lit": "no", "name": "Oberkampf - Richard Lenoir", "public_transport": "platform", "ref:FR:STIF": "23651", "ref:FR:STIF:stop_id": "StopPoint:59:6423473", "route_ref": "56", "shelter": "yes", "source:wheelchair": "STIF 2019-01", "tactile_paving": "no", "wheelchair": "no"}}, {"type": "node", "id": 694740223, "lat": 48.8502634, "lon": 2.3592827, "tags": {"STIF:zone": "1", "bench": "yes", "bin": "yes", "bus": "yes", "highway": "bus_stop", "lit": "yes", "name": "Pont Sully - Quai de B\u00e9thune", "public_transport": "platform", "ref:FR:STIF": "27228", "ref:FR:STIF:stop_id": "StopPoint:59:3813074", "route_ref": "86;87", "shelter": "yes", "source": "survey 06/2018", "source:position": "BD Ortho 2018", "source:wheelchair": "STIF 2019-01", "tactile_paving": "no", "wheelchair": "yes"}}, {"type": "node", "id": 699080325, "lat": 48.8538053, "lon": 2.35671, "tags": {"STIF:zone": "1", "bench": "yes", "bin": "no", "bus": "yes", "highway": "bus_stop", "lit": "yes", "name": "Pont Marie", "public_transport": "platform", "ref:FR:STIF": "28008", "route_ref": "67;72", "shelter": "yes", "source:wheelchair": "STIF 2019-01", "survey:date": "2021-01-09", "tactile_paving": "no", "wheelchair": "no"}}, {"type": "node", "id": 699193856, "lat": 48.8561354, "lon": 2.3575146, "tags": {"STIF:zone": "1", "bench": "yes", "bus": "yes", "highway": "bus_stop", "lit": "yes", "name": "Rue Vieille du Temple - Mairie du 4e", "public_transport": "platform", "ref:FR:STIF": "36948", "ref:FR:STIF:stop_id": "StopPoint:59:3687084", "route_ref": "69;96;N16", "shelter": "yes", "source:wheelchair": "STIF 2019-01", "tactile_paving": "no", "wheelchair": "no"}}, {"type": "node", "id": 701537684, "lat": 48.8601661, "lon": 2.3565322, "tags": {"STIF:zone": "1", "bench": "yes", "bin": "yes", "bus": "yes", "highway": "bus_stop", "lit": "yes", "name": "Archives - Rambuteau", "name:RATP": "ARCHIVES - RAMBUTEAU", "public_transport": "platform", "ref:FR:RATP": "11343941", "ref:FR:STIF": "29433", "ref:FR:STIF:stop_id": "StopPoint:59:3747829", "shelter": "no", "source": "cadastre-dgi-fr source : Direction G\u00e9n\u00e9rale des Imp\u00f4ts - Cadastre. Mise \u00e0 jour : 2010", "source:ref:FR:STIF": "opendata STIF - 03/2017", "tactile_paving": "no"}}, {"type": "node", "id": 702750602, "lat": 48.8598337, "lon": 2.3567019, "tags": {"STIF:zone": "1", "bench": "yes", "bin": "no", "bus": "yes", "highway": "bus_stop", "lit": "yes", "name": "Archives - Rambuteau", "public_transport": "platform", "ref:FR:STIF": "24799", "ref:FR:STIF:stop_id": "StopPoint:59:3926391", "route_ref": "75", "shelter": "yes", "source:wheelchair": "STIF 2019-01", "tactile_paving": "no", "wheelchair": "no"}}, {"type": "node", "id": 702750973, "lat": 48.8587674, "lon": 2.3585491, "tags": {"STIF:zone": "1", "bench": "yes", "bin": "no", "bus": "yes", "bus_stop:type": "Abri autobus 3,35x1,40", "highway": "bus_stop", "name": "Rue Vieille du Temple", "name:RATP": "RUE VIEILLE DU TEMPLE", "public_transport": "platform", "ref:FR:RATP": "11343942", "ref:FR:STIF": "29434", "ref:FR:STIF:stop_id": "StopPoint:59:3747830", "shelter": "yes", "source": "cadastre-dgi-fr source : Direction G\u00e9n\u00e9rale des Imp\u00f4ts - Cadastre. Mise \u00e0 jour : 2010", "source:position": "opendata.paris.fr - 04/2011", "source:ref:FR:STIF": "opendata STIF - 03/2017", "tactile_paving": "no", "type:RATP": "bus", "wikidata": "Q56868543"}}, {"type": "node", "id": 703518512, "lat": 48.8563513, "lon": 2.3645998, "tags": {"STIF:zone": "1", "bench": "no", "bin": "no", "bus": "yes", "highway": "bus_stop", "name": "Place des Vosges", "public_transport": "platform", "ref:FR:RATP": "11335784", "ref:FR:STIF": "26182", "ref:FR:STIF:stop_id": "StopPoint:59:3747832", "shelter": "no", "tactile_paving": "no", "type:RATP": "bus"}}, {"type": "node", "id": 704094476, "lat": 48.8539074, "lon": 2.3652618, "tags": {"STIF:zone": "1", "bench": "yes", "bin": "yes", "bus": "yes", "highway": "bus_stop", "lit": "yes", "name": "Birague", "public_transport": "platform", "ref:FR:STIF": "8431", "shelter": "yes", "source:wheelchair": "STIF 2019-01", "survey:date": "2020-12-03", "tactile_paving": "no", "wheelchair": "yes"}}, {"type": "node", "id": 705182623, "lat": 48.8512399, "lon": 2.3630751, "tags": {"STIF:zone": "1", "bench": "yes", "bin": "no", "bus": "yes", "highway": "bus_stop", "lit": "yes", "name": "Sully - Morland", "public_transport": "platform", "ref:FR:STIF": "36306", "ref:FR:STIF:stop_id": "StopPoint:59:3813075", "route_ref": "86;87", "shelter": "yes", "source:wheelchair": "STIF 2019-01", "tactile_paving": "no", "wheelchair": "no"}}, {"type": "node", "id": 705182829, "lat": 48.8515209, "lon": 2.36208, "tags": {"STIF:zone": "1", "bench": "yes", "bin": "no", "bus": "yes", "highway": "bus_stop", "lit": "no", "name": "Sully - Morland", "public_transport": "platform", "ref:FR:STIF": "417935", "route_ref": "67;72", "shelter": "yes", "survey:date": "2021-01-09", "tactile_paving": "no"}}, {"type": "node", "id": 705458721, "lat": 48.8528348, "lon": 2.3677251, "tags": {"STIF:zone": "1", "bench": "yes", "bin": "no", "bus": "yes", "highway": "bus_stop", "lit": "yes", "name": "Bastille - Henri IV", "public_transport": "platform", "ref:FR:STIF": "29790", "route_ref": "86;87", "shelter": "yes", "source": "survey 06/2018", "source:wheelchair": "STIF 2019-01", "survey:date": "2020-12-03", "tactile_paving": "no", "wheelchair": "yes"}}, {"type": "node", "id": 706127936, "lat": 48.862838, "lon": 2.3530718, "tags": {"STIF:zone": "1", "bench": "yes", "bin": "yes", "bus": "yes", "bus_stop:type": "Abri autobus 4x1,60", "highway": "bus_stop", "lit": "yes", "name": "Grenier Saint-Lazare - Quartier de l'Horloge", "name:RATP": "GRENIER SAINT-LAZARE - QUARTIER DE L'HORLOGE", "public_transport": "platform", "ref:FR:RATP": "11343939", "ref:FR:STIF": "29449", "ref:FR:STIF:stop_id": "StopPoint:59:3747826", "shelter": "yes", "source": "cadastre-dgi-fr source : Direction G\u00e9n\u00e9rale des Imp\u00f4ts - Cadastre. Mise \u00e0 jour : 2010", "source:position": "opendata.paris.fr - 04/2011", "source:ref:FR:STIF": "opendata STIF - 03/2017", "tactile_paving": "no", "type:RATP": "bus"}}, {"type": "node", "id": 706128129, "lat": 48.8629143, "lon": 2.3542841, "tags": {"STIF:zone": "1", "bench": "yes", "bin": "yes", "bus": "yes", "highway": "bus_stop", "lit": "yes", "name": "Grenier Saint-Lazare - Quartier de l'Horloge", "public_transport": "platform", "ref:FR:STIF": "28262", "ref:FR:STIF:stop_id": "StopPoint:59:5018336", "route_ref": "38;47;75;N12;N13;N14;N23", "shelter": "yes", "source:wheelchair": "STIF 2019-01", "tactile_paving": "no", "wheelchair": "no"}}, {"type": "node", "id": 717532864, "lat": 48.856758, "lon": 2.3644946, "tags": {"STIF:zone": "1", "bench": "yes", "bin": "no", "bus": "yes", "highway": "bus_stop", "name": "Place des Vosges", "public_transport": "platform", "ref:FR:STIF": "37580", "ref:FR:STIF:stop_id": "StopPoint:59:3687435", "route_ref": "96", "shelter": "no", "source:wheelchair": "STIF 2019-01", "tactile_paving": "no", "wheelchair": "no"}}, {"type": "node", "id": 967125204, "lat": 48.8487118, "lon": 2.3709715, "tags": {"STIF:zone": "1", "bench": "yes", "bin": "no", "bus": "yes", "check_date:bin": "2023-02-12", "highway": "bus_stop", "lit": "yes", "name": "Lyon - Ledru-Rollin", "public_transport": "platform", "ref:FR:RATP": "11342247", "ref:FR:STIF": "28393", "ref:FR:STIF:stop_id": "StopPoint:59:3747836", "route_ref": "29;N01;20;N11", "shelter": "yes", "source": "survey 07/2017", "tactile_paving": "no", "type:RATP": "bus", "wheelchair": "limited"}}, {"type": "node", "id": 967125213, "lat": 48.8523087, "lon": 2.3696447, "tags": {"STIF:zone": "1", "bench": "yes", "bin": "no", "bus": "yes", "highway": "bus_stop", "lit": "yes", "name": "Bastille", "public_transport": "platform", "ref:FR:STIF": "9111", "shelter": "yes", "source:wheelchair": "STIF 2019-01", "survey:date": "2020-12-03", "tactile_paving": "yes", "wheelchair": "no"}}, {"type": "node", "id": 987048847, "lat": 48.8490884, "lon": 2.3558926, "tags": {"STIF:zone": "1", "bench": "yes", "bin": "yes", "bus": "yes", "highway": "bus_stop", "lit": "yes", "name": "Institut du Monde Arabe", "public_transport": "platform", "ref:FR:STIF": "37561", "ref:FR:STIF:stop_id": "StopPoint:59:3887813", "route_ref": "67;75;87;89", "shelter": "yes", "source:wheelchair": "STIF 2019-01", "tactile_paving": "no", "wheelchair": "no"}}, {"type": "node", "id": 987505273, "lat": 48.8467291, "lon": 2.3519515, "tags": {"STIF:zone": "1", "bench": "yes", "bin": "no", "bus": "yes", "highway": "bus_stop", "lit": "yes", "name": "Cardinal Lemoine - Monge", "public_transport": "platform", "ref:FR:STIF": "36690", "ref:FR:STIF:stop_id": "StopPoint:59:3887763", "route_ref": "75", "shelter": "yes", "source:wheelchair": "STIF 2019-01", "tactile_paving": "no", "wheelchair": "no"}}, {"type": "node", "id": 987505276, "lat": 48.8491339, "lon": 2.3577402, "tags": {"STIF:zone": "1", "bench": "yes", "bin": "no", "bus": "yes", "highway": "bus_stop", "lit": "yes", "name": "Universit\u00e9 Paris VI", "public_transport": "platform", "ref:FR:STIF": "25729", "ref:FR:STIF:stop_id": "StopPoint:59:3716930", "route_ref": "63", "shelter": "yes", "source:wheelchair": "STIF 2019-01", "tactile_paving": "no", "wheelchair": "yes"}}, {"type": "node", "id": 987505286, "lat": 48.8471829, "lon": 2.3603072, "tags": {"STIF:zone": "1", "bench": "yes", "bin": "no", "bus": "yes", "highway": "bus_stop", "lit": "yes", "name": "Cuvier", "public_transport": "platform", "ref:FR:STIF": "25728", "ref:FR:STIF:stop_id": "StopPoint:59:3716891", "route_ref": "63", "shelter": "yes", "source:wheelchair": "STIF 2019-01", "tactile_paving": "no", "wheelchair": "yes"}}, {"type": "node", "id": 987505295, "lat": 48.8484507, "lon": 2.3584221, "tags": {"STIF:zone": "1", "bench": "yes", "bin": "no", "bus": "yes", "highway": "bus_stop", "lit": "yes", "name": "Universit\u00e9 Paris VI", "public_transport": "platform", "ref:FR:STIF": "28422", "ref:FR:STIF:stop_id": "StopPoint:59:3716890", "route_ref": "63", "shelter": "yes", "source:wheelchair": "STIF 2019-01", "tactile_paving": "no", "wheelchair": "yes"}}, {"type": "node", "id": 1014690200, "lat": 48.8599526, "lon": 2.352725, "tags": {"STIF:zone": "1", "bench": "yes", "bin": "no", "bus": "yes", "highway": "bus_stop", "lit": "yes", "name": "Centre Georges Pompidou", "public_transport": "platform", "ref:FR:STIF": "28259", "shelter": "yes", "source:wheelchair": "STIF 2019-01", "survey:date": "2021-01-09", "tactile_paving": "no", "wheelchair": "no"}}, {"type": "node", "id": 1129921065, "lat": 48.8493215, "lon": 2.3553775, "tags": {"STIF:zone": "1", "bench": "yes", "bin": "yes", "bus": "yes", "highway": "bus_stop", "lit": "yes", "name": "Saint-Germain - Cardinal Lemoine", "public_transport": "platform", "ref:FR:STIF": "28417", "ref:FR:STIF:stop_id": "StopPoint:59:3716889", "route_ref": "63", "shelter": "yes", "source:wheelchair": "STIF 2019-01", "tactile_paving": "no", "wheelchair": "yes"}}, {"type": "node", "id": 1129921284, "lat": 48.849381, "lon": 2.3538348, "tags": {"STIF:zone": "1", "bench": "yes", "bin": "yes", "bus": "yes", "highway": "bus_stop", "lit": "yes", "name": "Saint-Germain - Cardinal Lemoine", "public_transport": "platform", "ref:FR:STIF": "28634", "ref:FR:STIF:stop_id": "StopPoint:59:3748050", "route_ref": "86;87", "shelter": "yes", "source:wheelchair": "STIF 2019-01", "tactile_paving": "no", "wheelchair": "no"}}, {"type": "node", "id": 1277982252, "lat": 48.8606051, "lon": 2.3785214, "tags": {"STIF:zone": "1", "bench": "yes", "bin": "yes", "bus": "yes", "bus_stop:type": "Abri autobus 3,35x1,40", "check_date:shelter": "2023-08-27", "highway": "bus_stop", "lit": "yes", "name": "Chemin Vert", "public_transport": "platform", "ref:FR:STIF": "23639", "route_ref": "46", "shelter": "yes", "source": "survey 06/2018", "source:position": "BD Ortho 2018", "source:wheelchair": "STIF 2019-01", "tactile_paving": "no", "wheelchair": "yes"}}, {"type": "node", "id": 1277982261, "lat": 48.8600054, "lon": 2.3787555, "tags": {"STIF:zone": "1", "bench": "yes", "bin": "no", "bus": "yes", "bus_stop:type": "Abri autobus 3,35x1,40", "highway": "bus_stop", "lit": "yes", "name": "Chemin Vert", "public_transport": "platform", "ref:FR:STIF": "27472", "ref:FR:STIF:stop_id": "StopPoint:59:3747927", "route_ref": "46", "shelter": "yes", "source": "survey 07/2018", "source:position": "BD Ortho 2018", "source:wheelchair": "STIF 2019-01", "tactile_paving": "no", "wheelchair": "yes"}}, {"type": "node", "id": 1277982269, "lat": 48.8622337, "lon": 2.3766738, "tags": {"STIF:zone": "1", "bench": "yes", "bus": "yes", "bus_stop:type": "Abri autobus 3,35x1,40", "highway": "bus_stop", "name": "Saint-Ambroise", "public_transport": "platform", "ref:FR:STIF": "37531", "route_ref": "46", "shelter": "yes", "source": "survey 07/2018", "source:position": "BD Ortho 2018", "source:wheelchair": "STIF 2019-01", "wheelchair": "yes"}}, {"type": "node", "id": 1277982276, "lat": 48.8622822, "lon": 2.3768672, "tags": {"STIF:zone": "1", "bench": "no", "bus": "yes", "highway": "bus_stop", "name": "Saint-Ambroise", "public_transport": "platform", "ref:FR:STIF": "23635", "route_ref": "46", "shelter": "no", "source": "survey 06/2018", "source:wheelchair": "STIF 2019-01", "wheelchair": "yes"}}, {"type": "node", "id": 1326762375, "lat": 48.8531899, "lon": 2.3777258, "tags": {"STIF:zone": "1", "bench": "yes", "bin": "yes", "bus": "yes", "bus_stop:type": "Abri autobus T\u00e9l\u00e9com petit mod\u00e8le", "highway": "bus_stop", "lit": "yes", "name": "Charonne - Keller", "public_transport": "platform", "ref:FR:STIF": "26315", "ref:FR:STIF:stop_id": "StopPoint:59:3687257", "route_ref": "76", "shelter": "yes", "source": "survey 09/2018", "source:position": "BD Ortho 2018", "source:wheelchair": "STIF 2019-01", "tactile_paving": "no", "wheelchair": "yes"}}, {"type": "node", "id": 1352490965, "lat": 48.8514109, "lon": 2.363054, "tags": {"STIF:zone": "1", "bench": "yes", "bin": "no", "bus": "yes", "highway": "bus_stop", "lit": "yes", "name": "Sully - Morland", "public_transport": "platform", "ref:FR:STIF": "26347", "ref:FR:STIF:stop_id": "StopPoint:59:3813076", "route_ref": "86;87", "shelter": "yes", "source": "survey 06/2018", "source:position": "BD Ortho 2018", "tactile_paving": "no", "wheelchair": "yes"}}, {"type": "node", "id": 1352493882, "lat": 48.850191, "lon": 2.3596194, "tags": {"STIF:zone": "1", "bench": "yes", "bin": "no", "bus": "yes", "highway": "bus_stop", "lit": "yes", "name": "Pont Sully - Quai de B\u00e9thune", "public_transport": "platform", "ref:FR:STIF": "36649", "ref:FR:STIF:stop_id": "StopPoint:59:3764544", "route_ref": "67;87", "shelter": "yes", "source:wheelchair": "STIF 2019-01", "tactile_paving": "no", "wheelchair": "no"}}, {"type": "node", "id": 1358045461, "lat": 48.8621648, "lon": 2.3668199, "tags": {"STIF:zone": "1", "bench": "yes", "bin": "no", "bus": "yes", "highway": "bus_stop", "lit": "yes", "name": "Oberkampf - Filles du Calvaire", "public_transport": "platform", "ref:FR:STIF": "26572", "ref:FR:STIF:stop_id": "StopPoint:59:4044991", "route_ref": "N01;91", "shelter": "yes", "source:wheelchair": "STIF 2019-01", "tactile_paving": "no", "wheelchair": "no"}}, {"type": "node", "id": 1358045462, "lat": 48.8619845, "lon": 2.3671289, "tags": {"STIF:zone": "1", "bench": "yes", "bin": "no", "bus": "yes", "highway": "bus_stop", "lit": "yes", "name": "Oberkampf - Filles du Calvaire", "public_transport": "platform", "ref:FR:STIF": "22743", "ref:FR:STIF:stop_id": "StopPoint:59:4037267", "route_ref": "20, 65, N02;N02;91", "shelter": "yes", "source:wheelchair": "STIF 2019-01", "tactile_paving": "no", "wheelchair": "no"}}, {"type": "node", "id": 1468378323, "lat": 48.853049, "lon": 2.3708354, "tags": {"STIF:zone": "1", "bench": "no", "bin": "no", "bus": "yes", "highway": "bus_stop", "lit": "yes", "name": "Bastille - Faubourg Saint-Antoine", "public_transport": "platform", "ref:FR:STIF": "29792", "route_ref": "76;86", "shelter": "no", "source": "survey 06/2018", "source:wheelchair": "STIF 2019-01", "tactile_paving": "no", "wheelchair": "yes"}}, {"type": "node", "id": 1468378325, "lat": 48.8527352, "lon": 2.3711457, "tags": {"STIF:zone": "1", "bench": "no", "bin": "no", "bus": "yes", "highway": "bus_stop", "lit": "yes", "name": "Bastille - Faubourg Saint-Antoine", "public_transport": "platform", "ref:FR:STIF": "36553", "route_ref": "76;86", "shelter": "no", "source": "survey 06/2018", "source:wheelchair": "STIF 2019-01", "tactile_paving": "no", "wheelchair": "yes"}}, {"type": "node", "id": 1468378328, "lat": 48.8520862, "lon": 2.3732958, "tags": {"STIF:zone": "1", "bench": "no", "bin": "no", "bus": "yes", "highway": "bus_stop", "lit": "yes", "name": "La Boule Blanche", "public_transport": "platform", "ref:FR:STIF": "24976", "route_ref": "76;86", "shelter": "no", "source": "survey 06/2018", "source:wheelchair": "STIF 2019-01", "tactile_paving": "no", "wheelchair": "yes"}}, {"type": "node", "id": 1468378330, "lat": 48.8566923, "lon": 2.3643489, "tags": {"STIF:zone": "1", "bench": "yes", "bin": "yes", "bus": "yes", "highway": "bus_stop", "lit": "yes", "name": "Place des Vosges", "public_transport": "platform", "ref:FR:STIF": "37578", "ref:FR:STIF:stop_id": "StopPoint:59:3687436", "route_ref": "96", "shelter": "no", "source:wheelchair": "STIF 2019-01", "tactile_paving": "no", "wheelchair": "no"}}, {"type": "node", "id": 1577975904, "lat": 48.8519439, "lon": 2.3733896, "tags": {"STIF:zone": "1", "bench": "yes", "bin": "yes", "bus": "yes", "highway": "bus_stop", "lit": "yes", "name": "La Boule Blanche", "public_transport": "platform", "ref:FR:STIF": "24982", "route_ref": "76;86", "shelter": "yes", "source": "survey 06/2018", "source:position": "BD Ortho 2018", "source:wheelchair": "STIF 2019-01", "tactile_paving": "no", "wheelchair": "yes"}}, {"type": "node", "id": 1785271485, "lat": 48.8512406, "lon": 2.3766231, "tags": {"STIF:zone": "1", "bench": "no", "bin": "no", "bus": "yes", "highway": "bus_stop", "lit": "yes", "name": "Ledru-Rollin - Faubourg Saint-Antoine", "public_transport": "platform", "ref:FR:STIF": "24986", "route_ref": "86;86", "shelter": "no", "source": "survey 06/2018", "source:wheelchair": "STIF 2019-01", "tactile_paving": "no", "wheelchair": "yes"}}, {"type": "node", "id": 1785271533, "lat": 48.8515951, "lon": 2.3751754, "tags": {"STIF:zone": "1", "bench": "no", "bin": "yes", "bus": "yes", "highway": "bus_stop", "name": "Ledru-Rollin - Faubourg Saint-Antoine", "public_transport": "platform", "ref:FR:STIF": "26317", "ref:FR:STIF:stop_id": "StopPoint:59:3687256", "route_ref": "76;76", "shelter": "no", "source": "survey 09/2018", "source:wheelchair": "STIF 2019-01", "tactile_paving": "no", "wheelchair": "yes"}}, {"type": "node", "id": 1847277811, "lat": 48.8497864, "lon": 2.3556105, "tags": {"STIF:zone": "1", "bench": "yes", "bin": "no", "bus": "yes", "check_date:shelter": "2022-07-06", "highway": "bus_stop", "lit": "yes", "name": "Pont de la Tournelle - Cardinal Lemoine", "public_transport": "platform", "ref:FR:STIF": "39470", "ref:FR:STIF:stop_id": "StopPoint:59:3716931", "route_ref": "24;87", "shelter": "yes", "source:wheelchair": "STIF 2019-01", "tactile_paving": "no", "wheelchair": "no", "wikidata": "Q56857910"}}, {"type": "node", "id": 2032515165, "lat": 48.8543495, "lon": 2.3686959, "tags": {"STIF:zone": "1", "bench": "yes", "bin": "yes", "bus": "yes", "highway": "bus_stop", "lit": "yes", "name": "Bastille - Beaumarchais", "public_transport": "platform", "ref:FR:STIF": "28401", "route_ref": "N01;91", "shelter": "yes", "source:wheelchair": "STIF 2019-01", "survey:date": "2020-12-03", "tactile_paving": "no", "wheelchair": "no"}}, {"type": "node", "id": 2032515173, "lat": 48.8573717, "lon": 2.3679538, "tags": {"STIF:zone": "1", "bench": "yes", "bin": "no", "bus": "yes", "highway": "bus_stop", "lit": "no", "name": "Saint-Gilles - Chemin Vert", "public_transport": "platform", "ref:FR:STIF": "28394", "ref:FR:STIF:stop_id": "StopPoint:59:4044992", "route_ref": "N01;91", "shelter": "yes", "source:wheelchair": "STIF 2019-01", "tactile_paving": "no", "wheelchair": "no"}}, {"type": "node", "id": 2042462123, "lat": 48.8529588, "lon": 2.3772155, "tags": {"STIF:zone": "1", "bench": "yes", "bin": "no", "bus": "yes", "highway": "bus_stop", "lit": "yes", "name": "Charonne - Keller", "public_transport": "platform", "ref:FR:STIF": "22496", "ref:FR:STIF:stop_id": "StopPoint:59:3673592", "route_ref": "61;N16;N34", "shelter": "yes", "source:wheelchair": "STIF 2019-01", "tactile_paving": "no", "wheelchair": "no"}}, {"type": "node", "id": 2042462161, "lat": 48.854278, "lon": 2.3777513, "tags": {"STIF:zone": "1", "bench": "yes", "bin": "no", "bus": "yes", "highway": "bus_stop", "lit": "yes", "name": "Charonne - Keller", "public_transport": "platform", "ref:FR:STIF": "41807", "ref:FR:STIF:stop_id": "StopPoint:59:5138085", "route_ref": "61", "shelter": "yes", "source:wheelchair": "STIF 2019-01", "tactile_paving": "no", "wheelchair": "no"}}, {"type": "node", "id": 2042462181, "lat": 48.8558631, "lon": 2.3754123, "tags": {"STIF:zone": "1", "bench": "yes", "bin": "no", "bus": "yes", "highway": "bus_stop", "lit": "no", "name": "Commandant Lamy", "public_transport": "platform", "ref:FR:STIF": "26292", "ref:FR:STIF:stop_id": "StopPoint:59:3687125", "route_ref": "69", "shelter": "yes", "source:wheelchair": "STIF 2019-01", "tactile_paving": "no", "wheelchair": "yes"}}, {"type": "node", "id": 2042462191, "lat": 48.8572227, "lon": 2.3682716, "tags": {"STIF:zone": "1", "bench": "yes", "bin": "no", "bus": "yes", "highway": "bus_stop", "lit": "no", "name": "Saint-Gilles - Chemin Vert", "public_transport": "platform", "ref:FR:STIF": "28405", "ref:FR:STIF:stop_id": "StopPoint:59:4037266", "route_ref": "N02;91", "shelter": "yes", "source:wheelchair": "STIF 2019-01", "tactile_paving": "no", "wheelchair": "no"}}, {"type": "node", "id": 2042462198, "lat": 48.8583576, "lon": 2.379017, "tags": {"STIF:zone": "1", "bench": "yes", "bin": "no", "bus": "yes", "highway": "bus_stop", "lit": "yes", "name": "Voltaire - L\u00e9on Blum", "public_transport": "platform", "ref:FR:STIF": "23655", "ref:FR:STIF:stop_id": "StopPoint:59:6423478", "route_ref": "56", "shelter": "yes", "source:wheelchair": "STIF 2019-01", "tactile_paving": "no", "wheelchair": "no"}}, {"type": "node", "id": 2042462199, "lat": 48.8579516, "lon": 2.3712606, "tags": {"STIF:zone": "1", "bench": "yes", "bin": "no", "bus": "yes", "check_date:shelter": "2023-08-27", "highway": "bus_stop", "lit": "yes", "name": "Richard Lenoir", "public_transport": "platform", "ref:FR:STIF": "26286", "ref:FR:STIF:stop_id": "StopPoint:59:3687075", "route_ref": "69", "shelter": "yes", "source:wheelchair": "STIF 2019-01", "tactile_paving": "no", "wheelchair": "yes"}}, {"type": "node", "id": 2042462203, "lat": 48.8591398, "lon": 2.374782, "tags": {"STIF:zone": "1", "bench": "yes", "bin": "no", "bus": "yes", "highway": "bus_stop", "lit": "yes", "name": "Popincourt", "public_transport": "platform", "ref:FR:STIF": "23322", "ref:FR:STIF:stop_id": "StopPoint:59:3687073", "route_ref": "69", "shelter": "yes", "source:wheelchair": "STIF 2019-01", "tactile_paving": "no", "wheelchair": "yes"}}, {"type": "node", "id": 2042462204, "lat": 48.8597011, "lon": 2.3646059, "tags": {"STIF:zone": "1", "bench": "yes", "bus": "yes", "highway": "bus_stop", "name": "Saint-Claude", "public_transport": "platform", "ref:FR:STIF": "37589", "ref:FR:STIF:stop_id": "StopPoint:59:3687437", "route_ref": "96", "shelter": "yes", "source:wheelchair": "STIF 2019-01", "wheelchair": "no"}}, {"type": "node", "id": 2042462205, "lat": 48.859766, "lon": 2.3677041, "tags": {"STIF:zone": "1", "bench": "yes", "bin": "yes", "bus": "yes", "bus_stop:type": "Abri autobus 3,35x1,40", "highway": "bus_stop", "lit": "no", "name": "Saint-Claude", "name:RATP": "SAINT-CLAUDE", "public_transport": "platform", "ref:FR:RATP": "11342256", "ref:FR:STIF": "27319", "ref:FR:STIF:stop_id": "StopPoint:59:4726952", "shelter": "yes", "source": "survey 07/2017", "source:position": "BD Ortho 2019", "tactile_paving": "no", "type:RATP": "bus", "wheelchair": "yes"}}, {"type": "node", "id": 2042462207, "lat": 48.8598827, "lon": 2.367332, "tags": {"STIF:zone": "1", "bench": "yes", "bin": "yes", "bus": "yes", "highway": "bus_stop", "lit": "no", "name": "Saint-Claude", "public_transport": "platform", "ref:FR:STIF": "28392", "ref:FR:STIF:stop_id": "StopPoint:59:4726935", "route_ref": "91", "shelter": "yes", "source:wheelchair": "STIF 2019-01", "tactile_paving": "no", "wheelchair": "yes"}}, {"type": "node", "id": 2042462208, "lat": 48.8601438, "lon": 2.3604573, "tags": {"STIF:zone": "1", "bench": "yes", "bin": "yes", "bus": "yes", "bus_stop:type": "Abri autobus 4x1,30", "highway": "bus_stop", "lit": "yes", "name": "Rue Vieille du Temple", "name:RATP": "RUE VIEILLE DU TEMPLE", "public_transport": "platform", "ref:FR:RATP": "11343972", "ref:FR:STIF": "24797", "ref:FR:STIF:stop_id": "StopPoint:59:3747873", "route_ref": "29", "shelter": "yes", "source:position": "opendata.paris.fr - 04/2011", "source:wheelchair": "STIF 2019-01", "tactile_paving": "no", "type:RATP": "bus", "wheelchair": "yes", "wikidata": "Q56868652"}}, {"type": "node", "id": 2042462223, "lat": 48.8641167, "lon": 2.3606504, "tags": {"STIF:zone": "1", "bench": "yes", "bin": "no", "bus": "yes", "highway": "bus_stop", "lit": "yes", "name": "Square du Temple - Mairie du 3e - Carreau du Temple", "public_transport": "platform", "ref:FR:STIF": "24843", "ref:FR:STIF:stop_id": "StopPoint:59:3926393", "route_ref": "75", "shelter": "yes", "source:wheelchair": "STIF 2019-01", "tactile_paving": "no", "wheelchair": "no"}}, {"type": "node", "id": 2043615168, "lat": 48.8471394, "lon": 2.3607, "tags": {"STIF:zone": "1", "bench": "yes", "bin": "yes", "bus": "yes", "highway": "bus_stop", "lit": "yes", "name": "Cuvier", "public_transport": "platform", "ref:FR:STIF": "25725", "ref:FR:STIF:stop_id": "StopPoint:59:3716929", "route_ref": "63", "shelter": "yes", "source:wheelchair": "STIF 2019-01", "tactile_paving": "no", "wheelchair": "yes"}}, {"type": "node", "id": 2044485216, "lat": 48.861172, "lon": 2.3584233, "tags": {"STIF:zone": "1", "bench": "no", "bin": "yes", "bus": "yes", "highway": "bus_stop", "lit": "yes", "name": "Archives - Haudriettes", "name:RATP": "ARCHIVES - HAUDRIETTES", "public_transport": "platform", "ref:FR:RATP": "11343973", "ref:FR:STIF": "29452", "ref:FR:STIF:stop_id": "StopPoint:59:3747874", "route_ref": "29", "shelter": "no", "source:wheelchair": "STIF 2019-01", "tactile_paving": "no", "type:RATP": "bus", "wheelchair": "yes"}}, {"type": "node", "id": 2044485228, "lat": 48.8544202, "lon": 2.3689716, "tags": {"STIF:zone": "1", "bench": "yes", "bin": "no", "bus": "yes", "highway": "bus_stop", "lit": "no", "name": "Bastille - Beaumarchais", "public_transport": "platform", "ref:FR:STIF": "36551", "route_ref": "N02;91", "shelter": "yes", "source:wheelchair": "STIF 2019-01", "survey:date": "2020-12-03", "tactile_paving": "no", "wheelchair": "no"}}, {"type": "node", "id": 2044485255, "lat": 48.8610273, "lon": 2.353957, "tags": {"STIF:zone": "1", "bench": "yes", "bin": "yes", "bus": "yes", "highway": "bus_stop", "lit": "yes", "name": "Centre Georges Pompidou", "name:RATP": "CENTRE GEORGES POMPIDOU", "public_transport": "platform", "ref:FR:RATP": "11343940", "ref:FR:STIF": "29439", "ref:FR:STIF:stop_id": "StopPoint:59:3747828", "shelter": "no", "source:ref:FR:STIF": "opendata STIF - 03/2017", "tactile_paving": "no", "type:RATP": "bus"}}, {"type": "node", "id": 2044485293, "lat": 48.8628065, "lon": 2.3537583, "tags": {"STIF:zone": "1", "bench": "no", "bin": "yes", "bus": "yes", "highway": "bus_stop", "lit": "yes", "name": "Grenier Saint-Lazare - Quartier de l'Horloge", "name:RATP": "GRENIER SAINT-LAZARE - QUARTIER DE L'HORLOGE", "public_transport": "platform", "ref:FR:RATP": "11343974", "ref:FR:STIF": "29442", "ref:FR:STIF:stop_id": "StopPoint:59:3747827", "route_ref": "29", "shelter": "no", "source:wheelchair": "STIF 2019-01", "tactile_paving": "no", "type:RATP": "bus", "wheelchair": "yes"}}, {"type": "node", "id": 2044485344, "lat": 48.8561887, "lon": 2.3685475, "tags": {"STIF:zone": "1", "bench": "yes", "bin": "yes", "bus": "yes", "highway": "bus_stop", "lit": "yes", "name": "Pasteur - Wagner", "name:RATP": "PASTEUR - WAGNER", "public_transport": "platform", "ref:FR:RATP": "11342254", "ref:FR:STIF": "27318", "ref:FR:STIF:stop_id": "StopPoint:59:3747870", "shelter": "yes", "source:position": "Bing 2013", "tactile_paving": "no", "type:RATP": "bus", "wheelchair": "yes"}}, {"type": "node", "id": 2044485355, "lat": 48.8571606, "lon": 2.3619544, "tags": {"STIF:zone": "1", "bench": "no", "bin": "yes", "bus": "yes", "highway": "bus_stop", "lit": "yes", "name": "Payenne", "public_transport": "platform", "ref:FR:RATP": "11343943", "ref:FR:STIF": "29422", "ref:FR:STIF:stop_id": "StopPoint:59:3747831", "shelter": "no", "survey:date": "2021-01-09", "tactile_paving": "no", "wheelchair": "no", "wikidata": "Q56858695"}}, {"type": "node", "id": 2044485373, "lat": 48.8576997, "lon": 2.3675756, "tags": {"STIF:zone": "1", "bench": "no", "bin": "yes", "bus": "yes", "highway": "bus_stop", "lit": "yes", "name": "Tournelles - Saint-Gilles", "name:RATP": "TOURNELLES - SAINT-GILLES", "public_transport": "platform", "ref:FR:RATP": "11343970", "ref:FR:STIF": "39887", "ref:FR:STIF:stop_id": "StopPoint:59:3747871", "route_ref": "29", "shelter": "no", "source:wheelchair": "STIF 2019-01", "tactile_paving": "no", "type:RATP": "bus", "wheelchair": "yes", "wikidata": "Q56858148"}}, {"type": "node", "id": 2044485381, "lat": 48.8583046, "lon": 2.3640113, "tags": {"STIF:zone": "1", "bench": "no", "bin": "yes", "bus": "yes", "highway": "bus_stop", "lit": "yes", "name": "Turenne - Saint-Gilles", "name:RATP": "TURENNE - SAINT-GILLES", "public_transport": "platform", "ref:FR:RATP": "11343971", "ref:FR:STIF": "29447", "ref:FR:STIF:stop_id": "StopPoint:59:3747872", "route_ref": "29", "shelter": "no", "source:wheelchair": "STIF 2019-01", "tactile_paving": "no", "type:RATP": "bus", "wheelchair": "yes", "wikidata": "Q56858326"}}, {"type": "node", "id": 2069252598, "lat": 48.8489071, "lon": 2.3553469, "tags": {"STIF:zone": "1", "bench": "no", "bin": "no", "bus": "yes", "highway": "bus_stop", "lit": "yes", "name": "Institut du Monde Arabe", "name:ru": "\u0418\u043d\u0441\u0442\u0438\u0442\u0443\u0442 \u0430\u0440\u0430\u0431\u0441\u043a\u043e\u0433\u043e \u043c\u0438\u0440\u0430", "public_transport": "platform", "ref:FR:STIF": "36651", "ref:FR:STIF:stop_id": "StopPoint:59:3813104", "route_ref": "86;87", "shelter": "no", "source": "survey 06/2018", "source:position": "BD Ortho 2018", "tactile_paving": "no"}}, {"type": "node", "id": 2069252599, "lat": 48.8489948, "lon": 2.3554817, "tags": {"STIF:zone": "1", "bench": "no", "bin": "no", "bus": "yes", "highway": "bus_stop", "lit": "yes", "name": "Institut du Monde Arabe", "public_transport": "platform", "ref:FR:STIF": "37724", "ref:FR:STIF:stop_id": "StopPoint:59:3765201", "route_ref": "63", "shelter": "no", "source:wheelchair": "STIF 2019-01", "tactile_paving": "no", "wheelchair": "yes"}}, {"type": "node", "id": 2069252600, "lat": 48.84905, "lon": 2.3555684, "tags": {"STIF:zone": "1", "bench": "no", "bin": "no", "bus": "yes", "highway": "bus_stop", "lit": "no", "name": "Institut du Monde Arabe", "public_transport": "platform", "ref:FR:STIF": "37724", "shelter": "no", "source": "survey", "source:ref:FR:STIF": "STIF - 12/2016", "tactile_paving": "no"}}, {"type": "node", "id": 2071889823, "lat": 48.8570782, "lon": 2.368522, "tags": {"STIF:zone": "1", "bench": "no", "bin": "yes", "bus": "yes", "highway": "bus_stop", "lit": "yes", "name": "Beaumarchais", "public_transport": "platform", "ref:FR:STIF": "37547", "ref:FR:STIF:stop_id": "StopPoint:59:3687076", "route_ref": "69", "shelter": "no", "source:wheelchair": "STIF 2019-01", "tactile_paving": "no", "wheelchair": "yes"}}, {"type": "node", "id": 2071889824, "lat": 48.8544422, "lon": 2.3718604, "tags": {"STIF:zone": "1", "bench": "no", "bin": "no", "bus": "yes", "highway": "bus_stop", "lit": "yes", "name": "Breguet - Sabin", "public_transport": "platform", "ref:FR:STIF": "26299", "ref:FR:STIF:stop_id": "StopPoint:59:7986281", "route_ref": "69", "shelter": "no", "source:wheelchair": "STIF 2019-01", "tactile_paving": "no", "wheelchair": "yes"}}, {"type": "node", "id": 2071889825, "lat": 48.8599893, "lon": 2.3775333, "tags": {"STIF:zone": "1", "bench": "yes", "bin": "no", "bus": "yes", "highway": "bus_stop", "lit": "yes", "name": "Chemin Vert - Parmentier", "public_transport": "platform", "ref:FR:STIF": "26309", "ref:FR:STIF:stop_id": "StopPoint:59:3687072", "route_ref": "69", "shelter": "yes", "source:wheelchair": "STIF 2019-01", "tactile_paving": "no", "wheelchair": "yes"}}, {"type": "node", "id": 2071889833, "lat": 48.856906, "lon": 2.3783131, "tags": {"STIF:zone": "1", "bench": "no", "bin": "no", "bus": "yes", "highway": "bus_stop", "lit": "yes", "name": "Popincourt", "public_transport": "platform", "ref:FR:STIF": "26306", "ref:FR:STIF:stop_id": "StopPoint:59:3687074", "route_ref": "69", "shelter": "no", "source:wheelchair": "STIF 2019-01", "tactile_paving": "no", "wheelchair": "yes"}}, {"type": "node", "id": 2073394402, "lat": 48.8572511, "lon": 2.3528385, "tags": {"STIF:zone": "1", "bench": "no", "bin": "no", "bus": "yes", "highway": "bus_stop", "lit": "yes", "name": "H\u00f4tel de Ville", "public_transport": "platform", "ref:FR:STIF": "36947", "ref:FR:STIF:stop_id": "StopPoint:59:3687430", "route_ref": "67;69;76;96;N11;N16;72", "shelter": "no", "source:wheelchair": "STIF 2019-01", "tactile_paving": "no", "wheelchair": "no"}}, {"type": "node", "id": 2079115567, "lat": 48.8540705, "lon": 2.3554871, "tags": {"STIF:zone": "1", "bench": "yes", "bin": "no", "bus": "yes", "highway": "bus_stop", "lit": "yes", "name": "Pont Louis Philippe", "public_transport": "platform", "ref:FR:STIF": "28020", "ref:FR:STIF:stop_id": "StopPoint:59:3764514", "route_ref": "67;72", "shelter": "yes", "source:wheelchair": "STIF 2019-01", "survey:date": "2021-01-09", "tactile_paving": "no", "wheelchair": "no"}}, {"type": "node", "id": 2359126333, "lat": 48.8595334, "lon": 2.3773648, "tags": {"STIF:zone": "1", "bench": "yes", "bus": "yes", "check_date:shelter": "2023-08-27", "highway": "bus_stop", "lit": "yes", "name": "Chemin Vert", "public_transport": "platform", "ref:FR:STIF": "23656", "ref:FR:STIF:stop_id": "StopPoint:59:6423477", "route_ref": "56", "shelter": "yes", "source:wheelchair": "STIF 2019-01", "tactile_paving": "no", "wheelchair": "no"}}, {"type": "node", "id": 2393618848, "lat": 48.8549834, "lon": 2.3621342, "tags": {"STIF:zone": "1", "bench": "yes", "bin": "no", "bus": "yes", "highway": "bus_stop", "lit": "yes", "name": "Saint-Paul", "public_transport": "platform", "ref:FR:STIF": "424219", "shelter": "yes", "source:wheelchair": "STIF 2019-01", "tactile_paving": "no", "wheelchair": "no"}}, {"type": "node", "id": 2459598676, "lat": 48.8537631, "lon": 2.3654069, "tags": {"STIF:zone": "1", "bench": "yes", "bin": "no", "bus": "yes", "highway": "bus_stop", "lit": "no", "name": "Birague", "public_transport": "platform", "ref:FR:STIF": "26173", "shelter": "yes", "source:wheelchair": "STIF 2019-01", "survey:date": "2020-12-03", "tactile_paving": "no", "wheelchair": "yes"}}, {"type": "node", "id": 2689489675, "lat": 48.8618545, "lon": 2.3589778, "tags": {"STIF:zone": "1", "bench": "no", "bin": "no", "bus": "yes", "highway": "bus_stop", "lit": "no", "name": "Archives - Haudriettes", "public_transport": "platform", "ref:FR:STIF": "24800", "ref:FR:STIF:stop_id": "StopPoint:59:3926392", "route_ref": "75", "shelter": "no", "source:wheelchair": "STIF 2019-01", "tactile_paving": "no", "wheelchair": "no"}}, {"type": "node", "id": 2880767499, "lat": 48.8547925, "lon": 2.3621087, "tags": {"STIF:zone": "1", "bench": "yes", "bin": "yes", "bus": "yes", "highway": "bus_stop", "lit": "yes", "name": "Saint-Paul", "public_transport": "platform", "ref:FR:STIF": "26175", "shelter": "yes", "survey:date": "2021-01-09", "tactile_paving": "no"}}, {"type": "node", "id": 2881639267, "lat": 48.8533016, "lon": 2.3679647, "tags": {"STIF:zone": "1", "bench": "no", "bin": "no", "bus": "yes", "highway": "bus_stop", "lit": "no", "name": "Bastille - Rue Saint-Antoine", "public_transport": "platform", "ref:FR:STIF": "26174", "shelter": "no", "survey:date": "2020-12-03", "tactile_paving": "no", "temporary": "yes"}}, {"type": "node", "id": 4048831851, "lat": 48.8487989, "lon": 2.3709387, "tags": {"STIF:zone": "1", "bench": "yes", "bin": "no", "bus": "yes", "highway": "bus_stop", "lit": "no", "name": "Lyon - Ledru Rollin", "public_transport": "platform", "ref:FR:STIF": "28393", "ref:FR:STIF:stop_id": "StopPoint:59:3747836", "route_ref": "91;87;65;N16", "shelter": "yes", "source:wheelchair": "STIF 2019-01", "tactile_paving": "no", "wheelchair": "no"}}, {"type": "node", "id": 4330527021, "lat": 48.8516741, "lon": 2.356346, "tags": {"STIF:zone": "1", "bench": "no", "bin": "no", "bus": "yes", "highway": "bus_stop", "lit": "yes", "name": "\u00cele Saint-Louis", "public_transport": "platform", "ref:FR:STIF": "26184", "ref:FR:STIF:stop_id": "StopPoint:59:3764515", "route_ref": "67", "shelter": "no", "source:wheelchair": "STIF 2019-01", "tactile_paving": "no", "wheelchair": "yes"}}, {"type": "node", "id": 4866915421, "lat": 48.8554638, "lon": 2.3580647, "tags": {"STIF:zone": "1", "bench": "no", "bin": "yes", "bus": "yes", "highway": "bus_stop", "lit": "yes", "name": "Rue de Jouy", "public_transport": "platform", "ref:FR:STIF": "37546", "ref:FR:STIF:stop_id": "StopPoint:59:3687122", "route_ref": "69;96;N16", "shelter": "no", "source:wheelchair": "STIF 2019-01", "tactile_paving": "no", "wheelchair": "no"}}, {"type": "node", "id": 4955225422, "lat": 48.8564515, "lon": 2.3562211, "tags": {"STIF:zone": "1", "bench": "yes", "bin": "no", "bus": "yes", "check_date:shelter": "2022-04-15", "highway": "bus_stop", "lit": "yes", "name": "Rue Vieille du Temple - Mairie du 4e", "public_transport": "platform", "ref:FR:STIF": "28016", "ref:FR:STIF:stop_id": "StopPoint:59:3764547", "route_ref": "67;72", "shelter": "yes", "source:wheelchair": "STIF 2019-01", "tactile_paving": "no", "wheelchair": "yes"}}, {"type": "node", "id": 4955783405, "lat": 48.8625381, "lon": 2.3671884, "tags": {"STIF:zone": "1", "bench": "yes", "bin": "no", "bus": "yes", "highway": "bus_stop", "lit": "yes", "name": "Oberkampf - Filles du Calvaire", "public_transport": "platform", "ref:FR:STIF": "37525", "ref:FR:STIF:stop_id": "StopPoint:59:3687441", "route_ref": "96", "shelter": "yes", "source:wheelchair": "STIF 2019-01", "tactile_paving": "no", "wheelchair": "no"}}, {"type": "node", "id": 5406144339, "lat": 48.8643105, "lon": 2.3658642, "tags": {"STIF:zone": "1", "bench": "yes", "bus": "yes", "highway": "bus_stop", "name": "Jean-Pierre Timbaud", "public_transport": "platform", "route_ref": "91;96", "shelter": "yes", "wheelchair": "no"}}, {"type": "node", "id": 5534507543, "lat": 48.8636294, "lon": 2.3702393, "tags": {"STIF:zone": "1", "bench": "yes", "bus": "yes", "highway": "bus_stop", "name": "Oberkampf - Richard Lenoir", "public_transport": "platform", "ref:FR:STIF": "23660", "ref:FR:STIF:stop_id": "StopPoint:59:6423472", "route_ref": "56", "shelter": "yes", "source:wheelchair": "STIF 2019-01", "wheelchair": "no"}}, {"type": "node", "id": 5603092944, "lat": 48.8640751, "lon": 2.3710124, "tags": {"STIF:zone": "1", "bench": "yes", "bin": "no", "bus": "yes", "highway": "bus_stop", "lit": "yes", "name": "Oberkampf - Richard Lenoir", "public_transport": "platform", "ref:FR:STIF": "37542", "ref:FR:STIF:stop_id": "StopPoint:59:3687442", "route_ref": "96", "shelter": "yes", "source:wheelchair": "STIF 2019-01", "tactile_paving": "no", "wheelchair": "no"}}, {"type": "node", "id": 5603092947, "lat": 48.8618593, "lon": 2.3655649, "tags": {"STIF:zone": "1", "bench": "yes", "bin": "yes", "bus": "yes", "highway": "bus_stop", "lit": "yes", "name": "Bretagne", "public_transport": "platform", "ref:FR:STIF": "37586", "ref:FR:STIF:stop_id": "StopPoint:59:3687439", "route_ref": "96", "shelter": "yes", "source:wheelchair": "STIF 2019-01", "tactile_paving": "no", "wheelchair": "no"}}, {"type": "node", "id": 5614766844, "lat": 48.859818, "lon": 2.3644601, "tags": {"STIF:zone": "1", "bus": "yes", "highway": "bus_stop", "name": "Saint-Claude", "public_transport": "platform", "ref:FR:STIF": "37588", "ref:FR:STIF:stop_id": "StopPoint:59:3687438", "route_ref": "96", "source:wheelchair": "STIF 2019-01", "wheelchair": "no"}}, {"type": "node", "id": 5614766846, "lat": 48.862253, "lon": 2.3649806, "tags": {"STIF:zone": "1", "bench": "no", "bin": "no", "bus": "yes", "highway": "bus_stop", "lit": "yes", "name": "Bretagne", "public_transport": "platform", "ref:FR:STIF": "37573", "ref:FR:STIF:stop_id": "StopPoint:59:3687440", "route_ref": "96", "shelter": "no", "source:wheelchair": "STIF 2019-01", "tactile_paving": "no", "wheelchair": "no"}}, {"type": "node", "id": 5979563842, "lat": 48.8530179, "lon": 2.3770203, "tags": {"STIF:zone": "1", "bench": "yes", "bin": "no", "bus": "yes", "bus_stop:type": "Abri autobus 3,35x1,40", "highway": "bus_stop", "lit": "yes", "name": "Charonne - Keller", "public_transport": "platform", "ref:FR:STIF": "37549", "ref:FR:STIF:stop_id": "StopPoint:59:5231608", "route_ref": "76;N16;N34", "shelter": "yes", "tactile_paving": "no", "type:RATP": "bus", "wheelchair": "yes"}}, {"type": "node", "id": 5979563855, "lat": 48.8509731, "lon": 2.3756724, "tags": {"STIF:zone": "1", "bench": "no", "bus": "yes", "highway": "bus_stop", "name": "Ledru-Rollin - Faubourg Saint-Antoine", "public_transport": "platform", "ref:FR:STIF": "22498", "ref:FR:STIF:stop_id": "StopPoint:59:7921038", "route_ref": "61;N16;N34", "shelter": "no", "source:wheelchair": "STIF 2019-01", "tactile_paving": "no", "wheelchair": "no"}}, {"type": "node", "id": 5979563861, "lat": 48.8553257, "lon": 2.3785851, "tags": {"STIF:zone": "1", "bench": "yes", "bus": "yes", "highway": "bus_stop", "name": "Basfroi", "public_transport": "platform", "ref:FR:STIF": "26672", "ref:FR:STIF:stop_id": "StopPoint:59:3673593", "route_ref": "61;N16;N34", "shelter": "yes", "source:wheelchair": "STIF 2019-01", "wheelchair": "no"}}, {"type": "node", "id": 5979563862, "lat": 48.8517414, "lon": 2.3765111, "tags": {"STIF:zone": "1", "bus": "yes", "highway": "bus_stop", "name": "Ledru-Rollin - Faubourg Saint-Antoine", "public_transport": "platform", "ref:FR:STIF": "22495", "ref:FR:STIF:stop_id": "StopPoint:59:3673591", "route_ref": "61;76;N16;N34", "shelter": "yes", "source:wheelchair": "STIF 2019-01", "tactile_paving": "no", "wheelchair": "no"}}, {"type": "node", "id": 5979563863, "lat": 48.8488943, "lon": 2.3728278, "tags": {"STIF:zone": "1", "bench": "yes", "bin": "no", "bus": "yes", "highway": "bus_stop", "name": "Daumesnil - Ledru-Rollin", "public_transport": "platform", "ref:FR:STIF": "39750", "ref:FR:STIF:stop_id": "StopPoint:59:7920981", "route_ref": "61;N16;N34", "shelter": "yes", "source:wheelchair": "STIF 2019-01", "tactile_paving": "no", "wheelchair": "no"}}, {"type": "node", "id": 5979563864, "lat": 48.8561395, "lon": 2.378831, "tags": {"STIF:zone": "1", "bench": "yes", "bus": "yes", "highway": "bus_stop", "name": "Basfroi", "public_transport": "platform", "ref:FR:STIF": "26673", "ref:FR:STIF:stop_id": "StopPoint:59:3673594", "route_ref": "61;N16;N34", "shelter": "yes", "source:wheelchair": "STIF 2019-01", "tactile_paving": "no", "wheelchair": "no"}}, {"type": "node", "id": 5979566384, "lat": 48.8484802, "lon": 2.3730845, "tags": {"STIF:zone": "1", "bench": "yes", "bin": "yes", "bus": "yes", "highway": "bus_stop", "lit": "yes", "name": "Daumesnil - Ledru-Rollin", "public_transport": "platform", "ref:FR:STIF": "39397", "ref:FR:STIF:stop_id": "StopPoint:59:3673589", "route_ref": "29;61;N16;N34", "shelter": "yes", "source:wheelchair": "STIF 2019-01", "tactile_paving": "no", "wheelchair": "no"}}, {"type": "node", "id": 6284311985, "lat": 48.859865, "lon": 2.3764603, "tags": {"STIF:zone": "1", "bench": "yes", "bin": "no", "bus": "yes", "highway": "bus_stop", "lit": "yes", "name": "Chemin Vert", "public_transport": "platform", "ref:FR:STIF": "23658", "ref:FR:STIF:stop_id": "StopPoint:59:6423476", "route_ref": "56", "shelter": "yes", "source:wheelchair": "STIF 2019-01", "tactile_paving": "no", "wheelchair": "no"}}, {"type": "node", "id": 6284311986, "lat": 48.8612256, "lon": 2.3741544, "tags": {"STIF:zone": "1", "bench": "yes", "bin": "yes", "bus": "yes", "highway": "bus_stop", "lit": "yes", "name": "Saint-Ambroise", "public_transport": "platform", "ref:FR:STIF": "23662", "ref:FR:STIF:stop_id": "StopPoint:59:6423474", "route_ref": "56", "shelter": "yes", "source:wheelchair": "STIF 2019-01", "tactile_paving": "no", "wheelchair": "no"}}, {"type": "node", "id": 6352740660, "lat": 48.8476958, "lon": 2.3652713, "tags": {"STIF:zone": "1", "bench": "no", "bin": "no", "bus": "yes", "highway": "bus_stop", "lit": "yes", "name": "Port de l'Arsenal", "public_transport": "platform", "ref:FR:STIF": "463537", "ref:FR:STIF:stop_id": "StopPoint:59:7899664", "route_ref": "72", "shelter": "yes", "source:wheelchair": "STIF 2019-01", "tactile_paving": "no", "wheelchair": "no"}}, {"type": "node", "id": 6352748566, "lat": 48.8504671, "lon": 2.3613743, "tags": {"STIF:zone": "1", "bench": "no", "bin": "no", "bus": "yes", "highway": "bus_stop", "lit": "yes", "name": "Sully - Morland", "public_transport": "platform", "ref:FR:STIF": "463533", "ref:FR:STIF:stop_id": "StopPoint:59:7899746", "route_ref": "72;72", "shelter": "no", "source:wheelchair": "STIF 2019-01", "tactile_paving": "no", "wheelchair": "no"}}, {"type": "node", "id": 6352748567, "lat": 48.8474526, "lon": 2.364517, "tags": {"STIF:zone": "1", "bench": "no", "bin": "no", "bus": "yes", "highway": "bus_stop", "lit": "no", "name": "Port Henri IV", "public_transport": "platform", "ref:FR:STIF": "463540", "ref:FR:STIF:stop_id": "StopPoint:59:7899747", "route_ref": "72;72", "shelter": "no", "source": "survey", "source:wheelchair": "STIF 2019-01", "tactile_paving": "no", "wheelchair": "no"}}, {"type": "node", "id": 6353394917, "lat": 48.8529131, "lon": 2.3522444, "tags": {"STIF:zone": "1", "bench": "yes", "bin": "no", "bus": "yes", "highway": "bus_stop", "lit": "yes", "name": "Quai aux Fleurs-Pont Saint-Louis", "public_transport": "platform", "ref:FR:STIF": "463541", "ref:FR:STIF:stop_id": "StopPoint:59:7932154", "route_ref": "75", "shelter": "yes", "source:wheelchair": "STIF 2019-01", "tactile_paving": "no", "wheelchair": "no"}}, {"type": "node", "id": 6432809482, "lat": 48.8515433, "lon": 2.369738, "tags": {"STIF:zone": "1", "bench": "yes", "bin": "no", "bus": "yes", "highway": "bus_stop", "lit": "yes", "name": "Bastille", "passenger_information_display": "yes", "public_transport": "platform", "ref:FR:STIF": "463562", "shelter": "yes", "source:wheelchair": "STIF 2019-01", "survey:date": "2020-12-03", "tactile_paving": "no", "wheelchair": "no"}}, {"type": "node", "id": 6432809484, "lat": 48.8486997, "lon": 2.3712471, "tags": {"bench": "yes", "bin": "no", "highway": "bus_stop", "lit": "yes", "name": "Lyon - Ledru Rollin", "public_transport": "platform", "ref:FR:STIF": "463956", "route_ref": "91;87", "shelter": "yes", "tactile_paving": "no", "wheelchair": "no"}}, {"type": "node", "id": 6434439178, "lat": 48.852262, "lon": 2.3664366, "tags": {"STIF:zone": "1", "bench": "yes", "bin": "yes", "bus": "yes", "highway": "bus_stop", "lit": "yes", "name": "Bastille - Henri IV", "public_transport": "platform", "ref:FR:STIF": "463959", "route_ref": "86;87", "shelter": "yes", "source": "survey 06/2018", "source:wheelchair": "STIF 2019-01", "survey:date": "2020-12-03", "tactile_paving": "no", "temporary": "yes", "wheelchair": "yes"}}, {"type": "node", "id": 6474438087, "lat": 48.853634, "lon": 2.3707123, "tags": {"STIF:zone": "1", "bench": "no", "bin": "no", "bus": "yes", "highway": "bus_stop", "lit": "yes", "name": "Bastille - Roquette", "public_transport": "platform", "ref:FR:STIF": "473793", "ref:FR:STIF:stop_id": "StopPoint:59:7986280", "route_ref": "69", "shelter": "no", "source": "survey", "tactile_paving": "no"}}, {"type": "node", "id": 6477058431, "lat": 48.847868, "lon": 2.353982, "tags": {"STIF:zone": "1", "bench": "yes", "bin": "yes", "bus": "yes", "highway": "bus_stop", "lit": "yes", "name": "Jussieu - Min\u00e9raux", "public_transport": "platform", "ref:FR:STIF": "464061", "ref:FR:STIF:stop_id": "StopPoint:59:7965023", "route_ref": "87", "shelter": "yes", "source:wheelchair": "STIF 2019-01", "tactile_paving": "no", "wheelchair": "yes"}}, {"type": "node", "id": 6539372198, "lat": 48.8568484, "lon": 2.3545585, "tags": {"bench": "yes", "bin": "no", "bus": "yes", "highway": "bus_stop", "lit": "no", "name": "H\u00f4tel de Ville", "public_transport": "platform", "ref:FR:Open_Tour": "47", "route_ref": "Open Tour", "shelter": "yes", "tactile_paving": "no"}}, {"type": "node", "id": 6539372199, "lat": 48.8534306, "lon": 2.367629, "tags": {"bench": "no", "bin": "yes", "bus": "yes", "highway": "bus_stop", "lit": "yes", "name": "Bastille - Rue Saint-Antoine", "public_transport": "platform", "ref:FR:Open_Tour": "46", "shelter": "yes", "survey:date": "2020-12-03", "tactile_paving": "no", "temporary": "yes"}}, {"type": "node", "id": 6539372200, "lat": 48.8501912, "lon": 2.3596056, "tags": {"bench": "yes", "bin": "no", "bus": "yes", "highway": "bus_stop", "lit": "yes", "name": "Pont de Sully - \u00cele Saint Louis", "public_transport": "platform", "ref:FR:Open_Tour": "45", "route_ref": "Open Tour", "shelter": "yes", "tactile_paving": "no"}}, {"type": "node", "id": 8058551813, "lat": 48.8534241, "lon": 2.3677112, "tags": {"bench": "no", "bin": "yes", "bus": "yes", "highway": "bus_stop", "lit": "yes", "name": "Bastille - Rue Saint-Antoine", "public_transport": "platform", "ref:FR:STIF": "22636", "shelter": "yes", "survey:date": "2020-12-03", "tactile_paving": "no"}}, {"type": "node", "id": 8058748438, "lat": 48.8577409, "lon": 2.3545923, "tags": {"bench": "yes", "bin": "yes", "bus": "yes", "highway": "bus_stop", "lit": "yes", "name": "La Verrerie", "public_transport": "platform", "ref:FR:STIF": "24841", "shelter": "yes", "tactile_paving": "no"}}, {"type": "node", "id": 8140033594, "lat": 48.8554859, "lon": 2.3519661, "tags": {"bench": "yes", "bin": "no", "bus": "yes", "highway": "bus_stop", "lit": "yes", "name": "H\u00f4tel de Ville", "passenger_information_display": "yes", "public_transport": "platform", "ref:FR:STIF": "478394", "shelter": "yes", "survey:date": "2020-12-03", "tactile_paving": "no"}}, {"type": "node", "id": 8191707310, "lat": 48.8522164, "lon": 2.3696861, "tags": {"STIF:zone": "1", "bench": "yes", "bin": "no", "bus": "yes", "highway": "bus_stop", "lit": "yes", "name": "Bastille", "public_transport": "platform", "ref:FR:STIF": "9111", "shelter": "yes", "survey:date": "2020-12-03", "tactile_paving": "yes"}}, {"type": "node", "id": 10280453495, "lat": 48.8511482, "lon": 2.3766162, "tags": {"STIF:zone": "1", "bench": "no", "bin": "no", "bus": "yes", "highway": "bus_stop", "lit": "yes", "name": "Ledru-Rollin - Faubourg Saint-Antoine", "public_transport": "platform", "ref:FR:STIF": "24983", "route_ref": "86;86", "shelter": "no", "source": "survey 06/2018", "source:wheelchair": "STIF 2019-01", "tactile_paving": "no", "wheelchair": "yes"}}]}